{
 "type": "FeatureCollection",
 "generated": "2023-08-22T07:58:08.582116",
 "suburb": "PARAFIELD",
 "features": [
  {
   "type": "Feature",
   "geometry": {
    "type": "Point",
    "coordinates": [
     138.64343627,
     -34.7942778
    ]
   },
   "properties": {
    "name": "UNIT 1, 11 LAWRENCE HARGRAVE WAY PARAFIELD 5106",
    "locID": "LOC000008460670",
    "tech": "FTTP",
    "upgrade": "NULL_NA",
    "gnaf_pid": "GASA_416818551"
   }
  },
  {
   "type": "Feature",
   "geometry": {
    "type": "Point",
    "coordinates": [
     138.64343627,
     -34.7942778
    ]
   },
   "properties": {
    "name": "UNIT 2, 11 LAWRENCE HARGRAVE WAY PARAFIELD 5106",
    "locID": "LOC000008460670",
    "tech": "FTTP",
    "upgrade": "NULL_NA",
    "gnaf_pid": "GASA_416818552"
   }
  },
  {
   "type": "Feature",
   "geometry": {
    "type": "Point",
    "coordinates": [
     138.64343627,
     -34.7942778
    ]
   },
   "properties": {
    "name": "UNIT 3, 11 LAWRENCE HARGRAVE WAY PARAFIELD 5106",
    "locID": "LOC000008460670",
    "tech": "FTTP",
    "upgrade": "NULL_NA",
    "gnaf_pid": "GASA_416818553"
   }
  },
  {
   "type": "Feature",
   "geometry": {
    "type": "Point",
    "coordinates": [
     138.64280005,
     -34.79359151
    ]
   },
   "properties": {
    "name": "SHOP 3, 8 LAWRENCE HARGRAVE WAY PARAFIELD 5106",
    "locID": "ChIJ-eaLDQO0sGoRDm-DUtt52F0",
    "tech": "FTTP",
    "upgrade": "UNKNOWN",
    "gnaf_pid": "GASA_416818554"
   }
  },
  {
   "type": "Feature",
   "geometry": {
    "type": "Point",
    "coordinates": [
     138.63684416,
     -34.78840774
    ]
   },
   "properties": {
    "name": "25 TIGER MOTH LANE PARAFIELD 5106",
    "locID": "ChIJwdIsVqq2sGoRSsNQxo8Z8ZI",
    "tech": "FTTP",
    "upgrade": "UNKNOWN",
    "gnaf_pid": "GASA_416819236"
   }
  },
  {
   "type": "Feature",
   "geometry": {
    "type": "Point",
    "coordinates": [
     138.63749207,
     -34.78769225
    ]
   },
   "properties": {
    "name": "15 BUTLER AVENUE PARAFIELD 5106",
    "locID": "LOC000097047083",
    "tech": "FTTP",
    "upgrade": "NULL_NA",
    "gnaf_pid": "GASA_416819237"
   }
  },
  {
   "type": "Feature",
   "geometry": {
    "type": "Point",
    "coordinates": [
     138.63749207,
     -34.78769225
    ]
   },
   "properties": {
    "name": "167 BUTLER AVENUE PARAFIELD 5106",
    "locID": "ChIJoyjXlKq2sGoRy6BNcR8kSkA",
    "tech": "FTTP",
    "upgrade": "UNKNOWN",
    "gnaf_pid": "GASA_416819238"
   }
  },
  {
   "type": "Feature",
   "geometry": {
    "type": "Point",
    "coordinates": [
     138.63530686,
     -34.78698478
    ]
   },
   "properties": {
    "name": "7 DAKOTA DRIVE PARAFIELD 5106",
    "locID": "ChIJ01SZlOC3sGoRRpTMVfIaS-U",
    "tech": "FTTP",
    "upgrade": "UNKNOWN",
    "gnaf_pid": "GASA_416819239"
   }
  },
  {
   "type": "Feature",
   "geometry": {
    "type": "Point",
    "coordinates": [
     138.63530686,
     -34.78698478
    ]
   },
   "properties": {
    "name": "9 DAKOTA DRIVE PARAFIELD 5106",
    "locID": "LOC000183353603",
    "tech": "FTTP",
    "upgrade": "NULL_NA",
    "gnaf_pid": "GASA_416819240"
   }
  },
  {
   "type": "Feature",
   "geometry": {
    "type": "Point",
    "coordinates": [
     138.63530686,
     -34.78698478
    ]
   },
   "properties": {
    "name": "26 DAKOTA DRIVE PARAFIELD 5106",
    "locID": "ChIJrWoufqu2sGoRhB2SMx3bhak",
    "tech": "FTTP",
    "upgrade": "UNKNOWN",
    "gnaf_pid": "GASA_416819241"
   }
  },
  {
   "type": "Feature",
   "geometry": {
    "type": "Point",
    "coordinates": [
     138.63530686,
     -34.78698478
    ]
   },
   "properties": {
    "name": "27 DAKOTA DRIVE PARAFIELD 5106",
    "locID": "LOC000187498409",
    "tech": "FTTP",
    "upgrade": "NULL_NA",
    "gnaf_pid": "GASA_416819242"
   }
  },
  {
   "type": "Feature",
   "geometry": {
    "type": "Point",
    "coordinates": [
     138.63757088,
     -34.78662632
    ]
   },
   "properties": {
    "name": "38 LOCKHEED LANE PARAFIELD 5106",
    "locID": "ChIJJUgRyqq2sGoRHb3IKHP1-_E",
    "tech": "FTTP",
    "upgrade": "UNKNOWN",
    "gnaf_pid": "GASA_416819243"
   }
  },
  {
   "type": "Feature",
   "geometry": {
    "type": "Point",
    "coordinates": [
     138.6351673,
     -34.78928094
    ]
   },
   "properties": {
    "name": "8 KITTYHAWK LANE PARAFIELD 5106",
    "locID": "LOC000074079911",
    "tech": "FTTP",
    "upgrade": "NULL_NA",
    "gnaf_pid": "GASA_416819246"
   }
  },
  {
   "type": "Feature",
   "geometry": {
    "type": "Point",
    "coordinates": [
     138.6351673,
     -34.78928094
    ]
   },
   "properties": {
    "name": "35 KITTYHAWK LANE PARAFIELD 5106",
    "locID": "LOC000003493696",
    "tech": "FTTP",
    "upgrade": "NULL_NA",
    "gnaf_pid": "GASA_416819247"
   }
  },
  {
   "type": "Feature",
   "geometry": {
    "type": "Point",
    "coordinates": [
     138.6351673,
     -34.78928094
    ]
   },
   "properties": {
    "name": "39 KITTYHAWK LANE PARAFIELD 5106",
    "locID": "LOC000072270532",
    "tech": "FTTP",
    "upgrade": "NULL_NA",
    "gnaf_pid": "GASA_416819248"
   }
  },
  {
   "type": "Feature",
   "geometry": {
    "type": "Point",
    "coordinates": [
     138.6351673,
     -34.78928094
    ]
   },
   "properties": {
    "name": "54 KITTYHAWK LANE PARAFIELD 5106",
    "locID": "ChIJ91gD-au2sGoRLi3N4wzjrOI",
    "tech": "FTTP",
    "upgrade": "UNKNOWN",
    "gnaf_pid": "GASA_416819249"
   }
  },
  {
   "type": "Feature",
   "geometry": {
    "type": "Point",
    "coordinates": [
     138.6351673,
     -34.78928094
    ]
   },
   "properties": {
    "name": "55 KITTYHAWK LANE PARAFIELD 5106",
    "locID": "LOC000006288541",
    "tech": "FTTP",
    "upgrade": "NULL_NA",
    "gnaf_pid": "GASA_416819250"
   }
  },
  {
   "type": "Feature",
   "geometry": {
    "type": "Point",
    "coordinates": [
     138.6351673,
     -34.78928094
    ]
   },
   "properties": {
    "name": "155 KITTYHAWK LANE PARAFIELD 5106",
    "locID": "ChIJyemIwqu2sGoRuU_9cfm3Rtw",
    "tech": "FTTP",
    "upgrade": "UNKNOWN",
    "gnaf_pid": "GASA_416819251"
   }
  },
  {
   "type": "Feature",
   "geometry": {
    "type": "Point",
    "coordinates": [
     138.63626381,
     -34.78788952
    ]
   },
   "properties": {
    "name": "39 MOLLISON ROAD PARAFIELD 5106",
    "locID": "ChIJ-VWpsKu2sGoRKXbh8jast3k",
    "tech": "FTTP",
    "upgrade": "UNKNOWN",
    "gnaf_pid": "GASA_416819252"
   }
  },
  {
   "type": "Feature",
   "geometry": {
    "type": "Point",
    "coordinates": [
     138.6378351,
     -34.78848101
    ]
   },
   "properties": {
    "name": "171 ANDERSON DRIVE PARAFIELD 5106",
    "locID": "LOC000182509155",
    "tech": "FTTP",
    "upgrade": "NULL_NA",
    "gnaf_pid": "GASA_416822092"
   }
  },
  {
   "type": "Feature",
   "geometry": {
    "type": "Point",
    "coordinates": [
     138.6378351,
     -34.78848101
    ]
   },
   "properties": {
    "name": "50B ANDERSON DRIVE PARAFIELD 5106",
    "locID": "LOC000092984402",
    "tech": "FTTP",
    "upgrade": "NULL_NA",
    "gnaf_pid": "GASA_416822093"
   }
  },
  {
   "type": "Feature",
   "geometry": {
    "type": "Point",
    "coordinates": [
     138.6378351,
     -34.78848101
    ]
   },
   "properties": {
    "name": "59 ANDERSON DRIVE PARAFIELD 5106",
    "locID": "LOC000049680624",
    "tech": "FTTP",
    "upgrade": "NULL_NA",
    "gnaf_pid": "GASA_416822094"
   }
  },
  {
   "type": "Feature",
   "geometry": {
    "type": "Point",
    "coordinates": [
     138.6378351,
     -34.78848101
    ]
   },
   "properties": {
    "name": "51 ANDERSON DRIVE PARAFIELD 5106",
    "locID": "LOC100064745098",
    "tech": "FTTP",
    "upgrade": "NULL_NA",
    "gnaf_pid": "GASA_416822095"
   }
  },
  {
   "type": "Feature",
   "geometry": {
    "type": "Point",
    "coordinates": [
     138.6378351,
     -34.78848101
    ]
   },
   "properties": {
    "name": "65 ANDERSON DRIVE PARAFIELD 5106",
    "locID": "ChIJTxpxjKq2sGoRskN1RVrJvN8",
    "tech": "FTTP",
    "upgrade": "UNKNOWN",
    "gnaf_pid": "GASA_416822096"
   }
  },
  {
   "type": "Feature",
   "geometry": {
    "type": "Point",
    "coordinates": [
     138.6378351,
     -34.78848101
    ]
   },
   "properties": {
    "name": "57 ANDERSON DRIVE PARAFIELD 5106",
    "locID": "LOC100072891228",
    "tech": "FTTP",
    "upgrade": "NULL_NA",
    "gnaf_pid": "GASA_416822097"
   }
  },
  {
   "type": "Feature",
   "geometry": {
    "type": "Point",
    "coordinates": [
     138.6378351,
     -34.78848101
    ]
   },
   "properties": {
    "name": "56 ANDERSON DRIVE PARAFIELD 5106",
    "locID": "ChIJFWJkRaq2sGoRslUrmSmYAa0",
    "tech": "FTTP",
    "upgrade": "UNKNOWN",
    "gnaf_pid": "GASA_416822098"
   }
  },
  {
   "type": "Feature",
   "geometry": {
    "type": "Point",
    "coordinates": [
     138.6378351,
     -34.78848101
    ]
   },
   "properties": {
    "name": "7 ANDERSON DRIVE PARAFIELD 5106",
    "locID": "ChIJTxpxjKq2sGoRmXm5ZLzwf10",
    "tech": "FTTP",
    "upgrade": "UNKNOWN",
    "gnaf_pid": "GASA_416822099"
   }
  },
  {
   "type": "Feature",
   "geometry": {
    "type": "Point",
    "coordinates": [
     138.6378351,
     -34.78848101
    ]
   },
   "properties": {
    "name": "11 ANDERSON DRIVE PARAFIELD 5106",
    "locID": "LOC000034188822",
    "tech": "FTTP",
    "upgrade": "NULL_NA",
    "gnaf_pid": "GASA_416822100"
   }
  },
  {
   "type": "Feature",
   "geometry": {
    "type": "Point",
    "coordinates": [
     138.6378351,
     -34.78848101
    ]
   },
   "properties": {
    "name": "169 ANDERSON DRIVE PARAFIELD 5106",
    "locID": "LOC000103259538",
    "tech": "FTTP",
    "upgrade": "NULL_NA",
    "gnaf_pid": "GASA_416822103"
   }
  },
  {
   "type": "Feature",
   "geometry": {
    "type": "Point",
    "coordinates": [
     138.6378351,
     -34.78848101
    ]
   },
   "properties": {
    "name": "52 ANDERSON DRIVE PARAFIELD 5106",
    "locID": "LOC000044724289",
    "tech": "FTTP",
    "upgrade": "NULL_NA",
    "gnaf_pid": "GASA_416822104"
   }
  },
  {
   "type": "Feature",
   "geometry": {
    "type": "Point",
    "coordinates": [
     138.6378351,
     -34.78848101
    ]
   },
   "properties": {
    "name": "58 ANDERSON DRIVE PARAFIELD 5106",
    "locID": "LOC000071421620",
    "tech": "FTTP",
    "upgrade": "NULL_NA",
    "gnaf_pid": "GASA_416822105"
   }
  },
  {
   "type": "Feature",
   "geometry": {
    "type": "Point",
    "coordinates": [
     138.6378351,
     -34.78848101
    ]
   },
   "properties": {
    "name": "16 ANDERSON DRIVE PARAFIELD 5106",
    "locID": "LOC000157127771",
    "tech": "FTTP",
    "upgrade": "NULL_NA",
    "gnaf_pid": "GASA_416822106"
   }
  },
  {
   "type": "Feature",
   "geometry": {
    "type": "Point",
    "coordinates": [
     138.6440337,
     -34.79082673
    ]
   },
   "properties": {
    "name": "14A KINGS ROAD PARAFIELD 5106",
    "locID": "ChIJX0FzLQe0sGoRttx271EghYU",
    "tech": "FTTP",
    "upgrade": "UNKNOWN",
    "gnaf_pid": "GASA_416822107"
   }
  },
  {
   "type": "Feature",
   "geometry": {
    "type": "Point",
    "coordinates": [
     138.64280005,
     -34.79359151
    ]
   },
   "properties": {
    "name": "8 LAWRENCE HARGRAVE WAY PARAFIELD 5106",
    "locID": "ChIJ-eaLDQO0sGoRDm-DUtt52F0",
    "tech": "FTTP",
    "upgrade": "UNKNOWN",
    "gnaf_pid": "GASA_416822112"
   }
  },
  {
   "type": "Feature",
   "geometry": {
    "type": "Point",
    "coordinates": [
     138.64280005,
     -34.79359151
    ]
   },
   "properties": {
    "name": "UNIT 1, 10 LAWRENCE HARGRAVE WAY PARAFIELD 5106",
    "locID": "LOC000180021536",
    "tech": "FTTP",
    "upgrade": "NULL_NA",
    "gnaf_pid": "GASA_416822113"
   }
  },
  {
   "type": "Feature",
   "geometry": {
    "type": "Point",
    "coordinates": [
     138.64280005,
     -34.79359151
    ]
   },
   "properties": {
    "name": "UNIT 2, 10 LAWRENCE HARGRAVE WAY PARAFIELD 5106",
    "locID": "LOC000180021536",
    "tech": "FTTP",
    "upgrade": "NULL_NA",
    "gnaf_pid": "GASA_416822114"
   }
  },
  {
   "type": "Feature",
   "geometry": {
    "type": "Point",
    "coordinates": [
     138.64280005,
     -34.79359151
    ]
   },
   "properties": {
    "name": "UNIT 3, 10 LAWRENCE HARGRAVE WAY PARAFIELD 5106",
    "locID": "LOC000180021536",
    "tech": "FTTP",
    "upgrade": "NULL_NA",
    "gnaf_pid": "GASA_416822115"
   }
  },
  {
   "type": "Feature",
   "geometry": {
    "type": "Point",
    "coordinates": [
     138.6440337,
     -34.79082673
    ]
   },
   "properties": {
    "name": "14 KINGS ROAD PARAFIELD 5106",
    "locID": "LOC000157128558",
    "tech": "FTTP",
    "upgrade": "NULL_NA",
    "gnaf_pid": "GASA_422041504"
   }
  },
  {
   "type": "Feature",
   "geometry": {
    "type": "Point",
    "coordinates": [
     138.64280005,
     -34.79359151
    ]
   },
   "properties": {
    "name": "10 LAWRENCE HARGRAVE WAY PARAFIELD 5106",
    "locID": "LOC000180021536",
    "tech": "FTTP",
    "upgrade": "NULL_NA",
    "gnaf_pid": "GASA_422050123"
   }
  },
  {
   "type": "Feature",
   "geometry": {
    "type": "Point",
    "coordinates": [
     138.64343627,
     -34.7942778
    ]
   },
   "properties": {
    "name": "11 LAWRENCE HARGRAVE WAY PARAFIELD 5106",
    "locID": "LOC000008460670",
    "tech": "FTTP",
    "upgrade": "NULL_NA",
    "gnaf_pid": "GASA_422050124"
   }
  },
  {
   "type": "Feature",
   "geometry": {
    "type": "Point",
    "coordinates": [
     138.64562915,
     -34.7916449
    ]
   },
   "properties": {
    "name": "17 LAWRENCE HARGRAVE WAY PARAFIELD 5106",
    "locID": "LOC000152551922",
    "tech": "FTTP",
    "upgrade": "NULL_NA",
    "gnaf_pid": "GASA_423685512"
   }
  },
  {
   "type": "Feature",
   "geometry": {
    "type": "Point",
    "coordinates": [
     138.64281295,
     -34.79521949
    ]
   },
   "properties": {
    "name": "9 LAWRENCE HARGRAVE WAY PARAFIELD 5106",
    "locID": "LOC000180021493",
    "tech": "FTTP",
    "upgrade": "NULL_NA",
    "gnaf_pid": "GASA_423685513"
   }
  },
  {
   "type": "Feature",
   "geometry": {
    "type": "Point",
    "coordinates": [
     138.63530686,
     -34.78698478
    ]
   },
   "properties": {
    "name": "28 DAKOTA DRIVE PARAFIELD 5106",
    "locID": "LOC000157128251",
    "tech": "FTTP",
    "upgrade": "NULL_NA",
    "gnaf_pid": "GASA_423696587"
   }
  },
  {
   "type": "Feature",
   "geometry": {
    "type": "Point",
    "coordinates": [
     138.6378351,
     -34.78848101
    ]
   },
   "properties": {
    "name": "2 ANDERSON DRIVE PARAFIELD 5106",
    "locID": "ChIJTxpxjKq2sGoRNnsl_MWrJgQ",
    "tech": "FTTP",
    "upgrade": "UNKNOWN",
    "gnaf_pid": "GASA_423742172"
   }
  },
  {
   "type": "Feature",
   "geometry": {
    "type": "Point",
    "coordinates": [
     138.6351673,
     -34.78928094
    ]
   },
   "properties": {
    "name": "5 KITTYHAWK LANE PARAFIELD 5106",
    "locID": "LOC000098855996",
    "tech": "FTTP",
    "upgrade": "NULL_NA",
    "gnaf_pid": "GASA_423867152"
   }
  },
  {
   "type": "Feature",
   "geometry": {
    "type": "Point",
    "coordinates": [
     138.6302566,
     -34.78395732
    ]
   },
   "properties": {
    "name": "LOT 94 KINGS ROAD PARAFIELD 5106",
    "locID": "ChIJfVoxxTWxsGoRy4WdABdqL7I",
    "tech": "HFC",
    "upgrade": "UNKNOWN",
    "gnaf_pid": "GASA_424111312"
   }
  },
  {
   "type": "Feature",
   "geometry": {
    "type": "Point",
    "coordinates": [
     138.64281295,
     -34.79521949
    ]
   },
   "properties": {
    "name": "UNIT 2, 9 LAWRENCE HARGRAVE WAY PARAFIELD 5106",
    "locID": "LOC000180021493",
    "tech": "FTTP",
    "upgrade": "NULL_NA",
    "gnaf_pid": "GASA_424130523"
   }
  },
  {
   "type": "Feature",
   "geometry": {
    "type": "Point",
    "coordinates": [
     138.6378351,
     -34.78848101
    ]
   },
   "properties": {
    "name": "61 ANDERSON DRIVE PARAFIELD 5106",
    "locID": "LOC000180244759",
    "tech": "FTTP",
    "upgrade": "NULL_NA",
    "gnaf_pid": "GASA_424146111"
   }
  },
  {
   "type": "Feature",
   "geometry": {
    "type": "Point",
    "coordinates": [
     138.64494508,
     -34.7909968
    ]
   },
   "properties": {
    "name": "LOT 12 KINGS ROAD PARAFIELD 5106",
    "locID": "LOC000130302783",
    "tech": "FTTP",
    "upgrade": "NULL_NA",
    "gnaf_pid": "GASA_424184174"
   }
  },
  {
   "type": "Feature",
   "geometry": {
    "type": "Point",
    "coordinates": [
     138.62814791,
     -34.78636315
    ]
   },
   "properties": {
    "name": "LOT 201 KINGS ROAD PARAFIELD 5106",
    "locID": "LOC000021724976",
    "tech": "HFC",
    "upgrade": "NULL_NA",
    "gnaf_pid": "GASA_424184175"
   }
  },
  {
   "type": "Feature",
   "geometry": {
    "type": "Point",
    "coordinates": [
     138.64319613,
     -34.79043732
    ]
   },
   "properties": {
    "name": "1A HORRIE MILLER DRIVE PARAFIELD 5106",
    "locID": "ChIJyQW12gC0sGoR4cSZ_yLhapc",
    "tech": "FTTP",
    "upgrade": "UNKNOWN",
    "gnaf_pid": "GASA_424346537"
   }
  },
  {
   "type": "Feature",
   "geometry": {
    "type": "Point",
    "coordinates": [
     138.64343627,
     -34.7942778
    ]
   },
   "properties": {
    "name": "UNIT 5, 11 LAWRENCE HARGRAVE WAY PARAFIELD 5106",
    "locID": "LOC000008460670",
    "tech": "FTTP",
    "upgrade": "NULL_NA",
    "gnaf_pid": "GASA_424572488"
   }
  },
  {
   "type": "Feature",
   "geometry": {
    "type": "Point",
    "coordinates": [
     138.63530686,
     -34.78698478
    ]
   },
   "properties": {
    "name": "13 DAKOTA DRIVE PARAFIELD 5106",
    "locID": "LOC000157128192",
    "tech": "FTTP",
    "upgrade": "NULL_NA",
    "gnaf_pid": "GASA_424646561"
   }
  },
  {
   "type": "Feature",
   "geometry": {
    "type": "Point",
    "coordinates": [
     138.63530686,
     -34.78698478
    ]
   },
   "properties": {
    "name": "19 DAKOTA DRIVE PARAFIELD 5106",
    "locID": "ChIJ4TavE6u2sGoR2mSjoi8k9i0",
    "tech": "FTTP",
    "upgrade": "UNKNOWN",
    "gnaf_pid": "GASA_424646562"
   }
  },
  {
   "type": "Feature",
   "geometry": {
    "type": "Point",
    "coordinates": [
     138.63684416,
     -34.78840774
    ]
   },
   "properties": {
    "name": "18 TIGER MOTH LANE PARAFIELD 5106",
    "locID": "LOC000183320130",
    "tech": "FTTP",
    "upgrade": "NULL_NA",
    "gnaf_pid": "GASA_424647379"
   }
  },
  {
   "type": "Feature",
   "geometry": {
    "type": "Point",
    "coordinates": [
     138.61811555,
     -34.79754669
    ]
   },
   "properties": {
    "name": "LOT 2 ELDER SMITH ROAD PARAFIELD 5106",
    "locID": "LOC000130295580",
    "tech": "FTTN",
    "upgrade": "FTTP_SA",
    "gnaf_pid": "GASA_424820103"
   }
  },
  {
   "type": "Feature",
   "geometry": {
    "type": "Point",
    "coordinates": [
     138.6378351,
     -34.78848101
    ]
   },
   "properties": {
    "name": "UNIT 1, 65 ANDERSON DRIVE PARAFIELD 5106",
    "locID": "ChIJTxpxjKq2sGoRskN1RVrJvN8",
    "tech": "FTTP",
    "upgrade": "UNKNOWN",
    "gnaf_pid": "GASA_424833030"
   }
  },
  {
   "type": "Feature",
   "geometry": {
    "type": "Point",
    "coordinates": [
     138.6378351,
     -34.78848101
    ]
   },
   "properties": {
    "name": "UNIT 2, 65 ANDERSON DRIVE PARAFIELD 5106",
    "locID": "ChIJTxpxjKq2sGoRskN1RVrJvN8",
    "tech": "FTTP",
    "upgrade": "UNKNOWN",
    "gnaf_pid": "GASA_424833031"
   }
  },
  {
   "type": "Feature",
   "geometry": {
    "type": "Point",
    "coordinates": [
     138.6378351,
     -34.78848101
    ]
   },
   "properties": {
    "name": "UNIT 3, 65 ANDERSON DRIVE PARAFIELD 5106",
    "locID": "ChIJTxpxjKq2sGoRskN1RVrJvN8",
    "tech": "FTTP",
    "upgrade": "UNKNOWN",
    "gnaf_pid": "GASA_424833032"
   }
  },
  {
   "type": "Feature",
   "geometry": {
    "type": "Point",
    "coordinates": [
     138.6378351,
     -34.78848101
    ]
   },
   "properties": {
    "name": "UNIT 4, 65 ANDERSON DRIVE PARAFIELD 5106",
    "locID": "ChIJTxpxjKq2sGoRskN1RVrJvN8",
    "tech": "FTTP",
    "upgrade": "UNKNOWN",
    "gnaf_pid": "GASA_424833033"
   }
  },
  {
   "type": "Feature",
   "geometry": {
    "type": "Point",
    "coordinates": [
     138.6378351,
     -34.78848101
    ]
   },
   "properties": {
    "name": "169A ANDERSON DRIVE PARAFIELD 5106",
    "locID": "ChIJTxpxjKq2sGoRWO-TPeQn-3g",
    "tech": "FTTP",
    "upgrade": "UNKNOWN",
    "gnaf_pid": "GASA_424833034"
   }
  },
  {
   "type": "Feature",
   "geometry": {
    "type": "Point",
    "coordinates": [
     138.6378351,
     -34.78848101
    ]
   },
   "properties": {
    "name": "33 ANDERSON DRIVE PARAFIELD 5106",
    "locID": "ChIJTxpxjKq2sGoRv40B87PMZII",
    "tech": "FTTP",
    "upgrade": "UNKNOWN",
    "gnaf_pid": "GASA_424833035"
   }
  },
  {
   "type": "Feature",
   "geometry": {
    "type": "Point",
    "coordinates": [
     138.63530686,
     -34.78698478
    ]
   },
   "properties": {
    "name": "UNIT 1, 9 DAKOTA DRIVE PARAFIELD 5106",
    "locID": "LOC000183353603",
    "tech": "FTTP",
    "upgrade": "NULL_NA",
    "gnaf_pid": "GASA_424834364"
   }
  },
  {
   "type": "Feature",
   "geometry": {
    "type": "Point",
    "coordinates": [
     138.6440337,
     -34.79082673
    ]
   },
   "properties": {
    "name": "UNIT 1, 14 KINGS ROAD PARAFIELD 5106",
    "locID": "LOC000157128558",
    "tech": "FTTP",
    "upgrade": "NULL_NA",
    "gnaf_pid": "GASA_424835905"
   }
  },
  {
   "type": "Feature",
   "geometry": {
    "type": "Point",
    "coordinates": [
     138.6440337,
     -34.79082673
    ]
   },
   "properties": {
    "name": "SITE 2, 14 KINGS ROAD PARAFIELD 5106",
    "locID": "LOC000157128558",
    "tech": "FTTP",
    "upgrade": "NULL_NA",
    "gnaf_pid": "GASA_424835906"
   }
  },
  {
   "type": "Feature",
   "geometry": {
    "type": "Point",
    "coordinates": [
     138.63912146,
     -34.7869714
    ]
   },
   "properties": {
    "name": "8 KINGS ROAD PARAFIELD 5106",
    "locID": "LOC000116151892",
    "tech": "FTTP",
    "upgrade": "NULL_NA",
    "gnaf_pid": "GASA_424835907"
   }
  },
  {
   "type": "Feature",
   "geometry": {
    "type": "Point",
    "coordinates": [
     138.6351673,
     -34.78928094
    ]
   },
   "properties": {
    "name": "UNIT 1, 55 KITTYHAWK LANE PARAFIELD 5106",
    "locID": "ChIJcQfy46u2sGoRaPkmVKS-2Rw",
    "tech": "FTTP",
    "upgrade": "UNKNOWN",
    "gnaf_pid": "GASA_424835910"
   }
  },
  {
   "type": "Feature",
   "geometry": {
    "type": "Point",
    "coordinates": [
     138.6351673,
     -34.78928094
    ]
   },
   "properties": {
    "name": "32 KITTYHAWK LANE PARAFIELD 5106",
    "locID": "LOC000116148036",
    "tech": "FTTP",
    "upgrade": "NULL_NA",
    "gnaf_pid": "GASA_424835911"
   }
  },
  {
   "type": "Feature",
   "geometry": {
    "type": "Point",
    "coordinates": [
     138.6351673,
     -34.78928094
    ]
   },
   "properties": {
    "name": "65 KITTYHAWK LANE PARAFIELD 5106",
    "locID": "LOC100070721502",
    "tech": "FTTP",
    "upgrade": "NULL_NA",
    "gnaf_pid": "GASA_424835912"
   }
  },
  {
   "type": "Feature",
   "geometry": {
    "type": "Point",
    "coordinates": [
     138.64281295,
     -34.79521949
    ]
   },
   "properties": {
    "name": "SHOP 1, 9 LAWRENCE HARGRAVE WAY PARAFIELD 5106",
    "locID": "LOC000180021493",
    "tech": "FTTP",
    "upgrade": "NULL_NA",
    "gnaf_pid": "GASA_424836010"
   }
  },
  {
   "type": "Feature",
   "geometry": {
    "type": "Point",
    "coordinates": [
     138.64280005,
     -34.79359151
    ]
   },
   "properties": {
    "name": "UNIT 1A, 10 LAWRENCE HARGRAVE WAY PARAFIELD 5106",
    "locID": "LOC000180021536",
    "tech": "FTTP",
    "upgrade": "NULL_NA",
    "gnaf_pid": "GASA_424836011"
   }
  },
  {
   "type": "Feature",
   "geometry": {
    "type": "Point",
    "coordinates": [
     138.64280005,
     -34.79359151
    ]
   },
   "properties": {
    "name": "SHOP 2, 8 LAWRENCE HARGRAVE WAY PARAFIELD 5106",
    "locID": "ChIJ-eaLDQO0sGoRDm-DUtt52F0",
    "tech": "FTTP",
    "upgrade": "UNKNOWN",
    "gnaf_pid": "GASA_424836012"
   }
  },
  {
   "type": "Feature",
   "geometry": {
    "type": "Point",
    "coordinates": [
     138.64343627,
     -34.7942778
    ]
   },
   "properties": {
    "name": "UNIT 4, 11 LAWRENCE HARGRAVE WAY PARAFIELD 5106",
    "locID": "LOC000008460670",
    "tech": "FTTP",
    "upgrade": "NULL_NA",
    "gnaf_pid": "GASA_424836013"
   }
  },
  {
   "type": "Feature",
   "geometry": {
    "type": "Point",
    "coordinates": [
     138.64280005,
     -34.79359151
    ]
   },
   "properties": {
    "name": "SHOP 4, 8 LAWRENCE HARGRAVE WAY PARAFIELD 5106",
    "locID": "ChIJ-eaLDQO0sGoRDm-DUtt52F0",
    "tech": "FTTP",
    "upgrade": "UNKNOWN",
    "gnaf_pid": "GASA_424836014"
   }
  },
  {
   "type": "Feature",
   "geometry": {
    "type": "Point",
    "coordinates": [
     138.64280005,
     -34.79359151
    ]
   },
   "properties": {
    "name": "SHOP 5, 8 LAWRENCE HARGRAVE WAY PARAFIELD 5106",
    "locID": "ChIJ-eaLDQO0sGoRDm-DUtt52F0",
    "tech": "FTTP",
    "upgrade": "UNKNOWN",
    "gnaf_pid": "GASA_424836015"
   }
  },
  {
   "type": "Feature",
   "geometry": {
    "type": "Point",
    "coordinates": [
     138.64280005,
     -34.79359151
    ]
   },
   "properties": {
    "name": "LOT 1 LAWRENCE HARGRAVE WAY PARAFIELD 5106",
    "locID": "LOC000157130306",
    "tech": "FTTP",
    "upgrade": "NULL_NA",
    "gnaf_pid": "GASA_424836016"
   }
  },
  {
   "type": "Feature",
   "geometry": {
    "type": "Point",
    "coordinates": [
     138.63757088,
     -34.78662632
    ]
   },
   "properties": {
    "name": "177 LOCKHEED LANE PARAFIELD 5106",
    "locID": "LOC000157130334",
    "tech": "FTTP",
    "upgrade": "NULL_NA",
    "gnaf_pid": "GASA_424836129"
   }
  },
  {
   "type": "Feature",
   "geometry": {
    "type": "Point",
    "coordinates": [
     138.63757088,
     -34.78662632
    ]
   },
   "properties": {
    "name": "40 LOCKHEED LANE PARAFIELD 5106",
    "locID": "ChIJJUgRyqq2sGoRgoGf9ADYZrU",
    "tech": "FTTP",
    "upgrade": "UNKNOWN",
    "gnaf_pid": "GASA_424836130"
   }
  },
  {
   "type": "Feature",
   "geometry": {
    "type": "Point",
    "coordinates": [
     138.63757088,
     -34.78662632
    ]
   },
   "properties": {
    "name": "40A LOCKHEED LANE PARAFIELD 5106",
    "locID": "ChIJ4Tqj16q2sGoRMH0sKkWf9s0",
    "tech": "FTTP",
    "upgrade": "UNKNOWN",
    "gnaf_pid": "GASA_424836131"
   }
  },
  {
   "type": "Feature",
   "geometry": {
    "type": "Point",
    "coordinates": [
     138.64562915,
     -34.7916449
    ]
   },
   "properties": {
    "name": "UNIT 1, 17 LAWRENCE HARGRAVE WAY PARAFIELD 5106",
    "locID": "LOC000152551922",
    "tech": "FTTP",
    "upgrade": "NULL_NA",
    "gnaf_pid": "GASA_425139055"
   }
  },
  {
   "type": "Feature",
   "geometry": {
    "type": "Point",
    "coordinates": [
     138.64336775,
     -34.79201489
    ]
   },
   "properties": {
    "name": "UNIT 1, 1 LAWRENCE HARGRAVE WAY PARAFIELD 5106",
    "locID": "LOC000180638298",
    "tech": "FTTP",
    "upgrade": "NULL_NA",
    "gnaf_pid": "GASA_425139056"
   }
  },
  {
   "type": "Feature",
   "geometry": {
    "type": "Point",
    "coordinates": [
     138.64562915,
     -34.7916449
    ]
   },
   "properties": {
    "name": "UNIT 2, 17 LAWRENCE HARGRAVE WAY PARAFIELD 5106",
    "locID": "LOC000152551922",
    "tech": "FTTP",
    "upgrade": "NULL_NA",
    "gnaf_pid": "GASA_425139057"
   }
  },
  {
   "type": "Feature",
   "geometry": {
    "type": "Point",
    "coordinates": [
     138.64336775,
     -34.79201489
    ]
   },
   "properties": {
    "name": "UNIT 2, 1 LAWRENCE HARGRAVE WAY PARAFIELD 5106",
    "locID": "LOC000180638706",
    "tech": "FTTP",
    "upgrade": "NULL_NA",
    "gnaf_pid": "GASA_425139058"
   }
  },
  {
   "type": "Feature",
   "geometry": {
    "type": "Point",
    "coordinates": [
     138.64562915,
     -34.7916449
    ]
   },
   "properties": {
    "name": "UNIT 3, 17 LAWRENCE HARGRAVE WAY PARAFIELD 5106",
    "locID": "LOC000152551933",
    "tech": "FTTP",
    "upgrade": "NULL_NA",
    "gnaf_pid": "GASA_425139059"
   }
  },
  {
   "type": "Feature",
   "geometry": {
    "type": "Point",
    "coordinates": [
     138.64336775,
     -34.79201489
    ]
   },
   "properties": {
    "name": "UNIT 3, 1 LAWRENCE HARGRAVE WAY PARAFIELD 5106",
    "locID": "LOC000180638710",
    "tech": "FTTP",
    "upgrade": "NULL_NA",
    "gnaf_pid": "GASA_425139060"
   }
  },
  {
   "type": "Feature",
   "geometry": {
    "type": "Point",
    "coordinates": [
     138.64336775,
     -34.79201489
    ]
   },
   "properties": {
    "name": "UNIT 4, 1 LAWRENCE HARGRAVE WAY PARAFIELD 5106",
    "locID": "LOC000157130283",
    "tech": "FTTP",
    "upgrade": "NULL_NA",
    "gnaf_pid": "GASA_425139061"
   }
  },
  {
   "type": "Feature",
   "geometry": {
    "type": "Point",
    "coordinates": [
     138.64336775,
     -34.79201489
    ]
   },
   "properties": {
    "name": "1 LAWRENCE HARGRAVE WAY PARAFIELD 5106",
    "locID": "LOC000180638298",
    "tech": "FTTP",
    "upgrade": "NULL_NA",
    "gnaf_pid": "GASA_425139062"
   }
  },
  {
   "type": "Feature",
   "geometry": {
    "type": "Point",
    "coordinates": [
     138.64338256,
     -34.79201403
    ]
   },
   "properties": {
    "name": "1A-2D LAWRENCE HARGRAVE WAY PARAFIELD 5106",
    "locID": "LOC000180638298",
    "tech": "FTTP",
    "upgrade": "NULL_NA",
    "gnaf_pid": "GASA_425442796"
   }
  },
  {
   "type": "Feature",
   "geometry": {
    "type": "Point",
    "coordinates": [
     138.6378351,
     -34.78848101
    ]
   },
   "properties": {
    "name": "44 ANDERSON DRIVE PARAFIELD 5106",
    "locID": "ChIJTxpxjKq2sGoRkGX7ayhNlnM",
    "tech": "FTTP",
    "upgrade": "UNKNOWN",
    "gnaf_pid": "GASA_425716021"
   }
  },
  {
   "type": "Feature",
   "geometry": {
    "type": "Point",
    "coordinates": [
     138.6393793,
     -34.79886837
    ]
   },
   "properties": {
    "name": "LOT 13 LAWRENCE HARGRAVE WAY PARAFIELD 5106",
    "locID": "LOC000157130119",
    "tech": "FTTP",
    "upgrade": "NULL_NA",
    "gnaf_pid": "GASA_719047397"
   }
  },
  {
   "type": "Feature",
   "geometry": {
    "type": "Point",
    "coordinates": [
     138.64280005,
     -34.79359151
    ]
   },
   "properties": {
    "name": "LOT 10 LAWRENCE HARGRAVE WAY PARAFIELD 5106",
    "locID": "LOC000180021536",
    "tech": "FTTP",
    "upgrade": "NULL_NA",
    "gnaf_pid": "GASA_719047398"
   }
  },
  {
   "type": "Feature",
   "geometry": {
    "type": "Point",
    "coordinates": [
     138.63090917,
     -34.79674348
    ]
   },
   "properties": {
    "name": "LOT 11 ANDERSON DRIVE PARAFIELD 5106",
    "locID": "LOC100074429335",
    "tech": "FTTP",
    "upgrade": "NULL_NA",
    "gnaf_pid": "GASA_719186425"
   }
  },
  {
   "type": "Feature",
   "geometry": {
    "type": "Point",
    "coordinates": [
     138.64280005,
     -34.79359151
    ]
   },
   "properties": {
    "name": "LOT 12 LAWRENCE HARGRAVE WAY PARAFIELD 5106",
    "locID": "LOC000157130306",
    "tech": "FTTP",
    "upgrade": "NULL_NA",
    "gnaf_pid": "GASA_719280014"
   }
  },
  {
   "type": "Feature",
   "geometry": {
    "type": "Point",
    "coordinates": [
     138.6378351,
     -34.78848101
    ]
   },
   "properties": {
    "name": "125 ANDERSON DRIVE PARAFIELD 5106",
    "locID": "ChIJTxpxjKq2sGoRmhyLyg5xrt0",
    "tech": "FTTP",
    "upgrade": "UNKNOWN",
    "gnaf_pid": "GASA_719550018"
   }
  },
  {
   "type": "Feature",
   "geometry": {
    "type": "Point",
    "coordinates": [
     138.64402194,
     -34.79087688
    ]
   },
   "properties": {
    "name": "SITE 14, LOT 12 KINGS ROAD PARAFIELD 5106",
    "locID": "LOC000130302783",
    "tech": "FTTP",
    "upgrade": "NULL_NA",
    "gnaf_pid": "GASA_719650439"
   }
  },
  {
   "type": "Feature",
   "geometry": {
    "type": "Point",
    "coordinates": [
     138.64336775,
     -34.79201489
    ]
   },
   "properties": {
    "name": "BUILDING 97E, 1A-2D LAWRENCE HARGRAVE WAY PARAFIELD 5106",
    "locID": "LOC000180638298",
    "tech": "FTTP",
    "upgrade": "NULL_NA",
    "gnaf_pid": "GASA_719772347"
   }
  },
  {
   "type": "Feature",
   "geometry": {
    "type": "Point",
    "coordinates": [
     138.64336775,
     -34.79201489
    ]
   },
   "properties": {
    "name": "BUILDING 97W, 1A-2D LAWRENCE HARGRAVE WAY PARAFIELD 5106",
    "locID": "LOC000180638298",
    "tech": "FTTP",
    "upgrade": "NULL_NA",
    "gnaf_pid": "GASA_719772667"
   }
  },
  {
   "type": "Feature",
   "geometry": {
    "type": "Point",
    "coordinates": [
     138.64336775,
     -34.79201489
    ]
   },
   "properties": {
    "name": "BUILDING 94W, 1A-2D LAWRENCE HARGRAVE WAY PARAFIELD 5106",
    "locID": "LOC000180638298",
    "tech": "FTTP",
    "upgrade": "NULL_NA",
    "gnaf_pid": "GASA_719774345"
   }
  },
  {
   "type": "Feature",
   "geometry": {
    "type": "Point",
    "coordinates": [
     138.64336775,
     -34.79201489
    ]
   },
   "properties": {
    "name": "BUILDING 96, 1A-2D LAWRENCE HARGRAVE WAY PARAFIELD 5106",
    "locID": "LOC000180638298",
    "tech": "FTTP",
    "upgrade": "NULL_NA",
    "gnaf_pid": "GASA_719774970"
   }
  },
  {
   "type": "Feature",
   "geometry": {
    "type": "Point",
    "coordinates": [
     138.64336775,
     -34.79201489
    ]
   },
   "properties": {
    "name": "BUILDING 93, 1A-2D LAWRENCE HARGRAVE WAY PARAFIELD 5106",
    "locID": "LOC000180638298",
    "tech": "FTTP",
    "upgrade": "NULL_NA",
    "gnaf_pid": "GASA_719775541"
   }
  },
  {
   "type": "Feature",
   "geometry": {
    "type": "Point",
    "coordinates": [
     138.64336775,
     -34.79201489
    ]
   },
   "properties": {
    "name": "BUILDING 94C, 1A-2D LAWRENCE HARGRAVE WAY PARAFIELD 5106",
    "locID": "LOC000180638298",
    "tech": "FTTP",
    "upgrade": "NULL_NA",
    "gnaf_pid": "GASA_719776906"
   }
  },
  {
   "type": "Feature",
   "geometry": {
    "type": "Point",
    "coordinates": [
     138.63578857,
     -34.80308854
    ]
   },
   "properties": {
    "name": "7A LAWRENCE HARGRAVE WAY PARAFIELD 5106",
    "locID": "LOC000075791786",
    "tech": "FTTP",
    "upgrade": "NULL_NA",
    "gnaf_pid": "GASA_720186862"
   }
  }
 ]
}