{
 "type": "FeatureCollection",
 "generated": "2023-07-09T08:01:22.165076",
 "suburb": "BELLAMACK",
 "features": [
  {
   "type": "Feature",
   "geometry": {
    "type": "Point",
    "coordinates": [
     130.98467027,
     -12.51154323
    ]
   },
   "properties": {
    "name": "15 PYE STREET BELLAMACK 0832",
    "locID": "LOC000115231855",
    "tech": "NULL",
    "upgrade": "NULL_NA",
    "gnaf_pid": "GANT_718018656"
   }
  },
  {
   "type": "Feature",
   "geometry": {
    "type": "Point",
    "coordinates": [
     130.98347932,
     -12.50962047
    ]
   },
   "properties": {
    "name": "15 EUCHARIA STREET BELLAMACK 0832",
    "locID": "LOC000118957268",
    "tech": "NULL",
    "upgrade": "NULL_NA",
    "gnaf_pid": "GANT_718141724"
   }
  },
  {
   "type": "Feature",
   "geometry": {
    "type": "Point",
    "coordinates": [
     130.98369406,
     -12.51163177
    ]
   },
   "properties": {
    "name": "15 LEARY STREET BELLAMACK 0832",
    "locID": "LOC000115231840",
    "tech": "NULL",
    "upgrade": "NULL_NA",
    "gnaf_pid": "GANT_718141850"
   }
  },
  {
   "type": "Feature",
   "geometry": {
    "type": "Point",
    "coordinates": [
     130.98366238,
     -12.51437835
    ]
   },
   "properties": {
    "name": "15 HENSCHKE STREET BELLAMACK 0832",
    "locID": "LOC000118957281",
    "tech": "NULL",
    "upgrade": "NULL_NA",
    "gnaf_pid": "GANT_718290528"
   }
  },
  {
   "type": "Feature",
   "geometry": {
    "type": "Point",
    "coordinates": [
     130.98521009,
     -12.5136783
    ]
   },
   "properties": {
    "name": "15 FLYNN CIRCUIT BELLAMACK 0832",
    "locID": "LOC000118950638",
    "tech": "NULL",
    "upgrade": "NULL_NA",
    "gnaf_pid": "GANT_718393257"
   }
  },
  {
   "type": "Feature",
   "geometry": {
    "type": "Point",
    "coordinates": [
     130.98138989,
     -12.51667603
    ]
   },
   "properties": {
    "name": "15 MARITA STREET BELLAMACK 0832",
    "locID": "LOC000141592144",
    "tech": "NULL",
    "upgrade": "NULL_NA",
    "gnaf_pid": "GANT_718480800"
   }
  },
  {
   "type": "Feature",
   "geometry": {
    "type": "Point",
    "coordinates": [
     130.98329407,
     -12.51937361
    ]
   },
   "properties": {
    "name": "15 STEPHANIE STREET BELLAMACK 0832",
    "locID": "LOC000141584990",
    "tech": "NULL",
    "upgrade": "NULL_NA",
    "gnaf_pid": "GANT_718481416"
   }
  },
  {
   "type": "Feature",
   "geometry": {
    "type": "Point",
    "coordinates": [
     130.98282923,
     -12.51447889
    ]
   },
   "properties": {
    "name": "APARTMENT 3, 21 HENSCHKE STREET BELLAMACK 0832",
    "locID": "LOC000141608948",
    "tech": "NULL",
    "upgrade": "NULL_NA",
    "gnaf_pid": "GANT_718704188"
   }
  },
  {
   "type": "Feature",
   "geometry": {
    "type": "Point",
    "coordinates": [
     130.98286636,
     -12.51749239
    ]
   },
   "properties": {
    "name": "APARTMENT 3, 65 FLYNN CIRCUIT BELLAMACK 0832",
    "locID": "LOC000141577439",
    "tech": "NULL",
    "upgrade": "NULL_NA",
    "gnaf_pid": "GANT_718743178"
   }
  },
  {
   "type": "Feature",
   "geometry": {
    "type": "Point",
    "coordinates": [
     130.98164549,
     -12.51462791
    ]
   },
   "properties": {
    "name": "APARTMENT 3, 270 FORREST PARADE BELLAMACK 0832",
    "locID": "LOC000118945802",
    "tech": "NULL",
    "upgrade": "NULL_NA",
    "gnaf_pid": "GANT_718743527"
   }
  }
 ]
}