{
 "type": "FeatureCollection",
 "generated": "2023-06-05T03:52:05.763016",
 "suburb": "SOUTH MELBOURNE",
 "features": [
  {
   "type": "Feature",
   "geometry": {
    "type": "Point",
    "coordinates": [
     144.95516683,
     -37.83118373
    ]
   },
   "properties": {
    "name": "1 ALBERT PLACE SOUTH MELBOURNE 3205",
    "locID": "LOC000168762020",
    "tech": "FTTN",
    "upgrade": "NULL_NA",
    "gnaf_pid": "GAVIC720580151"
   }
  },
  {
   "type": "Feature",
   "geometry": {
    "type": "Point",
    "coordinates": [
     144.95913853,
     -37.83154911
    ]
   },
   "properties": {
    "name": "1 ALFRED PLACE SOUTH MELBOURNE 3205",
    "locID": "LOC000017083124",
    "tech": "FTTN",
    "upgrade": "NULL_NA",
    "gnaf_pid": "GAVIC414020097"
   }
  },
  {
   "type": "Feature",
   "geometry": {
    "type": "Point",
    "coordinates": [
     144.960119,
     -37.839893
    ]
   },
   "properties": {
    "name": "1 ANDERSON STREET SOUTH MELBOURNE 3205",
    "locID": "LOC000088721239",
    "tech": "FTTN",
    "upgrade": "NULL_NA",
    "gnaf_pid": "GAVIC420178664"
   }
  },
  {
   "type": "Feature",
   "geometry": {
    "type": "Point",
    "coordinates": [
     144.96950954,
     -37.83190066
    ]
   },
   "properties": {
    "name": "1 BANK STREET SOUTH MELBOURNE 3205",
    "locID": "LOC000047228830",
    "tech": "FTTC",
    "upgrade": "NULL_NA",
    "gnaf_pid": "GAVIC420286117"
   }
  },
  {
   "type": "Feature",
   "geometry": {
    "type": "Point",
    "coordinates": [
     144.96109352,
     -37.83822216
    ]
   },
   "properties": {
    "name": "1 CECIL PLACE SOUTH MELBOURNE 3205",
    "locID": "LOC000036048531",
    "tech": "FTTN",
    "upgrade": "FTTP_SA",
    "gnaf_pid": "GAVIC420795617"
   }
  },
  {
   "type": "Feature",
   "geometry": {
    "type": "Point",
    "coordinates": [
     144.960765,
     -37.835858
    ]
   },
   "properties": {
    "name": "1 CHURCH STREET SOUTH MELBOURNE 3205",
    "locID": "LOC000041110205",
    "tech": "FTTN",
    "upgrade": "NULL_NA",
    "gnaf_pid": "GAVIC419596508"
   }
  },
  {
   "type": "Feature",
   "geometry": {
    "type": "Point",
    "coordinates": [
     144.962726,
     -37.835613
    ]
   },
   "properties": {
    "name": "1 CLARENDON PLACE SOUTH MELBOURNE 3205",
    "locID": "LOC000066904837",
    "tech": "FTTN",
    "upgrade": "FTTP_SA",
    "gnaf_pid": "GAVIC421408989"
   }
  },
  {
   "type": "Feature",
   "geometry": {
    "type": "Point",
    "coordinates": [
     144.95437096,
     -37.8338985
    ]
   },
   "properties": {
    "name": "1 COOTE STREET SOUTH MELBOURNE 3205",
    "locID": "LOC000124394049",
    "tech": "FTTC",
    "upgrade": "FTTP_SA",
    "gnaf_pid": "GAVIC421738348"
   }
  },
  {
   "type": "Feature",
   "geometry": {
    "type": "Point",
    "coordinates": [
     144.95409,
     -37.83276
    ]
   },
   "properties": {
    "name": "1 COVENTRY PLACE SOUTH MELBOURNE 3205",
    "locID": "LOC000020265422",
    "tech": "FTTC",
    "upgrade": "FTTP_SA",
    "gnaf_pid": "GAVIC421763432"
   }
  },
  {
   "type": "Feature",
   "geometry": {
    "type": "Point",
    "coordinates": [
     144.9613556,
     -37.83076535
    ]
   },
   "properties": {
    "name": "1 CRAINE STREET SOUTH MELBOURNE 3205",
    "locID": "LOC000025277295",
    "tech": "FTTC",
    "upgrade": "FTTP_SA",
    "gnaf_pid": "GAVIC419897275"
   }
  },
  {
   "type": "Feature",
   "geometry": {
    "type": "Point",
    "coordinates": [
     144.96547418,
     -37.8348589
    ]
   },
   "properties": {
    "name": "1 DOW STREET SOUTH MELBOURNE 3205",
    "locID": "LOC000025129841",
    "tech": "FTTC",
    "upgrade": "FTTP_SA",
    "gnaf_pid": "GAVIC420505169"
   }
  },
  {
   "type": "Feature",
   "geometry": {
    "type": "Point",
    "coordinates": [
     144.96028025,
     -37.83326243
    ]
   },
   "properties": {
    "name": "1 EMERALD HILL PLACE SOUTH MELBOURNE 3205",
    "locID": "LOC000077137417",
    "tech": "FTTN",
    "upgrade": "NULL_NA",
    "gnaf_pid": "GAVIC412343864"
   }
  },
  {
   "type": "Feature",
   "geometry": {
    "type": "Point",
    "coordinates": [
     144.955532,
     -37.835254
    ]
   },
   "properties": {
    "name": "1 EMERALD STREET SOUTH MELBOURNE 3205",
    "locID": "LOC000022993611",
    "tech": "FTTN",
    "upgrade": "FTTP_SA",
    "gnaf_pid": "GAVIC419606233"
   }
  },
  {
   "type": "Feature",
   "geometry": {
    "type": "Point",
    "coordinates": [
     144.953267,
     -37.833331
    ]
   },
   "properties": {
    "name": "1 EVILLE STREET SOUTH MELBOURNE 3205",
    "locID": "LOC000031841539",
    "tech": "FTTC",
    "upgrade": "FTTP_SA",
    "gnaf_pid": "GAVIC419596385"
   }
  },
  {
   "type": "Feature",
   "geometry": {
    "type": "Point",
    "coordinates": [
     144.95892,
     -37.833934
    ]
   },
   "properties": {
    "name": "1 FISHLEY STREET SOUTH MELBOURNE 3205",
    "locID": "LOC000009357587",
    "tech": "FTTN",
    "upgrade": "FTTP_SA",
    "gnaf_pid": "GAVIC420497692"
   }
  },
  {
   "type": "Feature",
   "geometry": {
    "type": "Point",
    "coordinates": [
     144.96688798,
     -37.83313354
    ]
   },
   "properties": {
    "name": "1 FITZPATRICK STREET SOUTH MELBOURNE 3205",
    "locID": "LOC000124394613",
    "tech": "NULL",
    "upgrade": "NULL_NA",
    "gnaf_pid": "GAVIC420497693"
   }
  },
  {
   "type": "Feature",
   "geometry": {
    "type": "Point",
    "coordinates": [
     144.9536588,
     -37.83448387
    ]
   },
   "properties": {
    "name": "1 GLADSTONE GROVE SOUTH MELBOURNE 3205",
    "locID": "LOC000106216366",
    "tech": "FTTC",
    "upgrade": "NULL_NA",
    "gnaf_pid": "GAVIC422092455"
   }
  },
  {
   "type": "Feature",
   "geometry": {
    "type": "Point",
    "coordinates": [
     144.9651,
     -37.833176
    ]
   },
   "properties": {
    "name": "1 HEATHER STREET SOUTH MELBOURNE 3205",
    "locID": "LOC000099406665",
    "tech": "FTTC",
    "upgrade": "NULL_NA",
    "gnaf_pid": "GAVIC421407560"
   }
  },
  {
   "type": "Feature",
   "geometry": {
    "type": "Point",
    "coordinates": [
     144.947995,
     -37.840719
    ]
   },
   "properties": {
    "name": "1 HENDERSON STREET SOUTH MELBOURNE 3205",
    "locID": "LOC000013822831",
    "tech": "FTTC",
    "upgrade": "FTTP_SA",
    "gnaf_pid": "GAVIC420936451"
   }
  },
  {
   "type": "Feature",
   "geometry": {
    "type": "Point",
    "coordinates": [
     144.95867,
     -37.832704
    ]
   },
   "properties": {
    "name": "1 HOTHAM STREET SOUTH MELBOURNE 3205",
    "locID": "LOC000084851128",
    "tech": "FTTN",
    "upgrade": "NULL_NA",
    "gnaf_pid": "GAVIC421407569"
   }
  },
  {
   "type": "Feature",
   "geometry": {
    "type": "Point",
    "coordinates": [
     144.95937625,
     -37.83802819
    ]
   },
   "properties": {
    "name": "1 JAMES SERVICE PLACE SOUTH MELBOURNE 3205",
    "locID": "LOC000042325936",
    "tech": "FTTN",
    "upgrade": "FTTP_SA",
    "gnaf_pid": "GAVIC412350029"
   }
  },
  {
   "type": "Feature",
   "geometry": {
    "type": "Point",
    "coordinates": [
     144.95971133,
     -37.83252095
    ]
   },
   "properties": {
    "name": "1 JOHN STREET SOUTH MELBOURNE 3205",
    "locID": "LOC000104621608",
    "tech": "FTTN",
    "upgrade": "NULL_NA",
    "gnaf_pid": "GAVIC423908322"
   }
  },
  {
   "type": "Feature",
   "geometry": {
    "type": "Point",
    "coordinates": [
     144.966273,
     -37.83307
    ]
   },
   "properties": {
    "name": "1 LAW STREET SOUTH MELBOURNE 3205",
    "locID": "LOC000067640853",
    "tech": "FTTC",
    "upgrade": "FTTP_SA",
    "gnaf_pid": "GAVIC420801982"
   }
  },
  {
   "type": "Feature",
   "geometry": {
    "type": "Point",
    "coordinates": [
     144.9479573,
     -37.8396961
    ]
   },
   "properties": {
    "name": "1 LITTLE BOUNDARY STREET SOUTH MELBOURNE 3205",
    "locID": "LOC000003922644",
    "tech": "FTTC",
    "upgrade": "FTTP_SA",
    "gnaf_pid": "GAVIC420201761"
   }
  },
  {
   "type": "Feature",
   "geometry": {
    "type": "Point",
    "coordinates": [
     144.94826789,
     -37.84018194
    ]
   },
   "properties": {
    "name": "1 LITTLE GLOVER STREET SOUTH MELBOURNE 3205",
    "locID": "LOC000009778731",
    "tech": "FTTC",
    "upgrade": "FTTP_SA",
    "gnaf_pid": "GAVIC419894038"
   }
  },
  {
   "type": "Feature",
   "geometry": {
    "type": "Point",
    "coordinates": [
     144.949999,
     -37.839718
    ]
   },
   "properties": {
    "name": "1 LITTLE IFFLA STREET SOUTH MELBOURNE 3205",
    "locID": "LOC000069803171",
    "tech": "FTTC",
    "upgrade": "FTTP_SA",
    "gnaf_pid": "GAVIC420815948"
   }
  },
  {
   "type": "Feature",
   "geometry": {
    "type": "Point",
    "coordinates": [
     144.948802,
     -37.839039
    ]
   },
   "properties": {
    "name": "1 LITTLE TRIBE STREET SOUTH MELBOURNE 3205",
    "locID": "LOC000004366749",
    "tech": "FTTC",
    "upgrade": "FTTP_SA",
    "gnaf_pid": "GAVIC420191857"
   }
  },
  {
   "type": "Feature",
   "geometry": {
    "type": "Point",
    "coordinates": [
     144.951342,
     -37.836794
    ]
   },
   "properties": {
    "name": "1 LYELL STREET SOUTH MELBOURNE 3205",
    "locID": "LOC000114118070",
    "tech": "FTTN",
    "upgrade": "FTTP_SA",
    "gnaf_pid": "GAVIC419905052"
   }
  },
  {
   "type": "Feature",
   "geometry": {
    "type": "Point",
    "coordinates": [
     144.95245022,
     -37.8382287
    ]
   },
   "properties": {
    "name": "1 MERTON STREET SOUTH MELBOURNE 3205",
    "locID": "LOC000028798586",
    "tech": "FTTC",
    "upgrade": "FTTP_SA",
    "gnaf_pid": "GAVIC420494453"
   }
  },
  {
   "type": "Feature",
   "geometry": {
    "type": "Point",
    "coordinates": [
     144.954338,
     -37.836495
    ]
   },
   "properties": {
    "name": "1 MONTAGUE PLACE SOUTH MELBOURNE 3205",
    "locID": "LOC000072654778",
    "tech": "FTTN",
    "upgrade": "FTTP_SA",
    "gnaf_pid": "GAVIC420507772"
   }
  },
  {
   "type": "Feature",
   "geometry": {
    "type": "Point",
    "coordinates": [
     144.953576,
     -37.83294
    ]
   },
   "properties": {
    "name": "1 MORRIS STREET SOUTH MELBOURNE 3205",
    "locID": "LOC000066405984",
    "tech": "FTTC",
    "upgrade": "FTTP_SA",
    "gnaf_pid": "GAVIC420653531"
   }
  },
  {
   "type": "Feature",
   "geometry": {
    "type": "Point",
    "coordinates": [
     144.950744,
     -37.837856
    ]
   },
   "properties": {
    "name": "1 MOUNTAIN STREET SOUTH MELBOURNE 3205",
    "locID": "LOC000053668593",
    "tech": "FTTN",
    "upgrade": "FTTP_SA",
    "gnaf_pid": "GAVIC421763701"
   }
  },
  {
   "type": "Feature",
   "geometry": {
    "type": "Point",
    "coordinates": [
     144.960263,
     -37.836327
    ]
   },
   "properties": {
    "name": "1 NAPIER PLACE SOUTH MELBOURNE 3205",
    "locID": "LOC000011917678",
    "tech": "FTTN",
    "upgrade": "FTTP_SA",
    "gnaf_pid": "GAVIC420181173"
   }
  },
  {
   "type": "Feature",
   "geometry": {
    "type": "Point",
    "coordinates": [
     144.95470145,
     -37.83389274
    ]
   },
   "properties": {
    "name": "1 NIXON PLACE SOUTH MELBOURNE 3205",
    "locID": "LOC000067855839",
    "tech": "FTTC",
    "upgrade": "NULL_NA",
    "gnaf_pid": "GAVIC412314857"
   }
  },
  {
   "type": "Feature",
   "geometry": {
    "type": "Point",
    "coordinates": [
     144.951571,
     -37.835086
    ]
   },
   "properties": {
    "name": "1 NORMANBY STREET SOUTH MELBOURNE 3205",
    "locID": "LOC000010153138",
    "tech": "FTTN",
    "upgrade": "FTTP_SA",
    "gnaf_pid": "GAVIC419593524"
   }
  },
  {
   "type": "Feature",
   "geometry": {
    "type": "Point",
    "coordinates": [
     144.96272943,
     -37.83409088
    ]
   },
   "properties": {
    "name": "1 PALMER STREET SOUTH MELBOURNE 3205",
    "locID": "LOC000019476063",
    "tech": "FTTC",
    "upgrade": "FTTP_SA",
    "gnaf_pid": "GAVIC421407576"
   }
  },
  {
   "type": "Feature",
   "geometry": {
    "type": "Point",
    "coordinates": [
     144.953925,
     -37.834181
    ]
   },
   "properties": {
    "name": "1 PATTERSON PLACE SOUTH MELBOURNE 3205",
    "locID": "LOC000027703073",
    "tech": "FTTC",
    "upgrade": "FTTP_SA",
    "gnaf_pid": "GAVIC421664482"
   }
  },
  {
   "type": "Feature",
   "geometry": {
    "type": "Point",
    "coordinates": [
     144.954322,
     -37.832971
    ]
   },
   "properties": {
    "name": "1 PEEL PLACE SOUTH MELBOURNE 3205",
    "locID": "LOC000056948137",
    "tech": "FTTC",
    "upgrade": "FTTP_SA",
    "gnaf_pid": "GAVIC420494467"
   }
  },
  {
   "type": "Feature",
   "geometry": {
    "type": "Point",
    "coordinates": [
     144.96015764,
     -37.83514236
    ]
   },
   "properties": {
    "name": "1 PERRINS STREET SOUTH MELBOURNE 3205",
    "locID": "LOC000050189653",
    "tech": "FTTN",
    "upgrade": "NULL_NA",
    "gnaf_pid": "GAVIC414023418"
   }
  },
  {
   "type": "Feature",
   "geometry": {
    "type": "Point",
    "coordinates": [
     144.95536591,
     -37.83631333
    ]
   },
   "properties": {
    "name": "1 REILLY PLACE SOUTH MELBOURNE 3205",
    "locID": "LOC000181932255",
    "tech": "FTTN",
    "upgrade": "NULL_NA",
    "gnaf_pid": "GAVIC412314854"
   }
  },
  {
   "type": "Feature",
   "geometry": {
    "type": "Point",
    "coordinates": [
     144.95851898,
     -37.83003004
    ]
   },
   "properties": {
    "name": "1 ROSENEATH PLACE SOUTH MELBOURNE 3205",
    "locID": "ChIJGa0hgv9n1moRF2zMyYHcKJI",
    "tech": "FTTN",
    "upgrade": "UNKNOWN",
    "gnaf_pid": "GAVIC414018751"
   }
  },
  {
   "type": "Feature",
   "geometry": {
    "type": "Point",
    "coordinates": [
     144.95855887,
     -37.83038953
    ]
   },
   "properties": {
    "name": "1 ROSS PLACE SOUTH MELBOURNE 3205",
    "locID": "LOC000124398454",
    "tech": "FTTN",
    "upgrade": "NULL_NA",
    "gnaf_pid": "GAVIC424034687"
   }
  },
  {
   "type": "Feature",
   "geometry": {
    "type": "Point",
    "coordinates": [
     144.96125042,
     -37.82979331
    ]
   },
   "properties": {
    "name": "1 ROSS STREET SOUTH MELBOURNE 3205",
    "locID": "LOC000168824138",
    "tech": "FTTN",
    "upgrade": "NULL_NA",
    "gnaf_pid": "GAVIC420505210"
   }
  },
  {
   "type": "Feature",
   "geometry": {
    "type": "Point",
    "coordinates": [
     144.96816709,
     -37.83610404
    ]
   },
   "properties": {
    "name": "1 SANDILANDS STREET SOUTH MELBOURNE 3205",
    "locID": "LOC100063362146",
    "tech": "FTTB",
    "upgrade": "NULL_NA",
    "gnaf_pid": "GAVIC414018406"
   }
  },
  {
   "type": "Feature",
   "geometry": {
    "type": "Point",
    "coordinates": [
     144.96291333,
     -37.83313694
    ]
   },
   "properties": {
    "name": "1 UNION PLACE SOUTH MELBOURNE 3205",
    "locID": "LOC000124398465",
    "tech": "FTTP",
    "upgrade": "NULL_NA",
    "gnaf_pid": "GAVIC421387430"
   }
  },
  {
   "type": "Feature",
   "geometry": {
    "type": "Point",
    "coordinates": [
     144.957135,
     -37.833173
    ]
   },
   "properties": {
    "name": "1 WARD STREET SOUTH MELBOURNE 3205",
    "locID": "LOC000019345022",
    "tech": "FTTN",
    "upgrade": "FTTP_SA",
    "gnaf_pid": "GAVIC420218947"
   }
  },
  {
   "type": "Feature",
   "geometry": {
    "type": "Point",
    "coordinates": [
     144.9518373,
     -37.83182327
    ]
   },
   "properties": {
    "name": "1 WILLIAMS PLACE SOUTH MELBOURNE 3205",
    "locID": "ChIJL5UIjPln1moRNpWH-jZINK4",
    "tech": "FTTC",
    "upgrade": "UNKNOWN",
    "gnaf_pid": "GAVIC414027492"
   }
  },
  {
   "type": "Feature",
   "geometry": {
    "type": "Point",
    "coordinates": [
     144.963274,
     -37.833945
    ]
   },
   "properties": {
    "name": "1 WILSON STREET SOUTH MELBOURNE 3205",
    "locID": "LOC000096326081",
    "tech": "FTTC",
    "upgrade": "FTTP_SA",
    "gnaf_pid": "GAVIC412343785"
   }
  },
  {
   "type": "Feature",
   "geometry": {
    "type": "Point",
    "coordinates": [
     144.96950954,
     -37.83190066
    ]
   },
   "properties": {
    "name": "1-13 BANK STREET SOUTH MELBOURNE 3205",
    "locID": "LOC000021904695",
    "tech": "FTTN",
    "upgrade": "NULL_NA",
    "gnaf_pid": "GAVIC719421467"
   }
  },
  {
   "type": "Feature",
   "geometry": {
    "type": "Point",
    "coordinates": [
     144.96953188,
     -37.83385728
    ]
   },
   "properties": {
    "name": "1-13 COBDEN STREET SOUTH MELBOURNE 3205",
    "locID": "LOC000044592214",
    "tech": "FTTN",
    "upgrade": "FTTP_SA",
    "gnaf_pid": "GAVIC423065119"
   }
  },
  {
   "type": "Feature",
   "geometry": {
    "type": "Point",
    "coordinates": [
     144.95437096,
     -37.8338985
    ]
   },
   "properties": {
    "name": "1-3 COOTE STREET SOUTH MELBOURNE 3205",
    "locID": "LOC000124394049",
    "tech": "FTTC",
    "upgrade": "FTTP_SA",
    "gnaf_pid": "GAVIC421713067"
   }
  },
  {
   "type": "Feature",
   "geometry": {
    "type": "Point",
    "coordinates": [
     144.96549014,
     -37.83488874
    ]
   },
   "properties": {
    "name": "1-3 DOW STREET SOUTH MELBOURNE 3205",
    "locID": "LOC000025129841",
    "tech": "FTTC",
    "upgrade": "FTTP_SA",
    "gnaf_pid": "GAVIC720350130"
   }
  },
  {
   "type": "Feature",
   "geometry": {
    "type": "Point",
    "coordinates": [
     144.95341445,
     -37.83705593
    ]
   },
   "properties": {
    "name": "1-3 NELSON PLACE SOUTH MELBOURNE 3205",
    "locID": "LOC000168820511",
    "tech": "FTTC",
    "upgrade": "FTTP_SA",
    "gnaf_pid": "GAVIC423083894"
   }
  },
  {
   "type": "Feature",
   "geometry": {
    "type": "Point",
    "coordinates": [
     144.96125042,
     -37.82979331
    ]
   },
   "properties": {
    "name": "1-3 ROSS STREET SOUTH MELBOURNE 3205",
    "locID": "LOC000168824138",
    "tech": "FTTN",
    "upgrade": "NULL_NA",
    "gnaf_pid": "GAVIC423089875"
   }
  },
  {
   "type": "Feature",
   "geometry": {
    "type": "Point",
    "coordinates": [
     144.95259356,
     -37.83032285
    ]
   },
   "properties": {
    "name": "1-3 TATES PLACE SOUTH MELBOURNE 3205",
    "locID": "LOC100024476002",
    "tech": "FTTC",
    "upgrade": "NULL_NA",
    "gnaf_pid": "GAVIC424423497"
   }
  },
  {
   "type": "Feature",
   "geometry": {
    "type": "Point",
    "coordinates": [
     144.960133,
     -37.83363
    ]
   },
   "properties": {
    "name": "1-4 LAYFIELD STREET SOUTH MELBOURNE 3205",
    "locID": "ChIJHSGAPv5n1moRcSrqOVWAVZw",
    "tech": "FTTN",
    "upgrade": "UNKNOWN",
    "gnaf_pid": "GAVIC414014735"
   }
  },
  {
   "type": "Feature",
   "geometry": {
    "type": "Point",
    "coordinates": [
     144.95533165,
     -37.83622041
    ]
   },
   "properties": {
    "name": "1-4 REILLY PLACE SOUTH MELBOURNE 3205",
    "locID": "LOC000044231218",
    "tech": "FTTN",
    "upgrade": "NULL_NA",
    "gnaf_pid": "GAVIC424365475"
   }
  },
  {
   "type": "Feature",
   "geometry": {
    "type": "Point",
    "coordinates": [
     144.95317063,
     -37.83149144
    ]
   },
   "properties": {
    "name": "1-4 SHAMROCK PLACE SOUTH MELBOURNE 3205",
    "locID": "ChIJOUSVoPln1moRBZh6xHar5_k",
    "tech": "FTTP",
    "upgrade": "UNKNOWN",
    "gnaf_pid": "GAVIC423091014"
   }
  },
  {
   "type": "Feature",
   "geometry": {
    "type": "Point",
    "coordinates": [
     144.95056298,
     -37.83169839
    ]
   },
   "properties": {
    "name": "1-5 ALFRED STREET SOUTH MELBOURNE 3205",
    "locID": "ChIJtUoPAvpn1moRlX0tPEMXaus",
    "tech": "FTTC",
    "upgrade": "UNKNOWN",
    "gnaf_pid": "GAVIC423130756"
   }
  },
  {
   "type": "Feature",
   "geometry": {
    "type": "Point",
    "coordinates": [
     144.95887794,
     -37.83259988
    ]
   },
   "properties": {
    "name": "1-5 FRANCIS STREET SOUTH MELBOURNE 3205",
    "locID": "ChIJYWEeUf5n1moRj2tMUuPoWgk",
    "tech": "FTTN",
    "upgrade": "UNKNOWN",
    "gnaf_pid": "GAVIC423070386"
   }
  },
  {
   "type": "Feature",
   "geometry": {
    "type": "Point",
    "coordinates": [
     144.957778,
     -37.836618
    ]
   },
   "properties": {
    "name": "1-5 HOWE CRESCENT SOUTH MELBOURNE 3205",
    "locID": "LOC000168814263",
    "tech": "FTTN",
    "upgrade": "FTTP_SA",
    "gnaf_pid": "GAVIC414012287"
   }
  },
  {
   "type": "Feature",
   "geometry": {
    "type": "Point",
    "coordinates": [
     144.960423,
     -37.830932
    ]
   },
   "properties": {
    "name": "1-5 YARRA PLACE SOUTH MELBOURNE 3205",
    "locID": "LOC000013502261",
    "tech": "FTTC",
    "upgrade": "FTTP_SA",
    "gnaf_pid": "GAVIC414018749"
   }
  },
  {
   "type": "Feature",
   "geometry": {
    "type": "Point",
    "coordinates": [
     144.97047315,
     -37.83322396
    ]
   },
   "properties": {
    "name": "1-7 PALMERSTON CRESCENT SOUTH MELBOURNE 3205",
    "locID": "LOC000027071943",
    "tech": "FTTC",
    "upgrade": "NULL_NA",
    "gnaf_pid": "GAVIC422107500"
   }
  },
  {
   "type": "Feature",
   "geometry": {
    "type": "Point",
    "coordinates": [
     144.961759,
     -37.834416
    ]
   },
   "properties": {
    "name": "1-7 WYNYARD STREET SOUTH MELBOURNE 3205",
    "locID": "LOC000001927751",
    "tech": "FTTN",
    "upgrade": "NULL_NA",
    "gnaf_pid": "GAVIC414027446"
   }
  },
  {
   "type": "Feature",
   "geometry": {
    "type": "Point",
    "coordinates": [
     144.95325231,
     -37.83059169
    ]
   },
   "properties": {
    "name": "1-9 THISTLETHWAITE STREET SOUTH MELBOURNE 3205",
    "locID": "LOC000168826471",
    "tech": "FTTC",
    "upgrade": "FTTP_SA",
    "gnaf_pid": "GAVIC423095819"
   }
  },
  {
   "type": "Feature",
   "geometry": {
    "type": "Point",
    "coordinates": [
     144.95989,
     -37.840367
    ]
   },
   "properties": {
    "name": "10 ANDERSON STREET SOUTH MELBOURNE 3205",
    "locID": "LOC000014731268",
    "tech": "FTTN",
    "upgrade": "FTTP_SA",
    "gnaf_pid": "GAVIC421752529"
   }
  },
  {
   "type": "Feature",
   "geometry": {
    "type": "Point",
    "coordinates": [
     144.94922238,
     -37.83336
    ]
   },
   "properties": {
    "name": "10 BOUNDARY STREET SOUTH MELBOURNE 3205",
    "locID": "LOC000184550839",
    "tech": "FTTP",
    "upgrade": "NULL_NA",
    "gnaf_pid": "GAVIC420748992"
   }
  },
  {
   "type": "Feature",
   "geometry": {
    "type": "Point",
    "coordinates": [
     144.96264859,
     -37.83846781
    ]
   },
   "properties": {
    "name": "10 BRIDPORT STREET SOUTH MELBOURNE 3205",
    "locID": "LOC000057183870",
    "tech": "FTTN",
    "upgrade": "FTTP_SA",
    "gnaf_pid": "GAVIC421763457"
   }
  },
  {
   "type": "Feature",
   "geometry": {
    "type": "Point",
    "coordinates": [
     144.96092413,
     -37.83843077
    ]
   },
   "properties": {
    "name": "10 CECIL PLACE SOUTH MELBOURNE 3205",
    "locID": "LOC000081090208",
    "tech": "FTTN",
    "upgrade": "FTTP_SA",
    "gnaf_pid": "GAVIC421720064"
   }
  },
  {
   "type": "Feature",
   "geometry": {
    "type": "Point",
    "coordinates": [
     144.95990295,
     -37.83265945
    ]
   },
   "properties": {
    "name": "10 CHARLES STREET SOUTH MELBOURNE 3205",
    "locID": "LOC000175421230",
    "tech": "FTTP",
    "upgrade": "NULL_NA",
    "gnaf_pid": "GAVIC421422034"
   }
  },
  {
   "type": "Feature",
   "geometry": {
    "type": "Point",
    "coordinates": [
     144.960542,
     -37.836116
    ]
   },
   "properties": {
    "name": "10 CHURCH STREET SOUTH MELBOURNE 3205",
    "locID": "LOC000056853829",
    "tech": "FTTN",
    "upgrade": "NULL_NA",
    "gnaf_pid": "GAVIC421096190"
   }
  },
  {
   "type": "Feature",
   "geometry": {
    "type": "Point",
    "coordinates": [
     144.962492,
     -37.835852
    ]
   },
   "properties": {
    "name": "10 CLARENDON PLACE SOUTH MELBOURNE 3205",
    "locID": "LOC000077274675",
    "tech": "FTTN",
    "upgrade": "FTTP_SA",
    "gnaf_pid": "GAVIC421665009"
   }
  },
  {
   "type": "Feature",
   "geometry": {
    "type": "Point",
    "coordinates": [
     144.954143,
     -37.83413
    ]
   },
   "properties": {
    "name": "10 COOTE STREET SOUTH MELBOURNE 3205",
    "locID": "LOC000083681542",
    "tech": "FTTC",
    "upgrade": "FTTP_SA",
    "gnaf_pid": "GAVIC421763430"
   }
  },
  {
   "type": "Feature",
   "geometry": {
    "type": "Point",
    "coordinates": [
     144.95389,
     -37.832999
    ]
   },
   "properties": {
    "name": "10 COVENTRY PLACE SOUTH MELBOURNE 3205",
    "locID": "LOC000032704201",
    "tech": "FTTC",
    "upgrade": "FTTP_SA",
    "gnaf_pid": "GAVIC421127760"
   }
  },
  {
   "type": "Feature",
   "geometry": {
    "type": "Point",
    "coordinates": [
     144.96502259,
     -37.83475065
    ]
   },
   "properties": {
    "name": "10 DOW STREET SOUTH MELBOURNE 3205",
    "locID": "LOC000016025285",
    "tech": "FTTC",
    "upgrade": "FTTP_SA",
    "gnaf_pid": "GAVIC421117581"
   }
  },
  {
   "type": "Feature",
   "geometry": {
    "type": "Point",
    "coordinates": [
     144.955162,
     -37.835076
    ]
   },
   "properties": {
    "name": "10 EMERALD STREET SOUTH MELBOURNE 3205",
    "locID": "LOC000013643536",
    "tech": "FTTN",
    "upgrade": "FTTP_SA",
    "gnaf_pid": "GAVIC420480946"
   }
  },
  {
   "type": "Feature",
   "geometry": {
    "type": "Point",
    "coordinates": [
     144.952976,
     -37.833155
    ]
   },
   "properties": {
    "name": "10 EVILLE STREET SOUTH MELBOURNE 3205",
    "locID": "LOC000069167601",
    "tech": "FTTC",
    "upgrade": "FTTP_SA",
    "gnaf_pid": "GAVIC420500905"
   }
  },
  {
   "type": "Feature",
   "geometry": {
    "type": "Point",
    "coordinates": [
     144.95836481,
     -37.83756008
    ]
   },
   "properties": {
    "name": "10 FERRARS PLACE SOUTH MELBOURNE 3205",
    "locID": "LOC000025133375",
    "tech": "FTTN",
    "upgrade": "FTTP_SA",
    "gnaf_pid": "GAVIC421121169"
   }
  },
  {
   "type": "Feature",
   "geometry": {
    "type": "Point",
    "coordinates": [
     144.950373,
     -37.830343
    ]
   },
   "properties": {
    "name": "10 GLADSTONE PLACE SOUTH MELBOURNE 3205",
    "locID": "LOC000039080770",
    "tech": "FTTN",
    "upgrade": "FTTP_SA",
    "gnaf_pid": "GAVIC421140509"
   }
  },
  {
   "type": "Feature",
   "geometry": {
    "type": "Point",
    "coordinates": [
     144.965227,
     -37.834746
    ]
   },
   "properties": {
    "name": "10 HEATHER STREET SOUTH MELBOURNE 3205",
    "locID": "LOC000073898900",
    "tech": "FTTC",
    "upgrade": "FTTP_SA",
    "gnaf_pid": "GAVIC420795511"
   }
  },
  {
   "type": "Feature",
   "geometry": {
    "type": "Point",
    "coordinates": [
     144.947881,
     -37.840293
    ]
   },
   "properties": {
    "name": "10 HENDERSON STREET SOUTH MELBOURNE 3205",
    "locID": "LOC000071946275",
    "tech": "FTTC",
    "upgrade": "FTTP_SA",
    "gnaf_pid": "GAVIC421700576"
   }
  },
  {
   "type": "Feature",
   "geometry": {
    "type": "Point",
    "coordinates": [
     144.958447,
     -37.836674
    ]
   },
   "properties": {
    "name": "10 HOWE CRESCENT SOUTH MELBOURNE 3205",
    "locID": "LOC000105740192",
    "tech": "FTTN",
    "upgrade": "FTTP_SA",
    "gnaf_pid": "GAVIC420198625"
   }
  },
  {
   "type": "Feature",
   "geometry": {
    "type": "Point",
    "coordinates": [
     144.966099,
     -37.833184
    ]
   },
   "properties": {
    "name": "10 LAW STREET SOUTH MELBOURNE 3205",
    "locID": "LOC000082721948",
    "tech": "FTTC",
    "upgrade": "FTTP_SA",
    "gnaf_pid": "GAVIC419894035"
   }
  },
  {
   "type": "Feature",
   "geometry": {
    "type": "Point",
    "coordinates": [
     144.94873,
     -37.838776
    ]
   },
   "properties": {
    "name": "10 LITTLE TRIBE STREET SOUTH MELBOURNE 3205",
    "locID": "LOC000062306375",
    "tech": "FTTC",
    "upgrade": "FTTP_SA",
    "gnaf_pid": "GAVIC419905049"
   }
  },
  {
   "type": "Feature",
   "geometry": {
    "type": "Point",
    "coordinates": [
     144.95133,
     -37.836406
    ]
   },
   "properties": {
    "name": "10 LYELL STREET SOUTH MELBOURNE 3205",
    "locID": "LOC000066513519",
    "tech": "FTTC",
    "upgrade": "FTTP_SA",
    "gnaf_pid": "GAVIC419599875"
   }
  },
  {
   "type": "Feature",
   "geometry": {
    "type": "Point",
    "coordinates": [
     144.958721,
     -37.837463
    ]
   },
   "properties": {
    "name": "10 MARTIN STREET SOUTH MELBOURNE 3205",
    "locID": "LOC000031044131",
    "tech": "FTTP",
    "upgrade": "UNKNOWN",
    "gnaf_pid": "GAVIC421763451"
   }
  },
  {
   "type": "Feature",
   "geometry": {
    "type": "Point",
    "coordinates": [
     144.953374,
     -37.833144
    ]
   },
   "properties": {
    "name": "10 MORRIS STREET SOUTH MELBOURNE 3205",
    "locID": "LOC000069376797",
    "tech": "FTTC",
    "upgrade": "FTTP_SA",
    "gnaf_pid": "GAVIC419907326"
   }
  },
  {
   "type": "Feature",
   "geometry": {
    "type": "Point",
    "coordinates": [
     144.96785653,
     -37.83417012
    ]
   },
   "properties": {
    "name": "10 NAPIER STREET SOUTH MELBOURNE 3205",
    "locID": "LOC000088713809",
    "tech": "FTTB",
    "upgrade": "NULL_NA",
    "gnaf_pid": "GAVIC420266138"
   }
  },
  {
   "type": "Feature",
   "geometry": {
    "type": "Point",
    "coordinates": [
     144.953112,
     -37.836888
    ]
   },
   "properties": {
    "name": "10 NELSON PLACE SOUTH MELBOURNE 3205",
    "locID": "LOC000030260916",
    "tech": "FTTC",
    "upgrade": "FTTP_SA",
    "gnaf_pid": "GAVIC420492484"
   }
  },
  {
   "type": "Feature",
   "geometry": {
    "type": "Point",
    "coordinates": [
     144.951098,
     -37.833708
    ]
   },
   "properties": {
    "name": "10 NELSON ROAD SOUTH MELBOURNE 3205",
    "locID": "LOC000030311713",
    "tech": "FTTP",
    "upgrade": "NULL_NA",
    "gnaf_pid": "GAVIC419598923"
   }
  },
  {
   "type": "Feature",
   "geometry": {
    "type": "Point",
    "coordinates": [
     144.95583893,
     -37.83107072
    ]
   },
   "properties": {
    "name": "10 NORTHUMBERLAND STREET SOUTH MELBOURNE 3205",
    "locID": "LOC000185154444",
    "tech": "FTTN",
    "upgrade": "NULL_NA",
    "gnaf_pid": "GAVIC424422014"
   }
  },
  {
   "type": "Feature",
   "geometry": {
    "type": "Point",
    "coordinates": [
     144.95309925,
     -37.83425435
    ]
   },
   "properties": {
    "name": "10 PATTERSON PLACE SOUTH MELBOURNE 3205",
    "locID": "LOC000186273246",
    "tech": "FTTP",
    "upgrade": "NULL_NA",
    "gnaf_pid": "GAVIC720335775"
   }
  },
  {
   "type": "Feature",
   "geometry": {
    "type": "Point",
    "coordinates": [
     144.95990832,
     -37.83520412
    ]
   },
   "properties": {
    "name": "10 PERRINS STREET SOUTH MELBOURNE 3205",
    "locID": "LOC000012087932",
    "tech": "FTTN",
    "upgrade": "NULL_NA",
    "gnaf_pid": "GAVIC421720181"
   }
  },
  {
   "type": "Feature",
   "geometry": {
    "type": "Point",
    "coordinates": [
     144.966255,
     -37.836188
    ]
   },
   "properties": {
    "name": "10 RAGLAN STREET SOUTH MELBOURNE 3205",
    "locID": "LOC000038012305",
    "tech": "FTTC",
    "upgrade": "FTTP_SA",
    "gnaf_pid": "GAVIC421386957"
   }
  },
  {
   "type": "Feature",
   "geometry": {
    "type": "Point",
    "coordinates": [
     144.9609664,
     -37.82960578
    ]
   },
   "properties": {
    "name": "10 ROSS STREET SOUTH MELBOURNE 3205",
    "locID": "LOC000168824140",
    "tech": "FTTN",
    "upgrade": "NULL_NA",
    "gnaf_pid": "GAVIC425319453"
   }
  },
  {
   "type": "Feature",
   "geometry": {
    "type": "Point",
    "coordinates": [
     144.95016,
     -37.838423
    ]
   },
   "properties": {
    "name": "10 TRIBE STREET SOUTH MELBOURNE 3205",
    "locID": "LOC000088574824",
    "tech": "FTTN",
    "upgrade": "FTTP_SA",
    "gnaf_pid": "GAVIC421704118"
   }
  },
  {
   "type": "Feature",
   "geometry": {
    "type": "Point",
    "coordinates": [
     144.956878,
     -37.833394
    ]
   },
   "properties": {
    "name": "10 WARD STREET SOUTH MELBOURNE 3205",
    "locID": "LOC000047807866",
    "tech": "FTTN",
    "upgrade": "FTTP_SA",
    "gnaf_pid": "GAVIC421110399"
   }
  },
  {
   "type": "Feature",
   "geometry": {
    "type": "Point",
    "coordinates": [
     144.94654738,
     -37.83032526
    ]
   },
   "properties": {
    "name": "10 WOODGATE STREET SOUTH MELBOURNE 3205",
    "locID": "ChIJw2vVzPZn1moRLia8zvh6tpE",
    "tech": "FTTC",
    "upgrade": "UNKNOWN",
    "gnaf_pid": "GAVIC721089187"
   }
  },
  {
   "type": "Feature",
   "geometry": {
    "type": "Point",
    "coordinates": [
     144.94952856,
     -37.83991709
    ]
   },
   "properties": {
    "name": "10-12 GLOVER STREET SOUTH MELBOURNE 3205",
    "locID": "ChIJ7e8lW-9n1moRnJ-oauS4rpA",
    "tech": "FTTC",
    "upgrade": "UNKNOWN",
    "gnaf_pid": "GAVIC423071695"
   }
  },
  {
   "type": "Feature",
   "geometry": {
    "type": "Point",
    "coordinates": [
     144.95445235,
     -37.83527161
    ]
   },
   "properties": {
    "name": "10-12 QUEEN STREET SOUTH MELBOURNE 3205",
    "locID": "ChIJqy7Kn_tn1moRXDp-JoxxGQo",
    "tech": "FTTN",
    "upgrade": "UNKNOWN",
    "gnaf_pid": "GAVIC423088110"
   }
  },
  {
   "type": "Feature",
   "geometry": {
    "type": "Point",
    "coordinates": [
     144.96297268,
     -37.82955279
    ]
   },
   "properties": {
    "name": "10-12 YORK STREET SOUTH MELBOURNE 3205",
    "locID": "LOC000029204713",
    "tech": "FTTN",
    "upgrade": "NULL_NA",
    "gnaf_pid": "GAVIC414040735"
   }
  },
  {
   "type": "Feature",
   "geometry": {
    "type": "Point",
    "coordinates": [
     144.9591569,
     -37.83278496
    ]
   },
   "properties": {
    "name": "10-14 UNION STREET SOUTH MELBOURNE 3205",
    "locID": "ChIJKcvnT_5n1moR3PLoy0E4SXU",
    "tech": "FTTN",
    "upgrade": "UNKNOWN",
    "gnaf_pid": "GAVIC423096805"
   }
  },
  {
   "type": "Feature",
   "geometry": {
    "type": "Point",
    "coordinates": [
     144.94122768,
     -37.82643042
    ]
   },
   "properties": {
    "name": "100 BOUNDARY STREET SOUTH MELBOURNE 3205",
    "locID": "ChIJ5Quz_PRn1moRZ632J9iaXqs",
    "tech": "FTTN",
    "upgrade": "UNKNOWN",
    "gnaf_pid": "GAVIC425513122"
   }
  },
  {
   "type": "Feature",
   "geometry": {
    "type": "Point",
    "coordinates": [
     144.965274,
     -37.835909
    ]
   },
   "properties": {
    "name": "100 COBDEN STREET SOUTH MELBOURNE 3205",
    "locID": "LOC000083054331",
    "tech": "FTTC",
    "upgrade": "FTTP_SA",
    "gnaf_pid": "GAVIC419600774"
   }
  },
  {
   "type": "Feature",
   "geometry": {
    "type": "Point",
    "coordinates": [
     144.94847,
     -37.840367
    ]
   },
   "properties": {
    "name": "100 IFFLA STREET SOUTH MELBOURNE 3205",
    "locID": "LOC000041115012",
    "tech": "FTTC",
    "upgrade": "FTTP_SA",
    "gnaf_pid": "GAVIC420496437"
   }
  },
  {
   "type": "Feature",
   "geometry": {
    "type": "Point",
    "coordinates": [
     144.9585635,
     -37.82981863
    ]
   },
   "properties": {
    "name": "100 MARKET STREET SOUTH MELBOURNE 3205",
    "locID": "LOC000168815507",
    "tech": "FTTN",
    "upgrade": "NULL_NA",
    "gnaf_pid": "GAVIC425339603"
   }
  },
  {
   "type": "Feature",
   "geometry": {
    "type": "Point",
    "coordinates": [
     144.94985397,
     -37.8307791
    ]
   },
   "properties": {
    "name": "100 MONTAGUE STREET SOUTH MELBOURNE 3205",
    "locID": "LOC000168816066",
    "tech": "FTTC",
    "upgrade": "NULL_NA",
    "gnaf_pid": "GAVIC719326053"
   }
  },
  {
   "type": "Feature",
   "geometry": {
    "type": "Point",
    "coordinates": [
     144.96543,
     -37.835209
    ]
   },
   "properties": {
    "name": "100 NAPIER STREET SOUTH MELBOURNE 3205",
    "locID": "LOC000003652961",
    "tech": "FTTC",
    "upgrade": "FTTP_SA",
    "gnaf_pid": "GAVIC420803181"
   }
  },
  {
   "type": "Feature",
   "geometry": {
    "type": "Point",
    "coordinates": [
     144.952117,
     -37.836276
    ]
   },
   "properties": {
    "name": "100 NELSON ROAD SOUTH MELBOURNE 3205",
    "locID": "LOC000038536858",
    "tech": "FTTC",
    "upgrade": "FTTP_SA",
    "gnaf_pid": "GAVIC420812975"
   }
  },
  {
   "type": "Feature",
   "geometry": {
    "type": "Point",
    "coordinates": [
     144.967802,
     -37.83571
    ]
   },
   "properties": {
    "name": "100 PALMERSTON CRESCENT SOUTH MELBOURNE 3205",
    "locID": "LOC000079216944",
    "tech": "FTTC",
    "upgrade": "FTTP_SA",
    "gnaf_pid": "GAVIC419901086"
   }
  },
  {
   "type": "Feature",
   "geometry": {
    "type": "Point",
    "coordinates": [
     144.96796422,
     -37.83314464
    ]
   },
   "properties": {
    "name": "100 PARK STREET SOUTH MELBOURNE 3205",
    "locID": "LOC000022499212",
    "tech": "FTTC",
    "upgrade": "NULL_NA",
    "gnaf_pid": "GAVIC414006961"
   }
  },
  {
   "type": "Feature",
   "geometry": {
    "type": "Point",
    "coordinates": [
     144.947555,
     -37.83936
    ]
   },
   "properties": {
    "name": "100 PICKLES STREET SOUTH MELBOURNE 3205",
    "locID": "LOC000068141174",
    "tech": "FTTC",
    "upgrade": "NULL_NA",
    "gnaf_pid": "GAVIC421421355"
   }
  },
  {
   "type": "Feature",
   "geometry": {
    "type": "Point",
    "coordinates": [
     144.958621,
     -37.830784
    ]
   },
   "properties": {
    "name": "100 YORK STREET SOUTH MELBOURNE 3205",
    "locID": "LOC000016167040",
    "tech": "FTTN",
    "upgrade": "NULL_NA",
    "gnaf_pid": "GAVIC420806442"
   }
  },
  {
   "type": "Feature",
   "geometry": {
    "type": "Point",
    "coordinates": [
     144.96522671,
     -37.83596544
    ]
   },
   "properties": {
    "name": "100A COBDEN STREET SOUTH MELBOURNE 3205",
    "locID": "LOC000124398624",
    "tech": "FTTC",
    "upgrade": "FTTP_SA",
    "gnaf_pid": "GAVIC424908885"
   }
  },
  {
   "type": "Feature",
   "geometry": {
    "type": "Point",
    "coordinates": [
     144.966165,
     -37.832861
    ]
   },
   "properties": {
    "name": "101 BANK STREET SOUTH MELBOURNE 3205",
    "locID": "LOC000010923547",
    "tech": "FTTC",
    "upgrade": "FTTP_SA",
    "gnaf_pid": "GAVIC419594487"
   }
  },
  {
   "type": "Feature",
   "geometry": {
    "type": "Point",
    "coordinates": [
     144.965382,
     -37.836136
    ]
   },
   "properties": {
    "name": "101 COBDEN STREET SOUTH MELBOURNE 3205",
    "locID": "LOC000011825389",
    "tech": "FTTC",
    "upgrade": "FTTP_SA",
    "gnaf_pid": "GAVIC421386937"
   }
  },
  {
   "type": "Feature",
   "geometry": {
    "type": "Point",
    "coordinates": [
     144.96644921,
     -37.83480018
    ]
   },
   "properties": {
    "name": "101 EASTERN ROAD SOUTH MELBOURNE 3205",
    "locID": "LOC000026914745",
    "tech": "FTTC",
    "upgrade": "NULL_NA",
    "gnaf_pid": "GAVIC420585133"
   }
  },
  {
   "type": "Feature",
   "geometry": {
    "type": "Point",
    "coordinates": [
     144.950199,
     -37.830475
    ]
   },
   "properties": {
    "name": "101 MONTAGUE STREET SOUTH MELBOURNE 3205",
    "locID": "LOC000057244527",
    "tech": "FTTP",
    "upgrade": "NULL_NA",
    "gnaf_pid": "GAVIC420805861"
   }
  },
  {
   "type": "Feature",
   "geometry": {
    "type": "Point",
    "coordinates": [
     144.96199322,
     -37.82937581
    ]
   },
   "properties": {
    "name": "101 MORAY STREET SOUTH MELBOURNE 3205",
    "locID": "LOC000184291355",
    "tech": "FTTP",
    "upgrade": "NULL_NA",
    "gnaf_pid": "GAVIC720823843"
   }
  },
  {
   "type": "Feature",
   "geometry": {
    "type": "Point",
    "coordinates": [
     144.965271,
     -37.835612
    ]
   },
   "properties": {
    "name": "101 NAPIER STREET SOUTH MELBOURNE 3205",
    "locID": "LOC000092417772",
    "tech": "FTTC",
    "upgrade": "FTTP_SA",
    "gnaf_pid": "GAVIC421136692"
   }
  },
  {
   "type": "Feature",
   "geometry": {
    "type": "Point",
    "coordinates": [
     144.952361,
     -37.83692
    ]
   },
   "properties": {
    "name": "101 NELSON ROAD SOUTH MELBOURNE 3205",
    "locID": "LOC000019353503",
    "tech": "FTTC",
    "upgrade": "FTTP_SA",
    "gnaf_pid": "GAVIC420812976"
   }
  },
  {
   "type": "Feature",
   "geometry": {
    "type": "Point",
    "coordinates": [
     144.96654583,
     -37.83401368
    ]
   },
   "properties": {
    "name": "101 PARK STREET SOUTH MELBOURNE 3205",
    "locID": "LOC000085453832",
    "tech": "FTTC",
    "upgrade": "NULL_NA",
    "gnaf_pid": "GAVIC419991888"
   }
  },
  {
   "type": "Feature",
   "geometry": {
    "type": "Point",
    "coordinates": [
     144.96175753,
     -37.83783584
    ]
   },
   "properties": {
    "name": "101 RAGLAN STREET SOUTH MELBOURNE 3205",
    "locID": "LOC000008874142",
    "tech": "FTTN",
    "upgrade": "FTTP_SA",
    "gnaf_pid": "GAVIC419894230"
   }
  },
  {
   "type": "Feature",
   "geometry": {
    "type": "Point",
    "coordinates": [
     144.95887663,
     -37.83120017
    ]
   },
   "properties": {
    "name": "101-103 YORK STREET SOUTH MELBOURNE 3205",
    "locID": "ChIJQevkov9n1moRnRqKkphAsdI",
    "tech": "FTTN",
    "upgrade": "UNKNOWN",
    "gnaf_pid": "GAVIC414040736"
   }
  },
  {
   "type": "Feature",
   "geometry": {
    "type": "Point",
    "coordinates": [
     144.9606631,
     -37.82966599
    ]
   },
   "properties": {
    "name": "101-105 CLARKE STREET SOUTH MELBOURNE 3205",
    "locID": "LOC000124398648",
    "tech": "FTTN",
    "upgrade": "NULL_NA",
    "gnaf_pid": "GAVIC423064881"
   }
  },
  {
   "type": "Feature",
   "geometry": {
    "type": "Point",
    "coordinates": [
     144.95887663,
     -37.83120017
    ]
   },
   "properties": {
    "name": "101-107 YORK STREET SOUTH MELBOURNE 3205",
    "locID": "ChIJQevkov9n1moRQLsS8R6K4g0",
    "tech": "FTTN",
    "upgrade": "UNKNOWN",
    "gnaf_pid": "GAVIC424456731"
   }
  },
  {
   "type": "Feature",
   "geometry": {
    "type": "Point",
    "coordinates": [
     144.950346,
     -37.832523
    ]
   },
   "properties": {
    "name": "101-109 THISTLETHWAITE STREET SOUTH MELBOURNE 3205",
    "locID": "LOC000005279848",
    "tech": "FTTC",
    "upgrade": "FTTP_SA",
    "gnaf_pid": "GAVIC414030196"
   }
  },
  {
   "type": "Feature",
   "geometry": {
    "type": "Point",
    "coordinates": [
     144.96644921,
     -37.83480018
    ]
   },
   "properties": {
    "name": "101A EASTERN ROAD SOUTH MELBOURNE 3205",
    "locID": "LOC000026707217",
    "tech": "FTTC",
    "upgrade": "NULL_NA",
    "gnaf_pid": "GAVIC419686836"
   }
  },
  {
   "type": "Feature",
   "geometry": {
    "type": "Point",
    "coordinates": [
     144.94165577,
     -37.82675755
    ]
   },
   "properties": {
    "name": "102 BOUNDARY STREET SOUTH MELBOURNE 3205",
    "locID": "ChIJxRIL-fRn1moRPR-4ELDHiy0",
    "tech": "FTTN",
    "upgrade": "UNKNOWN",
    "gnaf_pid": "GAVIC425513123"
   }
  },
  {
   "type": "Feature",
   "geometry": {
    "type": "Point",
    "coordinates": [
     144.96434154,
     -37.83618556
    ]
   },
   "properties": {
    "name": "102 COBDEN STREET SOUTH MELBOURNE 3205",
    "locID": "LOC000002823931",
    "tech": "FTTN",
    "upgrade": "FTTP_SA",
    "gnaf_pid": "GAVIC421136813"
   }
  },
  {
   "type": "Feature",
   "geometry": {
    "type": "Point",
    "coordinates": [
     144.948446,
     -37.840411
    ]
   },
   "properties": {
    "name": "102 IFFLA STREET SOUTH MELBOURNE 3205",
    "locID": "LOC000009366714",
    "tech": "FTTC",
    "upgrade": "FTTP_SA",
    "gnaf_pid": "GAVIC419585903"
   }
  },
  {
   "type": "Feature",
   "geometry": {
    "type": "Point",
    "coordinates": [
     144.952093,
     -37.836321
    ]
   },
   "properties": {
    "name": "102 NELSON ROAD SOUTH MELBOURNE 3205",
    "locID": "LOC000063482030",
    "tech": "FTTC",
    "upgrade": "FTTP_SA",
    "gnaf_pid": "GAVIC419605178"
   }
  },
  {
   "type": "Feature",
   "geometry": {
    "type": "Point",
    "coordinates": [
     144.967737,
     -37.835714
    ]
   },
   "properties": {
    "name": "102 PALMERSTON CRESCENT SOUTH MELBOURNE 3205",
    "locID": "LOC000054360986",
    "tech": "FTTC",
    "upgrade": "FTTP_SA",
    "gnaf_pid": "GAVIC420563086"
   }
  },
  {
   "type": "Feature",
   "geometry": {
    "type": "Point",
    "coordinates": [
     144.947579,
     -37.839306
    ]
   },
   "properties": {
    "name": "102 PICKLES STREET SOUTH MELBOURNE 3205",
    "locID": "LOC000006119790",
    "tech": "FTTC",
    "upgrade": "NULL_NA",
    "gnaf_pid": "GAVIC421421356"
   }
  },
  {
   "type": "Feature",
   "geometry": {
    "type": "Point",
    "coordinates": [
     144.96398174,
     -37.83277844
    ]
   },
   "properties": {
    "name": "102 TOPE STREET SOUTH MELBOURNE 3205",
    "locID": "LOC000075648446",
    "tech": "FTTN",
    "upgrade": "NULL_NA",
    "gnaf_pid": "GAVIC420827435"
   }
  },
  {
   "type": "Feature",
   "geometry": {
    "type": "Point",
    "coordinates": [
     144.958378,
     -37.830883
    ]
   },
   "properties": {
    "name": "102 YORK STREET SOUTH MELBOURNE 3205",
    "locID": "LOC000025300248",
    "tech": "FTTN",
    "upgrade": "FTTP_SA",
    "gnaf_pid": "GAVIC420516770"
   }
  },
  {
   "type": "Feature",
   "geometry": {
    "type": "Point",
    "coordinates": [
     144.96398174,
     -37.83277844
    ]
   },
   "properties": {
    "name": "102-104 TOPE STREET SOUTH MELBOURNE 3205",
    "locID": "ChIJ6WZFtQFo1moRdFdspCTsr2c",
    "tech": "FTTN",
    "upgrade": "UNKNOWN",
    "gnaf_pid": "GAVIC425170711"
   }
  },
  {
   "type": "Feature",
   "geometry": {
    "type": "Point",
    "coordinates": [
     144.97020525,
     -37.83553536
    ]
   },
   "properties": {
    "name": "102-112 ALBERT ROAD SOUTH MELBOURNE 3205",
    "locID": "ChIJ6fk85QJo1moRV9pPfaebOj4",
    "tech": "FTTC",
    "upgrade": "UNKNOWN",
    "gnaf_pid": "GAVIC423055621"
   }
  },
  {
   "type": "Feature",
   "geometry": {
    "type": "Point",
    "coordinates": [
     144.966039,
     -37.832904
    ]
   },
   "properties": {
    "name": "103 BANK STREET SOUTH MELBOURNE 3205",
    "locID": "LOC000058118113",
    "tech": "FTTC",
    "upgrade": "FTTP_SA",
    "gnaf_pid": "GAVIC419580701"
   }
  },
  {
   "type": "Feature",
   "geometry": {
    "type": "Point",
    "coordinates": [
     144.95706614,
     -37.83086747
    ]
   },
   "properties": {
    "name": "103 CECIL STREET SOUTH MELBOURNE 3205",
    "locID": "LOC000168804948",
    "tech": "FTTN",
    "upgrade": "NULL_NA",
    "gnaf_pid": "GAVIC424777755"
   }
  },
  {
   "type": "Feature",
   "geometry": {
    "type": "Point",
    "coordinates": [
     144.965324,
     -37.836163
    ]
   },
   "properties": {
    "name": "103 COBDEN STREET SOUTH MELBOURNE 3205",
    "locID": "LOC000082325554",
    "tech": "FTTC",
    "upgrade": "FTTP_SA",
    "gnaf_pid": "GAVIC421387268"
   }
  },
  {
   "type": "Feature",
   "geometry": {
    "type": "Point",
    "coordinates": [
     144.96644921,
     -37.83480018
    ]
   },
   "properties": {
    "name": "103 EASTERN ROAD SOUTH MELBOURNE 3205",
    "locID": "LOC000042316722",
    "tech": "FTTC",
    "upgrade": "NULL_NA",
    "gnaf_pid": "GAVIC421772732"
   }
  },
  {
   "type": "Feature",
   "geometry": {
    "type": "Point",
    "coordinates": [
     144.95026513,
     -37.8305228
    ]
   },
   "properties": {
    "name": "103 MONTAGUE STREET SOUTH MELBOURNE 3205",
    "locID": "LOC000079805844",
    "tech": "FTTN",
    "upgrade": "FTTP_SA",
    "gnaf_pid": "GAVIC422172629"
   }
  },
  {
   "type": "Feature",
   "geometry": {
    "type": "Point",
    "coordinates": [
     144.96199322,
     -37.82937581
    ]
   },
   "properties": {
    "name": "103 MORAY STREET SOUTH MELBOURNE 3205",
    "locID": "LOC000184292036",
    "tech": "FTTP",
    "upgrade": "NULL_NA",
    "gnaf_pid": "GAVIC720825699"
   }
  },
  {
   "type": "Feature",
   "geometry": {
    "type": "Point",
    "coordinates": [
     144.9523492,
     -37.83695937
    ]
   },
   "properties": {
    "name": "103 NELSON ROAD SOUTH MELBOURNE 3205",
    "locID": "LOC000069601193",
    "tech": "FTTC",
    "upgrade": "FTTP_SA",
    "gnaf_pid": "GAVIC419991095"
   }
  },
  {
   "type": "Feature",
   "geometry": {
    "type": "Point",
    "coordinates": [
     144.96654583,
     -37.83401368
    ]
   },
   "properties": {
    "name": "103 PARK STREET SOUTH MELBOURNE 3205",
    "locID": "LOC000010270211",
    "tech": "FTTC",
    "upgrade": "NULL_NA",
    "gnaf_pid": "GAVIC420582419"
   }
  },
  {
   "type": "Feature",
   "geometry": {
    "type": "Point",
    "coordinates": [
     144.96169788,
     -37.83785195
    ]
   },
   "properties": {
    "name": "103 RAGLAN STREET SOUTH MELBOURNE 3205",
    "locID": "LOC000081342141",
    "tech": "FTTN",
    "upgrade": "FTTP_SA",
    "gnaf_pid": "GAVIC420505114"
   }
  },
  {
   "type": "Feature",
   "geometry": {
    "type": "Point",
    "coordinates": [
     144.96105618,
     -37.83857452
    ]
   },
   "properties": {
    "name": "103 THOMSON STREET SOUTH MELBOURNE 3205",
    "locID": "LOC000033826341",
    "tech": "FTTN",
    "upgrade": "FTTP_SA",
    "gnaf_pid": "GAVIC420489679"
   }
  },
  {
   "type": "Feature",
   "geometry": {
    "type": "Point",
    "coordinates": [
     144.96521439,
     -37.83562943
    ]
   },
   "properties": {
    "name": "103-105 NAPIER STREET SOUTH MELBOURNE 3205",
    "locID": "ChIJqfqgPwFo1moReWXY7GL15vY",
    "tech": "FTTC",
    "upgrade": "UNKNOWN",
    "gnaf_pid": "GAVIC423083722"
   }
  },
  {
   "type": "Feature",
   "geometry": {
    "type": "Point",
    "coordinates": [
     144.95701142,
     -37.83075115
    ]
   },
   "properties": {
    "name": "103-113 CECIL STREET SOUTH MELBOURNE 3205",
    "locID": "LOC000168804948",
    "tech": "FTTN",
    "upgrade": "NULL_NA",
    "gnaf_pid": "GAVIC719307295"
   }
  },
  {
   "type": "Feature",
   "geometry": {
    "type": "Point",
    "coordinates": [
     144.96644921,
     -37.83480018
    ]
   },
   "properties": {
    "name": "103A EASTERN ROAD SOUTH MELBOURNE 3205",
    "locID": "LOC000042410683",
    "tech": "FTTC",
    "upgrade": "FTTP_SA",
    "gnaf_pid": "GAVIC420918862"
   }
  },
  {
   "type": "Feature",
   "geometry": {
    "type": "Point",
    "coordinates": [
     144.964278,
     -37.836198
    ]
   },
   "properties": {
    "name": "104 COBDEN STREET SOUTH MELBOURNE 3205",
    "locID": "LOC000105923353",
    "tech": "FTTN",
    "upgrade": "FTTP_SA",
    "gnaf_pid": "GAVIC421387269"
   }
  },
  {
   "type": "Feature",
   "geometry": {
    "type": "Point",
    "coordinates": [
     144.948421,
     -37.840483
    ]
   },
   "properties": {
    "name": "104 IFFLA STREET SOUTH MELBOURNE 3205",
    "locID": "LOC000101485009",
    "tech": "FTTC",
    "upgrade": "FTTP_SA",
    "gnaf_pid": "GAVIC420795757"
   }
  },
  {
   "type": "Feature",
   "geometry": {
    "type": "Point",
    "coordinates": [
     144.965362,
     -37.835217
    ]
   },
   "properties": {
    "name": "104 NAPIER STREET SOUTH MELBOURNE 3205",
    "locID": "LOC000059004836",
    "tech": "FTTC",
    "upgrade": "FTTP_SA",
    "gnaf_pid": "GAVIC420505278"
   }
  },
  {
   "type": "Feature",
   "geometry": {
    "type": "Point",
    "coordinates": [
     144.952081,
     -37.836356
    ]
   },
   "properties": {
    "name": "104 NELSON ROAD SOUTH MELBOURNE 3205",
    "locID": "LOC000079145996",
    "tech": "FTTC",
    "upgrade": "FTTP_SA",
    "gnaf_pid": "GAVIC420812977"
   }
  },
  {
   "type": "Feature",
   "geometry": {
    "type": "Point",
    "coordinates": [
     144.96768,
     -37.83574
    ]
   },
   "properties": {
    "name": "104 PALMERSTON CRESCENT SOUTH MELBOURNE 3205",
    "locID": "LOC000071782897",
    "tech": "FTTC",
    "upgrade": "FTTP_SA",
    "gnaf_pid": "GAVIC421465057"
   }
  },
  {
   "type": "Feature",
   "geometry": {
    "type": "Point",
    "coordinates": [
     144.967242,
     -37.833366
    ]
   },
   "properties": {
    "name": "104 PARK STREET SOUTH MELBOURNE 3205",
    "locID": "LOC000060007393",
    "tech": "FTTC",
    "upgrade": "FTTP_SA",
    "gnaf_pid": "GAVIC420184757"
   }
  },
  {
   "type": "Feature",
   "geometry": {
    "type": "Point",
    "coordinates": [
     144.947581,
     -37.839243
    ]
   },
   "properties": {
    "name": "104 PICKLES STREET SOUTH MELBOURNE 3205",
    "locID": "LOC000008086460",
    "tech": "FTTC",
    "upgrade": "FTTP_SA",
    "gnaf_pid": "GAVIC419896564"
   }
  },
  {
   "type": "Feature",
   "geometry": {
    "type": "Point",
    "coordinates": [
     144.96398174,
     -37.83277844
    ]
   },
   "properties": {
    "name": "104 TOPE STREET SOUTH MELBOURNE 3205",
    "locID": "LOC000040357746",
    "tech": "FTTN",
    "upgrade": "NULL_NA",
    "gnaf_pid": "GAVIC414039975"
   }
  },
  {
   "type": "Feature",
   "geometry": {
    "type": "Point",
    "coordinates": [
     144.95028553,
     -37.83214415
    ]
   },
   "properties": {
    "name": "104-112 THISTLETHWAITE STREET SOUTH MELBOURNE 3205",
    "locID": "ChIJ76TbB_pn1moRNzoMp240TTo",
    "tech": "FTTC",
    "upgrade": "UNKNOWN",
    "gnaf_pid": "GAVIC423095808"
   }
  },
  {
   "type": "Feature",
   "geometry": {
    "type": "Point",
    "coordinates": [
     144.965982,
     -37.832912
    ]
   },
   "properties": {
    "name": "105 BANK STREET SOUTH MELBOURNE 3205",
    "locID": "LOC000068113875",
    "tech": "FTTC",
    "upgrade": "FTTP_SA",
    "gnaf_pid": "GAVIC419897462"
   }
  },
  {
   "type": "Feature",
   "geometry": {
    "type": "Point",
    "coordinates": [
     144.95706614,
     -37.83086747
    ]
   },
   "properties": {
    "name": "105 CECIL STREET SOUTH MELBOURNE 3205",
    "locID": "LOC000168804953",
    "tech": "FTTN",
    "upgrade": "NULL_NA",
    "gnaf_pid": "GAVIC424777756"
   }
  },
  {
   "type": "Feature",
   "geometry": {
    "type": "Point",
    "coordinates": [
     144.965232,
     -37.836193
    ]
   },
   "properties": {
    "name": "105 COBDEN STREET SOUTH MELBOURNE 3205",
    "locID": "LOC000069964238",
    "tech": "FTTC",
    "upgrade": "FTTP_SA",
    "gnaf_pid": "GAVIC421121331"
   }
  },
  {
   "type": "Feature",
   "geometry": {
    "type": "Point",
    "coordinates": [
     144.96644921,
     -37.83480018
    ]
   },
   "properties": {
    "name": "105 EASTERN ROAD SOUTH MELBOURNE 3205",
    "locID": "LOC000091896583",
    "tech": "FTTC",
    "upgrade": "NULL_NA",
    "gnaf_pid": "GAVIC419996496"
   }
  },
  {
   "type": "Feature",
   "geometry": {
    "type": "Point",
    "coordinates": [
     144.96199322,
     -37.82937581
    ]
   },
   "properties": {
    "name": "105 MORAY STREET SOUTH MELBOURNE 3205",
    "locID": "EjExMDUgTW9yYXkgU3QsIFNvdXRoIE1lbGJvdXJuZSBWSUMgMzIwNSwgQXVzdHJhbGlhIjASLgoUChIJY50cyKpC1moRKm6xg_aqUm4QaSoUChIJkWBYOwBo1moRM9keeSnEeLw",
    "tech": "FTTP",
    "upgrade": "UNKNOWN",
    "gnaf_pid": "GAVIC720826023"
   }
  },
  {
   "type": "Feature",
   "geometry": {
    "type": "Point",
    "coordinates": [
     144.952323,
     -37.837005
    ]
   },
   "properties": {
    "name": "105 NELSON ROAD SOUTH MELBOURNE 3205",
    "locID": "LOC000105825020",
    "tech": "FTTC",
    "upgrade": "FTTP_SA",
    "gnaf_pid": "GAVIC420352591"
   }
  },
  {
   "type": "Feature",
   "geometry": {
    "type": "Point",
    "coordinates": [
     144.96654583,
     -37.83401368
    ]
   },
   "properties": {
    "name": "105 PARK STREET SOUTH MELBOURNE 3205",
    "locID": "LOC000023426465",
    "tech": "FTTC",
    "upgrade": "NULL_NA",
    "gnaf_pid": "GAVIC421191633"
   }
  },
  {
   "type": "Feature",
   "geometry": {
    "type": "Point",
    "coordinates": [
     144.96164061,
     -37.83786896
    ]
   },
   "properties": {
    "name": "105 RAGLAN STREET SOUTH MELBOURNE 3205",
    "locID": "LOC000106168810",
    "tech": "FTTN",
    "upgrade": "FTTP_SA",
    "gnaf_pid": "GAVIC420505115"
   }
  },
  {
   "type": "Feature",
   "geometry": {
    "type": "Point",
    "coordinates": [
     144.96096767,
     -37.83860189
    ]
   },
   "properties": {
    "name": "105 THOMSON STREET SOUTH MELBOURNE 3205",
    "locID": "LOC000104472235",
    "tech": "FTTN",
    "upgrade": "FTTP_SA",
    "gnaf_pid": "GAVIC420582233"
   }
  },
  {
   "type": "Feature",
   "geometry": {
    "type": "Point",
    "coordinates": [
     144.95887663,
     -37.83120017
    ]
   },
   "properties": {
    "name": "105 YORK STREET SOUTH MELBOURNE 3205",
    "locID": "LOC000063409745",
    "tech": "FTTN",
    "upgrade": "NULL_NA",
    "gnaf_pid": "GAVIC420025990"
   }
  },
  {
   "type": "Feature",
   "geometry": {
    "type": "Point",
    "coordinates": [
     144.95724188,
     -37.83041344
    ]
   },
   "properties": {
    "name": "105-107 MARKET STREET SOUTH MELBOURNE 3205",
    "locID": "LOC000168815569",
    "tech": "FTTN",
    "upgrade": "NULL_NA",
    "gnaf_pid": "GAVIC424777921"
   }
  },
  {
   "type": "Feature",
   "geometry": {
    "type": "Point",
    "coordinates": [
     144.96644921,
     -37.83480018
    ]
   },
   "properties": {
    "name": "105A EASTERN ROAD SOUTH MELBOURNE 3205",
    "locID": "LOC000091878810",
    "tech": "FTTC",
    "upgrade": "FTTP_SA",
    "gnaf_pid": "GAVIC421201702"
   }
  },
  {
   "type": "Feature",
   "geometry": {
    "type": "Point",
    "coordinates": [
     144.96422383,
     -37.83621319
    ]
   },
   "properties": {
    "name": "106 COBDEN STREET SOUTH MELBOURNE 3205",
    "locID": "LOC000113276738",
    "tech": "FTTN",
    "upgrade": "FTTP_SA",
    "gnaf_pid": "GAVIC412328600"
   }
  },
  {
   "type": "Feature",
   "geometry": {
    "type": "Point",
    "coordinates": [
     144.96527,
     -37.835251
    ]
   },
   "properties": {
    "name": "106 NAPIER STREET SOUTH MELBOURNE 3205",
    "locID": "LOC000051162817",
    "tech": "FTTC",
    "upgrade": "FTTP_SA",
    "gnaf_pid": "GAVIC421660663"
   }
  },
  {
   "type": "Feature",
   "geometry": {
    "type": "Point",
    "coordinates": [
     144.952057,
     -37.836419
    ]
   },
   "properties": {
    "name": "106 NELSON ROAD SOUTH MELBOURNE 3205",
    "locID": "LOC000028638201",
    "tech": "FTTC",
    "upgrade": "FTTP_SA",
    "gnaf_pid": "GAVIC419605179"
   }
  },
  {
   "type": "Feature",
   "geometry": {
    "type": "Point",
    "coordinates": [
     144.967619,
     -37.835779
    ]
   },
   "properties": {
    "name": "106 PALMERSTON CRESCENT SOUTH MELBOURNE 3205",
    "locID": "LOC000073622025",
    "tech": "FTTC",
    "upgrade": "FTTP_SA",
    "gnaf_pid": "GAVIC420516758"
   }
  },
  {
   "type": "Feature",
   "geometry": {
    "type": "Point",
    "coordinates": [
     144.967173,
     -37.833374
    ]
   },
   "properties": {
    "name": "106 PARK STREET SOUTH MELBOURNE 3205",
    "locID": "LOC000012862887",
    "tech": "FTTC",
    "upgrade": "FTTP_SA",
    "gnaf_pid": "GAVIC420184758"
   }
  },
  {
   "type": "Feature",
   "geometry": {
    "type": "Point",
    "coordinates": [
     144.9477656,
     -37.83892707
    ]
   },
   "properties": {
    "name": "106 PICKLES STREET SOUTH MELBOURNE 3205",
    "locID": "LOC000185113702",
    "tech": "FTTP",
    "upgrade": "NULL_NA",
    "gnaf_pid": "GAVIC720525693"
   }
  },
  {
   "type": "Feature",
   "geometry": {
    "type": "Point",
    "coordinates": [
     144.96402529,
     -37.83287272
    ]
   },
   "properties": {
    "name": "106 TOPE STREET SOUTH MELBOURNE 3205",
    "locID": "LOC000052893286",
    "tech": "FTTN",
    "upgrade": "NULL_NA",
    "gnaf_pid": "GAVIC421502317"
   }
  },
  {
   "type": "Feature",
   "geometry": {
    "type": "Point",
    "coordinates": [
     144.96388778,
     -37.83290507
    ]
   },
   "properties": {
    "name": "106A TOPE STREET SOUTH MELBOURNE 3205",
    "locID": "LOC000052427786",
    "tech": "FTTN",
    "upgrade": "NULL_NA",
    "gnaf_pid": "GAVIC412350044"
   }
  },
  {
   "type": "Feature",
   "geometry": {
    "type": "Point",
    "coordinates": [
     144.965913,
     -37.832928
    ]
   },
   "properties": {
    "name": "107 BANK STREET SOUTH MELBOURNE 3205",
    "locID": "LOC000072981805",
    "tech": "FTTC",
    "upgrade": "FTTP_SA",
    "gnaf_pid": "GAVIC419897463"
   }
  },
  {
   "type": "Feature",
   "geometry": {
    "type": "Point",
    "coordinates": [
     144.95706614,
     -37.83086747
    ]
   },
   "properties": {
    "name": "107 CECIL STREET SOUTH MELBOURNE 3205",
    "locID": "LOC000168804969",
    "tech": "FTTN",
    "upgrade": "NULL_NA",
    "gnaf_pid": "GAVIC424777757"
   }
  },
  {
   "type": "Feature",
   "geometry": {
    "type": "Point",
    "coordinates": [
     144.96644921,
     -37.83480018
    ]
   },
   "properties": {
    "name": "107 EASTERN ROAD SOUTH MELBOURNE 3205",
    "locID": "LOC000080287608",
    "tech": "FTTC",
    "upgrade": "NULL_NA",
    "gnaf_pid": "GAVIC419996493"
   }
  },
  {
   "type": "Feature",
   "geometry": {
    "type": "Point",
    "coordinates": [
     144.96199322,
     -37.82937581
    ]
   },
   "properties": {
    "name": "107 MORAY STREET SOUTH MELBOURNE 3205",
    "locID": "ChIJT5h9xqpC1moR8QeeVHE528U",
    "tech": "FTTP",
    "upgrade": "UNKNOWN",
    "gnaf_pid": "GAVIC414015047"
   }
  },
  {
   "type": "Feature",
   "geometry": {
    "type": "Point",
    "coordinates": [
     144.952299,
     -37.837057
    ]
   },
   "properties": {
    "name": "107 NELSON ROAD SOUTH MELBOURNE 3205",
    "locID": "LOC000070511633",
    "tech": "FTTC",
    "upgrade": "FTTP_SA",
    "gnaf_pid": "GAVIC421849855"
   }
  },
  {
   "type": "Feature",
   "geometry": {
    "type": "Point",
    "coordinates": [
     144.96654583,
     -37.83401368
    ]
   },
   "properties": {
    "name": "107 PARK STREET SOUTH MELBOURNE 3205",
    "locID": "LOC000048161833",
    "tech": "FTTC",
    "upgrade": "NULL_NA",
    "gnaf_pid": "GAVIC421774578"
   }
  },
  {
   "type": "Feature",
   "geometry": {
    "type": "Point",
    "coordinates": [
     144.96143393,
     -37.83792881
    ]
   },
   "properties": {
    "name": "107 RAGLAN STREET SOUTH MELBOURNE 3205",
    "locID": "LOC000026142419",
    "tech": "FTTP",
    "upgrade": "NULL_NA",
    "gnaf_pid": "GAVIC421134010"
   }
  },
  {
   "type": "Feature",
   "geometry": {
    "type": "Point",
    "coordinates": [
     144.96083427,
     -37.838635
    ]
   },
   "properties": {
    "name": "107 THOMSON STREET SOUTH MELBOURNE 3205",
    "locID": "LOC000101070695",
    "tech": "FTTN",
    "upgrade": "FTTP_SA",
    "gnaf_pid": "GAVIC421705242"
   }
  },
  {
   "type": "Feature",
   "geometry": {
    "type": "Point",
    "coordinates": [
     144.95887663,
     -37.83120017
    ]
   },
   "properties": {
    "name": "107 YORK STREET SOUTH MELBOURNE 3205",
    "locID": "LOC000050053587",
    "tech": "FTTN",
    "upgrade": "NULL_NA",
    "gnaf_pid": "GAVIC420194828"
   }
  },
  {
   "type": "Feature",
   "geometry": {
    "type": "Point",
    "coordinates": [
     144.96644921,
     -37.83480018
    ]
   },
   "properties": {
    "name": "107A EASTERN ROAD SOUTH MELBOURNE 3205",
    "locID": "LOC000080449209",
    "tech": "FTTC",
    "upgrade": "FTTP_SA",
    "gnaf_pid": "GAVIC420582306"
   }
  },
  {
   "type": "Feature",
   "geometry": {
    "type": "Point",
    "coordinates": [
     144.965089,
     -37.832734
    ]
   },
   "properties": {
    "name": "108 BANK STREET SOUTH MELBOURNE 3205",
    "locID": "LOC000081579455",
    "tech": "FTTN",
    "upgrade": "NULL_NA",
    "gnaf_pid": "GAVIC420186823"
   }
  },
  {
   "type": "Feature",
   "geometry": {
    "type": "Point",
    "coordinates": [
     144.96416396,
     -37.83622272
    ]
   },
   "properties": {
    "name": "108 COBDEN STREET SOUTH MELBOURNE 3205",
    "locID": "LOC000114607173",
    "tech": "FTTN",
    "upgrade": "FTTP_SA",
    "gnaf_pid": "GAVIC412350034"
   }
  },
  {
   "type": "Feature",
   "geometry": {
    "type": "Point",
    "coordinates": [
     144.961424,
     -37.82934955
    ]
   },
   "properties": {
    "name": "108 MORAY STREET SOUTH MELBOURNE 3205",
    "locID": "LOC000015941663",
    "tech": "FTTN",
    "upgrade": "NULL_NA",
    "gnaf_pid": "GAVIC412336772"
   }
  },
  {
   "type": "Feature",
   "geometry": {
    "type": "Point",
    "coordinates": [
     144.965189,
     -37.835277
    ]
   },
   "properties": {
    "name": "108 NAPIER STREET SOUTH MELBOURNE 3205",
    "locID": "LOC000083533267",
    "tech": "FTTC",
    "upgrade": "FTTP_SA",
    "gnaf_pid": "GAVIC420191956"
   }
  },
  {
   "type": "Feature",
   "geometry": {
    "type": "Point",
    "coordinates": [
     144.952021,
     -37.83649
    ]
   },
   "properties": {
    "name": "108 NELSON ROAD SOUTH MELBOURNE 3205",
    "locID": "LOC000017710523",
    "tech": "FTTC",
    "upgrade": "FTTP_SA",
    "gnaf_pid": "GAVIC421121193"
   }
  },
  {
   "type": "Feature",
   "geometry": {
    "type": "Point",
    "coordinates": [
     144.967561,
     -37.835805
    ]
   },
   "properties": {
    "name": "108 PALMERSTON CRESCENT SOUTH MELBOURNE 3205",
    "locID": "LOC000014711246",
    "tech": "FTTC",
    "upgrade": "FTTP_SA",
    "gnaf_pid": "GAVIC419595529"
   }
  },
  {
   "type": "Feature",
   "geometry": {
    "type": "Point",
    "coordinates": [
     144.94781255,
     -37.83888626
    ]
   },
   "properties": {
    "name": "108 PICKLES STREET SOUTH MELBOURNE 3205",
    "locID": "LOC000185113699",
    "tech": "FTTP",
    "upgrade": "NULL_NA",
    "gnaf_pid": "GAVIC414038221"
   }
  },
  {
   "type": "Feature",
   "geometry": {
    "type": "Point",
    "coordinates": [
     144.964339,
     -37.833559
    ]
   },
   "properties": {
    "name": "108 TOPE STREET SOUTH MELBOURNE 3205",
    "locID": "LOC000002028872",
    "tech": "FTTP",
    "upgrade": "UNKNOWN",
    "gnaf_pid": "GAVIC421134090"
   }
  },
  {
   "type": "Feature",
   "geometry": {
    "type": "Point",
    "coordinates": [
     144.95822988,
     -37.83098941
    ]
   },
   "properties": {
    "name": "108 YORK STREET SOUTH MELBOURNE 3205",
    "locID": "LOC000174020671",
    "tech": "FTTP",
    "upgrade": "NULL_NA",
    "gnaf_pid": "GAVIC719526754"
   }
  },
  {
   "type": "Feature",
   "geometry": {
    "type": "Point",
    "coordinates": [
     144.967095,
     -37.833403
    ]
   },
   "properties": {
    "name": "108-110 PARK STREET SOUTH MELBOURNE 3205",
    "locID": "LOC000050759608",
    "tech": "FTTC",
    "upgrade": "FTTP_SA",
    "gnaf_pid": "GAVIC420220322"
   }
  },
  {
   "type": "Feature",
   "geometry": {
    "type": "Point",
    "coordinates": [
     144.96130027,
     -37.82942522
    ]
   },
   "properties": {
    "name": "108-114 MORAY STREET SOUTH MELBOURNE 3205",
    "locID": "ChIJYwSTyqpC1moRpuqLEeY6I4o",
    "tech": "FTTN",
    "upgrade": "UNKNOWN",
    "gnaf_pid": "GAVIC425165656"
   }
  },
  {
   "type": "Feature",
   "geometry": {
    "type": "Point",
    "coordinates": [
     144.95822988,
     -37.83098941
    ]
   },
   "properties": {
    "name": "108-120 YORK STREET SOUTH MELBOURNE 3205",
    "locID": "LOC000174020573",
    "tech": "FTTP",
    "upgrade": "NULL_NA",
    "gnaf_pid": "GAVIC414030914"
   }
  },
  {
   "type": "Feature",
   "geometry": {
    "type": "Point",
    "coordinates": [
     144.965089,
     -37.832734
    ]
   },
   "properties": {
    "name": "108A BANK STREET SOUTH MELBOURNE 3205",
    "locID": "ChIJRZ-5wwFo1moR0yDTwG-um1Y",
    "tech": "FTTN",
    "upgrade": "UNKNOWN",
    "gnaf_pid": "GAVIC412330770"
   }
  },
  {
   "type": "Feature",
   "geometry": {
    "type": "Point",
    "coordinates": [
     144.965856,
     -37.832946
    ]
   },
   "properties": {
    "name": "109 BANK STREET SOUTH MELBOURNE 3205",
    "locID": "LOC000011034982",
    "tech": "FTTC",
    "upgrade": "FTTP_SA",
    "gnaf_pid": "GAVIC420505160"
   }
  },
  {
   "type": "Feature",
   "geometry": {
    "type": "Point",
    "coordinates": [
     144.95706614,
     -37.83086747
    ]
   },
   "properties": {
    "name": "109 CECIL STREET SOUTH MELBOURNE 3205",
    "locID": "LOC000168805189",
    "tech": "FTTN",
    "upgrade": "NULL_NA",
    "gnaf_pid": "GAVIC424777758"
   }
  },
  {
   "type": "Feature",
   "geometry": {
    "type": "Point",
    "coordinates": [
     144.96644921,
     -37.83480018
    ]
   },
   "properties": {
    "name": "109 EASTERN ROAD SOUTH MELBOURNE 3205",
    "locID": "LOC000082344722",
    "tech": "FTTC",
    "upgrade": "NULL_NA",
    "gnaf_pid": "GAVIC420918855"
   }
  },
  {
   "type": "Feature",
   "geometry": {
    "type": "Point",
    "coordinates": [
     144.96199322,
     -37.82937581
    ]
   },
   "properties": {
    "name": "109 MORAY STREET SOUTH MELBOURNE 3205",
    "locID": "LOC000184291994",
    "tech": "FTTP",
    "upgrade": "NULL_NA",
    "gnaf_pid": "GAVIC720820905"
   }
  },
  {
   "type": "Feature",
   "geometry": {
    "type": "Point",
    "coordinates": [
     144.96426426,
     -37.83590738
    ]
   },
   "properties": {
    "name": "109 NAPIER STREET SOUTH MELBOURNE 3205",
    "locID": "LOC000045292960",
    "tech": "FTTP",
    "upgrade": "NULL_NA",
    "gnaf_pid": "GAVIC420803182"
   }
  },
  {
   "type": "Feature",
   "geometry": {
    "type": "Point",
    "coordinates": [
     144.96654583,
     -37.83401368
    ]
   },
   "properties": {
    "name": "109 PARK STREET SOUTH MELBOURNE 3205",
    "locID": "LOC000101331862",
    "tech": "FTTC",
    "upgrade": "NULL_NA",
    "gnaf_pid": "GAVIC421774579"
   }
  },
  {
   "type": "Feature",
   "geometry": {
    "type": "Point",
    "coordinates": [
     144.961383,
     -37.837953
    ]
   },
   "properties": {
    "name": "109 RAGLAN STREET SOUTH MELBOURNE 3205",
    "locID": "LOC000017819907",
    "tech": "FTTP",
    "upgrade": "UNKNOWN",
    "gnaf_pid": "GAVIC421882561"
   }
  },
  {
   "type": "Feature",
   "geometry": {
    "type": "Point",
    "coordinates": [
     144.95865918,
     -37.83126234
    ]
   },
   "properties": {
    "name": "109-111 YORK STREET SOUTH MELBOURNE 3205",
    "locID": "ChIJASXbpv9n1moRSeAAQe61ztY",
    "tech": "FTTP",
    "upgrade": "UNKNOWN",
    "gnaf_pid": "GAVIC414035485"
   }
  },
  {
   "type": "Feature",
   "geometry": {
    "type": "Point",
    "coordinates": [
     144.96644921,
     -37.83480018
    ]
   },
   "properties": {
    "name": "109A EASTERN ROAD SOUTH MELBOURNE 3205",
    "locID": "LOC000082885157",
    "tech": "FTTC",
    "upgrade": "FTTP_SA",
    "gnaf_pid": "GAVIC419996494"
   }
  },
  {
   "type": "Feature",
   "geometry": {
    "type": "Point",
    "coordinates": [
     144.96785653,
     -37.83417012
    ]
   },
   "properties": {
    "name": "10A NAPIER STREET SOUTH MELBOURNE 3205",
    "locID": "LOC000087515257",
    "tech": "FTTB",
    "upgrade": "NULL_NA",
    "gnaf_pid": "GAVIC420001965"
   }
  },
  {
   "type": "Feature",
   "geometry": {
    "type": "Point",
    "coordinates": [
     144.96785653,
     -37.83417012
    ]
   },
   "properties": {
    "name": "10B NAPIER STREET SOUTH MELBOURNE 3205",
    "locID": "LOC000087577514",
    "tech": "FTTB",
    "upgrade": "NULL_NA",
    "gnaf_pid": "GAVIC421198183"
   }
  },
  {
   "type": "Feature",
   "geometry": {
    "type": "Point",
    "coordinates": [
     144.960312,
     -37.840329
    ]
   },
   "properties": {
    "name": "11 ANDERSON STREET SOUTH MELBOURNE 3205",
    "locID": "LOC000077099824",
    "tech": "FTTN",
    "upgrade": "NULL_NA",
    "gnaf_pid": "GAVIC421198136"
   }
  },
  {
   "type": "Feature",
   "geometry": {
    "type": "Point",
    "coordinates": [
     144.960936,
     -37.836231
    ]
   },
   "properties": {
    "name": "11 CHURCH STREET SOUTH MELBOURNE 3205",
    "locID": "LOC000032104641",
    "tech": "FTTN",
    "upgrade": "FTTP_SA",
    "gnaf_pid": "GAVIC421422036"
   }
  },
  {
   "type": "Feature",
   "geometry": {
    "type": "Point",
    "coordinates": [
     144.954482,
     -37.834172
    ]
   },
   "properties": {
    "name": "11 COOTE STREET SOUTH MELBOURNE 3205",
    "locID": "LOC000086766610",
    "tech": "FTTC",
    "upgrade": "FTTP_SA",
    "gnaf_pid": "GAVIC420516106"
   }
  },
  {
   "type": "Feature",
   "geometry": {
    "type": "Point",
    "coordinates": [
     144.954218,
     -37.833059
    ]
   },
   "properties": {
    "name": "11 COVENTRY PLACE SOUTH MELBOURNE 3205",
    "locID": "LOC000006094748",
    "tech": "FTTC",
    "upgrade": "FTTP_SA",
    "gnaf_pid": "GAVIC421127761"
   }
  },
  {
   "type": "Feature",
   "geometry": {
    "type": "Point",
    "coordinates": [
     144.96038942,
     -37.83350362
    ]
   },
   "properties": {
    "name": "11 EMERALD HILL PLACE SOUTH MELBOURNE 3205",
    "locID": "LOC000124402369",
    "tech": "FTTN",
    "upgrade": "NULL_NA",
    "gnaf_pid": "GAVIC423068850"
   }
  },
  {
   "type": "Feature",
   "geometry": {
    "type": "Point",
    "coordinates": [
     144.9552599,
     -37.83531233
    ]
   },
   "properties": {
    "name": "11 EMERALD STREET SOUTH MELBOURNE 3205",
    "locID": "LOC000038769958",
    "tech": "FTTN",
    "upgrade": "FTTP_SA",
    "gnaf_pid": "GAVIC419888436"
   }
  },
  {
   "type": "Feature",
   "geometry": {
    "type": "Point",
    "coordinates": [
     144.95291215,
     -37.83344249
    ]
   },
   "properties": {
    "name": "11 EVILLE STREET SOUTH MELBOURNE 3205",
    "locID": "LOC000115765009",
    "tech": "FTTC",
    "upgrade": "FTTP_SA",
    "gnaf_pid": "GAVIC424616607"
   }
  },
  {
   "type": "Feature",
   "geometry": {
    "type": "Point",
    "coordinates": [
     144.96643693,
     -37.8333165
    ]
   },
   "properties": {
    "name": "11 FITZPATRICK STREET SOUTH MELBOURNE 3205",
    "locID": "LOC000045647218",
    "tech": "FTTC",
    "upgrade": "FTTP_SA",
    "gnaf_pid": "GAVIC421412265"
   }
  },
  {
   "type": "Feature",
   "geometry": {
    "type": "Point",
    "coordinates": [
     144.95898513,
     -37.83281419
    ]
   },
   "properties": {
    "name": "11 FRANCIS STREET SOUTH MELBOURNE 3205",
    "locID": "LOC000109960549",
    "tech": "FTTN",
    "upgrade": "NULL_NA",
    "gnaf_pid": "GAVIC412350269"
   }
  },
  {
   "type": "Feature",
   "geometry": {
    "type": "Point",
    "coordinates": [
     144.94853,
     -37.839863
    ]
   },
   "properties": {
    "name": "11 GLOVER STREET SOUTH MELBOURNE 3205",
    "locID": "LOC000097055352",
    "tech": "FTTC",
    "upgrade": "FTTP_SA",
    "gnaf_pid": "GAVIC420181236"
   }
  },
  {
   "type": "Feature",
   "geometry": {
    "type": "Point",
    "coordinates": [
     144.96559861,
     -37.83487908
    ]
   },
   "properties": {
    "name": "11 HEATHER STREET SOUTH MELBOURNE 3205",
    "locID": "LOC000031182070",
    "tech": "FTTC",
    "upgrade": "FTTP_SA",
    "gnaf_pid": "GAVIC421123400"
   }
  },
  {
   "type": "Feature",
   "geometry": {
    "type": "Point",
    "coordinates": [
     144.947578,
     -37.840595
    ]
   },
   "properties": {
    "name": "11 HENDERSON STREET SOUTH MELBOURNE 3205",
    "locID": "LOC000052278494",
    "tech": "FTTC",
    "upgrade": "FTTP_SA",
    "gnaf_pid": "GAVIC421212465"
   }
  },
  {
   "type": "Feature",
   "geometry": {
    "type": "Point",
    "coordinates": [
     144.958778,
     -37.832922
    ]
   },
   "properties": {
    "name": "11 HOTHAM STREET SOUTH MELBOURNE 3205",
    "locID": "LOC000033416175",
    "tech": "FTTN",
    "upgrade": "NULL_NA",
    "gnaf_pid": "GAVIC420505949"
   }
  },
  {
   "type": "Feature",
   "geometry": {
    "type": "Point",
    "coordinates": [
     144.958515,
     -37.836693
    ]
   },
   "properties": {
    "name": "11 HOWE CRESCENT SOUTH MELBOURNE 3205",
    "locID": "LOC000003920009",
    "tech": "FTTP",
    "upgrade": "UNKNOWN",
    "gnaf_pid": "GAVIC421407570"
   }
  },
  {
   "type": "Feature",
   "geometry": {
    "type": "Point",
    "coordinates": [
     144.949628,
     -37.839576
    ]
   },
   "properties": {
    "name": "11 LITTLE IFFLA STREET SOUTH MELBOURNE 3205",
    "locID": "LOC000080270359",
    "tech": "FTTC",
    "upgrade": "FTTP_SA",
    "gnaf_pid": "GAVIC421133991"
   }
  },
  {
   "type": "Feature",
   "geometry": {
    "type": "Point",
    "coordinates": [
     144.94920643,
     -37.8378225
    ]
   },
   "properties": {
    "name": "11 LITTLE MOUNTAIN STREET SOUTH MELBOURNE 3205",
    "locID": "LOC000107789649",
    "tech": "FTTN",
    "upgrade": "FTTP_SA",
    "gnaf_pid": "GAVIC412319384"
   }
  },
  {
   "type": "Feature",
   "geometry": {
    "type": "Point",
    "coordinates": [
     144.948486,
     -37.838902
    ]
   },
   "properties": {
    "name": "11 LITTLE TRIBE STREET SOUTH MELBOURNE 3205",
    "locID": "LOC000019545874",
    "tech": "FTTC",
    "upgrade": "FTTP_SA",
    "gnaf_pid": "GAVIC420242323"
   }
  },
  {
   "type": "Feature",
   "geometry": {
    "type": "Point",
    "coordinates": [
     144.951047,
     -37.836771
    ]
   },
   "properties": {
    "name": "11 LYELL STREET SOUTH MELBOURNE 3205",
    "locID": "LOC000079312576",
    "tech": "FTTN",
    "upgrade": "FTTP_SA",
    "gnaf_pid": "GAVIC420191859"
   }
  },
  {
   "type": "Feature",
   "geometry": {
    "type": "Point",
    "coordinates": [
     144.950294,
     -37.837695
    ]
   },
   "properties": {
    "name": "11 MOUNTAIN STREET SOUTH MELBOURNE 3205",
    "locID": "LOC000008438930",
    "tech": "FTTN",
    "upgrade": "FTTP_SA",
    "gnaf_pid": "GAVIC420519745"
   }
  },
  {
   "type": "Feature",
   "geometry": {
    "type": "Point",
    "coordinates": [
     144.953128,
     -37.837141
    ]
   },
   "properties": {
    "name": "11 NELSON PLACE SOUTH MELBOURNE 3205",
    "locID": "LOC000010644940",
    "tech": "FTTC",
    "upgrade": "FTTP_SA",
    "gnaf_pid": "GAVIC421042784"
   }
  },
  {
   "type": "Feature",
   "geometry": {
    "type": "Point",
    "coordinates": [
     144.95127981,
     -37.83516444
    ]
   },
   "properties": {
    "name": "11 NORMANBY STREET SOUTH MELBOURNE 3205",
    "locID": "LOC000124402382",
    "tech": "FTTP",
    "upgrade": "UNKNOWN",
    "gnaf_pid": "GAVIC424885991"
   }
  },
  {
   "type": "Feature",
   "geometry": {
    "type": "Point",
    "coordinates": [
     144.970425,
     -37.83290773
    ]
   },
   "properties": {
    "name": "11 PARK STREET SOUTH MELBOURNE 3205",
    "locID": "LOC100066638246",
    "tech": "FTTC",
    "upgrade": "NULL_NA",
    "gnaf_pid": "GAVIC421411644"
   }
  },
  {
   "type": "Feature",
   "geometry": {
    "type": "Point",
    "coordinates": [
     144.95367958,
     -37.83431818
    ]
   },
   "properties": {
    "name": "11 PATTERSON PLACE SOUTH MELBOURNE 3205",
    "locID": "LOC000009773218",
    "tech": "FTTC",
    "upgrade": "NULL_NA",
    "gnaf_pid": "GAVIC412350248"
   }
  },
  {
   "type": "Feature",
   "geometry": {
    "type": "Point",
    "coordinates": [
     144.96036464,
     -37.83512089
    ]
   },
   "properties": {
    "name": "11 PERRINS STREET SOUTH MELBOURNE 3205",
    "locID": "LOC000087706979",
    "tech": "FTTN",
    "upgrade": "NULL_NA",
    "gnaf_pid": "GAVIC419893890"
   }
  },
  {
   "type": "Feature",
   "geometry": {
    "type": "Point",
    "coordinates": [
     144.954726,
     -37.835213
    ]
   },
   "properties": {
    "name": "11 QUEEN STREET SOUTH MELBOURNE 3205",
    "locID": "LOC000019430949",
    "tech": "FTTN",
    "upgrade": "FTTP_SA",
    "gnaf_pid": "GAVIC421368244"
   }
  },
  {
   "type": "Feature",
   "geometry": {
    "type": "Point",
    "coordinates": [
     144.951228,
     -37.833926
    ]
   },
   "properties": {
    "name": "11 SMITH STREET SOUTH MELBOURNE 3205",
    "locID": "LOC000038929661",
    "tech": "FTTN",
    "upgrade": "FTTP_SA",
    "gnaf_pid": "GAVIC421134035"
   }
  },
  {
   "type": "Feature",
   "geometry": {
    "type": "Point",
    "coordinates": [
     144.949889,
     -37.838778
    ]
   },
   "properties": {
    "name": "11 TRIBE STREET SOUTH MELBOURNE 3205",
    "locID": "LOC000003925117",
    "tech": "FTTC",
    "upgrade": "FTTP_SA",
    "gnaf_pid": "GAVIC421704119"
   }
  },
  {
   "type": "Feature",
   "geometry": {
    "type": "Point",
    "coordinates": [
     144.957242,
     -37.833391
    ]
   },
   "properties": {
    "name": "11 WARD STREET SOUTH MELBOURNE 3205",
    "locID": "LOC000020237364",
    "tech": "FTTN",
    "upgrade": "FTTP_SA",
    "gnaf_pid": "GAVIC419907147"
   }
  },
  {
   "type": "Feature",
   "geometry": {
    "type": "Point",
    "coordinates": [
     144.96094357,
     -37.8309543
    ]
   },
   "properties": {
    "name": "11 YARRA STREET SOUTH MELBOURNE 3205",
    "locID": "LOC000097017408",
    "tech": "FTTC",
    "upgrade": "FTTP_SA",
    "gnaf_pid": "GAVIC422456072"
   }
  },
  {
   "type": "Feature",
   "geometry": {
    "type": "Point",
    "coordinates": [
     144.970425,
     -37.83290773
    ]
   },
   "properties": {
    "name": "11-13 PARK STREET SOUTH MELBOURNE 3205",
    "locID": "ChIJd_vkO6hC1moR2xUX2En27Cw",
    "tech": "FTTC",
    "upgrade": "UNKNOWN",
    "gnaf_pid": "GAVIC424970269"
   }
  },
  {
   "type": "Feature",
   "geometry": {
    "type": "Point",
    "coordinates": [
     144.9530429,
     -37.83076829
    ]
   },
   "properties": {
    "name": "11-13 THISTLETHWAITE STREET SOUTH MELBOURNE 3205",
    "locID": "LOC000168826189",
    "tech": "FTTC",
    "upgrade": "FTTP_SA",
    "gnaf_pid": "GAVIC423095811"
   }
  },
  {
   "type": "Feature",
   "geometry": {
    "type": "Point",
    "coordinates": [
     144.96052,
     -37.831123
    ]
   },
   "properties": {
    "name": "11-13 YARRA PLACE SOUTH MELBOURNE 3205",
    "locID": "LOC000051695437",
    "tech": "FTTC",
    "upgrade": "FTTP_SA",
    "gnaf_pid": "GAVIC414018746"
   }
  },
  {
   "type": "Feature",
   "geometry": {
    "type": "Point",
    "coordinates": [
     144.95268842,
     -37.82980456
    ]
   },
   "properties": {
    "name": "11-15 BUCKHURST STREET SOUTH MELBOURNE 3205",
    "locID": "LOC000104381950",
    "tech": "FTTC",
    "upgrade": "FTTP_SA",
    "gnaf_pid": "GAVIC414012189"
   }
  },
  {
   "type": "Feature",
   "geometry": {
    "type": "Point",
    "coordinates": [
     144.97026479,
     -37.8304628
    ]
   },
   "properties": {
    "name": "11-17 DORCAS STREET SOUTH MELBOURNE 3205",
    "locID": "LOC100058198123",
    "tech": "FTTC",
    "upgrade": "NULL_NA",
    "gnaf_pid": "GAVIC423067717"
   }
  },
  {
   "type": "Feature",
   "geometry": {
    "type": "Point",
    "coordinates": [
     144.95268842,
     -37.82980456
    ]
   },
   "properties": {
    "name": "11-21 BUCKHURST STREET SOUTH MELBOURNE 3205",
    "locID": "LOC000104381950",
    "tech": "FTTC",
    "upgrade": "FTTP_SA",
    "gnaf_pid": "GAVIC720348543"
   }
  },
  {
   "type": "Feature",
   "geometry": {
    "type": "Point",
    "coordinates": [
     144.9651717,
     -37.83211981
    ]
   },
   "properties": {
    "name": "11-29 EASTERN ROAD SOUTH MELBOURNE 3205",
    "locID": "LOC000190590822",
    "tech": "FTTP",
    "upgrade": "NULL_NA",
    "gnaf_pid": "GAVIC414025278"
   }
  },
  {
   "type": "Feature",
   "geometry": {
    "type": "Point",
    "coordinates": [
     144.96514994,
     -37.83196083
    ]
   },
   "properties": {
    "name": "11-41 EASTERN ROAD SOUTH MELBOURNE 3205",
    "locID": "LOC000025216224",
    "tech": "FTTC",
    "upgrade": "NULL_NA",
    "gnaf_pid": "GAVIC720505103"
   }
  },
  {
   "type": "Feature",
   "geometry": {
    "type": "Point",
    "coordinates": [
     144.965032,
     -37.832751
    ]
   },
   "properties": {
    "name": "110 BANK STREET SOUTH MELBOURNE 3205",
    "locID": "LOC000019368249",
    "tech": "FTTN",
    "upgrade": "NULL_NA",
    "gnaf_pid": "GAVIC420505161"
   }
  },
  {
   "type": "Feature",
   "geometry": {
    "type": "Point",
    "coordinates": [
     144.96410783,
     -37.83623928
    ]
   },
   "properties": {
    "name": "110 COBDEN STREET SOUTH MELBOURNE 3205",
    "locID": "LOC000106425146",
    "tech": "FTTN",
    "upgrade": "FTTP_SA",
    "gnaf_pid": "GAVIC420516102"
   }
  },
  {
   "type": "Feature",
   "geometry": {
    "type": "Point",
    "coordinates": [
     144.96145195,
     -37.82941011
    ]
   },
   "properties": {
    "name": "110 MORAY STREET SOUTH MELBOURNE 3205",
    "locID": "LOC000033478602",
    "tech": "FTTN",
    "upgrade": "NULL_NA",
    "gnaf_pid": "GAVIC412340160"
   }
  },
  {
   "type": "Feature",
   "geometry": {
    "type": "Point",
    "coordinates": [
     144.96514872,
     -37.83529393
    ]
   },
   "properties": {
    "name": "110 NAPIER STREET SOUTH MELBOURNE 3205",
    "locID": "LOC000019348179",
    "tech": "FTTC",
    "upgrade": "FTTP_SA",
    "gnaf_pid": "GAVIC421745980"
   }
  },
  {
   "type": "Feature",
   "geometry": {
    "type": "Point",
    "coordinates": [
     144.951973,
     -37.836571
    ]
   },
   "properties": {
    "name": "110 NELSON ROAD SOUTH MELBOURNE 3205",
    "locID": "LOC000063638122",
    "tech": "FTTC",
    "upgrade": "FTTP_SA",
    "gnaf_pid": "GAVIC421720806"
   }
  },
  {
   "type": "Feature",
   "geometry": {
    "type": "Point",
    "coordinates": [
     144.967526,
     -37.835831
    ]
   },
   "properties": {
    "name": "110 PALMERSTON CRESCENT SOUTH MELBOURNE 3205",
    "locID": "LOC000092118271",
    "tech": "FTTC",
    "upgrade": "FTTP_SA",
    "gnaf_pid": "GAVIC419595531"
   }
  },
  {
   "type": "Feature",
   "geometry": {
    "type": "Point",
    "coordinates": [
     144.947808,
     -37.838823
    ]
   },
   "properties": {
    "name": "110 PICKLES STREET SOUTH MELBOURNE 3205",
    "locID": "LOC000061791365",
    "tech": "FTTN",
    "upgrade": "FTTP_SA",
    "gnaf_pid": "GAVIC420813134"
   }
  },
  {
   "type": "Feature",
   "geometry": {
    "type": "Point",
    "coordinates": [
     144.96436,
     -37.833614
    ]
   },
   "properties": {
    "name": "110 TOPE STREET SOUTH MELBOURNE 3205",
    "locID": "LOC000007095111",
    "tech": "FTTC",
    "upgrade": "FTTP_SA",
    "gnaf_pid": "GAVIC419604374"
   }
  },
  {
   "type": "Feature",
   "geometry": {
    "type": "Point",
    "coordinates": [
     144.964985,
     -37.833201
    ]
   },
   "properties": {
    "name": "111 BANK STREET SOUTH MELBOURNE 3205",
    "locID": "LOC000059969708",
    "tech": "FTTC",
    "upgrade": "FTTP_SA",
    "gnaf_pid": "GAVIC420806568"
   }
  },
  {
   "type": "Feature",
   "geometry": {
    "type": "Point",
    "coordinates": [
     144.95706614,
     -37.83086747
    ]
   },
   "properties": {
    "name": "111 CECIL STREET SOUTH MELBOURNE 3205",
    "locID": "LOC000124365017",
    "tech": "FTTN",
    "upgrade": "NULL_NA",
    "gnaf_pid": "GAVIC424744779"
   }
  },
  {
   "type": "Feature",
   "geometry": {
    "type": "Point",
    "coordinates": [
     144.964354,
     -37.83645
    ]
   },
   "properties": {
    "name": "111 COBDEN STREET SOUTH MELBOURNE 3205",
    "locID": "LOC000024247155",
    "tech": "FTTP",
    "upgrade": "UNKNOWN",
    "gnaf_pid": "GAVIC419600775"
   }
  },
  {
   "type": "Feature",
   "geometry": {
    "type": "Point",
    "coordinates": [
     144.96644921,
     -37.83480018
    ]
   },
   "properties": {
    "name": "111 EASTERN ROAD SOUTH MELBOURNE 3205",
    "locID": "LOC000025216224",
    "tech": "FTTC",
    "upgrade": "NULL_NA",
    "gnaf_pid": "GAVIC419686833"
   }
  },
  {
   "type": "Feature",
   "geometry": {
    "type": "Point",
    "coordinates": [
     144.95677567,
     -37.830546
    ]
   },
   "properties": {
    "name": "111 MARKET STREET SOUTH MELBOURNE 3205",
    "locID": "LOC000174018516",
    "tech": "FTTP",
    "upgrade": "NULL_NA",
    "gnaf_pid": "GAVIC414030937"
   }
  },
  {
   "type": "Feature",
   "geometry": {
    "type": "Point",
    "coordinates": [
     144.9642065,
     -37.83591839
    ]
   },
   "properties": {
    "name": "111 NAPIER STREET SOUTH MELBOURNE 3205",
    "locID": "LOC000062528921",
    "tech": "FTTN",
    "upgrade": "FTTP_SA",
    "gnaf_pid": "GAVIC420191957"
   }
  },
  {
   "type": "Feature",
   "geometry": {
    "type": "Point",
    "coordinates": [
     144.952274,
     -37.837122
    ]
   },
   "properties": {
    "name": "111 NELSON ROAD SOUTH MELBOURNE 3205",
    "locID": "LOC000106539679",
    "tech": "FTTP",
    "upgrade": "UNKNOWN",
    "gnaf_pid": "GAVIC412320350"
   }
  },
  {
   "type": "Feature",
   "geometry": {
    "type": "Point",
    "coordinates": [
     144.96654583,
     -37.83401368
    ]
   },
   "properties": {
    "name": "111 PARK STREET SOUTH MELBOURNE 3205",
    "locID": "LOC000089915575",
    "tech": "FTTC",
    "upgrade": "NULL_NA",
    "gnaf_pid": "GAVIC421489231"
   }
  },
  {
   "type": "Feature",
   "geometry": {
    "type": "Point",
    "coordinates": [
     144.961326,
     -37.837968
    ]
   },
   "properties": {
    "name": "111 RAGLAN STREET SOUTH MELBOURNE 3205",
    "locID": "LOC000048447930",
    "tech": "FTTN",
    "upgrade": "FTTP_SA",
    "gnaf_pid": "GAVIC419767682"
   }
  },
  {
   "type": "Feature",
   "geometry": {
    "type": "Point",
    "coordinates": [
     144.950094,
     -37.832674
    ]
   },
   "properties": {
    "name": "111 THISTLETHWAITE STREET SOUTH MELBOURNE 3205",
    "locID": "LOC000096808910",
    "tech": "FTTC",
    "upgrade": "NULL_NA",
    "gnaf_pid": "GAVIC421879419"
   }
  },
  {
   "type": "Feature",
   "geometry": {
    "type": "Point",
    "coordinates": [
     144.95865918,
     -37.83126234
    ]
   },
   "properties": {
    "name": "111 YORK STREET SOUTH MELBOURNE 3205",
    "locID": "LOC000164959215",
    "tech": "FTTP",
    "upgrade": "NULL_NA",
    "gnaf_pid": "GAVIC719326376"
   }
  },
  {
   "type": "Feature",
   "geometry": {
    "type": "Point",
    "coordinates": [
     144.964999,
     -37.832759
    ]
   },
   "properties": {
    "name": "112 BANK STREET SOUTH MELBOURNE 3205",
    "locID": "LOC000063037093",
    "tech": "FTTN",
    "upgrade": "NULL_NA",
    "gnaf_pid": "GAVIC421121385"
   }
  },
  {
   "type": "Feature",
   "geometry": {
    "type": "Point",
    "coordinates": [
     144.96405783,
     -37.83626035
    ]
   },
   "properties": {
    "name": "112 COBDEN STREET SOUTH MELBOURNE 3205",
    "locID": "LOC000091706153",
    "tech": "FTTN",
    "upgrade": "FTTP_SA",
    "gnaf_pid": "GAVIC419907213"
   }
  },
  {
   "type": "Feature",
   "geometry": {
    "type": "Point",
    "coordinates": [
     144.96147285,
     -37.82945544
    ]
   },
   "properties": {
    "name": "112 MORAY STREET SOUTH MELBOURNE 3205",
    "locID": "LOC000084509029",
    "tech": "FTTN",
    "upgrade": "NULL_NA",
    "gnaf_pid": "GAVIC412340351"
   }
  },
  {
   "type": "Feature",
   "geometry": {
    "type": "Point",
    "coordinates": [
     144.94502675,
     -37.82975449
    ]
   },
   "properties": {
    "name": "112 MUNRO STREET SOUTH MELBOURNE 3205",
    "locID": "LOC000080344291",
    "tech": "FTTN",
    "upgrade": "NULL_NA",
    "gnaf_pid": "GAVIC414018360"
   }
  },
  {
   "type": "Feature",
   "geometry": {
    "type": "Point",
    "coordinates": [
     144.96510854,
     -37.83530568
    ]
   },
   "properties": {
    "name": "112 NAPIER STREET SOUTH MELBOURNE 3205",
    "locID": "LOC000021974007",
    "tech": "FTTC",
    "upgrade": "FTTP_SA",
    "gnaf_pid": "GAVIC421745981"
   }
  },
  {
   "type": "Feature",
   "geometry": {
    "type": "Point",
    "coordinates": [
     144.951793,
     -37.836901
    ]
   },
   "properties": {
    "name": "112 NELSON ROAD SOUTH MELBOURNE 3205",
    "locID": "LOC000094974190",
    "tech": "FTTP",
    "upgrade": "UNKNOWN",
    "gnaf_pid": "GAVIC420812978"
   }
  },
  {
   "type": "Feature",
   "geometry": {
    "type": "Point",
    "coordinates": [
     144.96748,
     -37.835848
    ]
   },
   "properties": {
    "name": "112 PALMERSTON CRESCENT SOUTH MELBOURNE 3205",
    "locID": "LOC000102235600",
    "tech": "FTTC",
    "upgrade": "FTTP_SA",
    "gnaf_pid": "GAVIC419901087"
   }
  },
  {
   "type": "Feature",
   "geometry": {
    "type": "Point",
    "coordinates": [
     144.967036,
     -37.833426
    ]
   },
   "properties": {
    "name": "112 PARK STREET SOUTH MELBOURNE 3205",
    "locID": "LOC000005643368",
    "tech": "FTTC",
    "upgrade": "FTTP_SA",
    "gnaf_pid": "GAVIC421760792"
   }
  },
  {
   "type": "Feature",
   "geometry": {
    "type": "Point",
    "coordinates": [
     144.947833,
     -37.83877
    ]
   },
   "properties": {
    "name": "112 PICKLES STREET SOUTH MELBOURNE 3205",
    "locID": "LOC000088985105",
    "tech": "FTTN",
    "upgrade": "FTTP_SA",
    "gnaf_pid": "GAVIC420511581"
   }
  },
  {
   "type": "Feature",
   "geometry": {
    "type": "Point",
    "coordinates": [
     144.964382,
     -37.833659
    ]
   },
   "properties": {
    "name": "112 TOPE STREET SOUTH MELBOURNE 3205",
    "locID": "LOC000080932663",
    "tech": "FTTC",
    "upgrade": "FTTP_SA",
    "gnaf_pid": "GAVIC419898531"
   }
  },
  {
   "type": "Feature",
   "geometry": {
    "type": "Point",
    "coordinates": [
     144.95811567,
     -37.83101086
    ]
   },
   "properties": {
    "name": "112 YORK STREET SOUTH MELBOURNE 3205",
    "locID": "LOC000174020663",
    "tech": "FTTP",
    "upgrade": "NULL_NA",
    "gnaf_pid": "GAVIC719512158"
   }
  },
  {
   "type": "Feature",
   "geometry": {
    "type": "Point",
    "coordinates": [
     144.94962349,
     -37.83115935
    ]
   },
   "properties": {
    "name": "112-132 BUCKHURST STREET SOUTH MELBOURNE 3205",
    "locID": "ChIJ7StJUvdn1moRB9czJEsHsSQ",
    "tech": "FTTC",
    "upgrade": "UNKNOWN",
    "gnaf_pid": "GAVIC423061457"
   }
  },
  {
   "type": "Feature",
   "geometry": {
    "type": "Point",
    "coordinates": [
     144.964928,
     -37.833218
    ]
   },
   "properties": {
    "name": "113 BANK STREET SOUTH MELBOURNE 3205",
    "locID": "LOC000009327597",
    "tech": "FTTC",
    "upgrade": "FTTP_SA",
    "gnaf_pid": "GAVIC419580702"
   }
  },
  {
   "type": "Feature",
   "geometry": {
    "type": "Point",
    "coordinates": [
     144.95706614,
     -37.83086747
    ]
   },
   "properties": {
    "name": "113 CECIL STREET SOUTH MELBOURNE 3205",
    "locID": "LOC000114189128",
    "tech": "FTTN",
    "upgrade": "NULL_NA",
    "gnaf_pid": "GAVIC424770182"
   }
  },
  {
   "type": "Feature",
   "geometry": {
    "type": "Point",
    "coordinates": [
     144.96669425,
     -37.83532288
    ]
   },
   "properties": {
    "name": "113 EASTERN ROAD SOUTH MELBOURNE 3205",
    "locID": "LOC000124402444",
    "tech": "FTTC",
    "upgrade": "FTTP_SA",
    "gnaf_pid": "GAVIC419606230"
   }
  },
  {
   "type": "Feature",
   "geometry": {
    "type": "Point",
    "coordinates": [
     144.96413786,
     -37.83593523
    ]
   },
   "properties": {
    "name": "113 NAPIER STREET SOUTH MELBOURNE 3205",
    "locID": "LOC000047572879",
    "tech": "FTTP",
    "upgrade": "UNKNOWN",
    "gnaf_pid": "GAVIC412329581"
   }
  },
  {
   "type": "Feature",
   "geometry": {
    "type": "Point",
    "coordinates": [
     144.952239,
     -37.837224
    ]
   },
   "properties": {
    "name": "113 NELSON ROAD SOUTH MELBOURNE 3205",
    "locID": "LOC000103106407",
    "tech": "FTTC",
    "upgrade": "FTTP_SA",
    "gnaf_pid": "GAVIC421720807"
   }
  },
  {
   "type": "Feature",
   "geometry": {
    "type": "Point",
    "coordinates": [
     144.96654583,
     -37.83401368
    ]
   },
   "properties": {
    "name": "113 PARK STREET SOUTH MELBOURNE 3205",
    "locID": "LOC000008526633",
    "tech": "FTTC",
    "upgrade": "NULL_NA",
    "gnaf_pid": "GAVIC420895347"
   }
  },
  {
   "type": "Feature",
   "geometry": {
    "type": "Point",
    "coordinates": [
     144.96126519,
     -37.83797994
    ]
   },
   "properties": {
    "name": "113 RAGLAN STREET SOUTH MELBOURNE 3205",
    "locID": "LOC000034796439",
    "tech": "FTTN",
    "upgrade": "FTTP_SA",
    "gnaf_pid": "GAVIC419604275"
   }
  },
  {
   "type": "Feature",
   "geometry": {
    "type": "Point",
    "coordinates": [
     144.96424666,
     -37.83646944
    ]
   },
   "properties": {
    "name": "113-115 COBDEN STREET SOUTH MELBOURNE 3205",
    "locID": "ChIJCa1j1AZo1moR3g_72qZHPp4",
    "tech": "FTTN",
    "upgrade": "UNKNOWN",
    "gnaf_pid": "GAVIC423065114"
   }
  },
  {
   "type": "Feature",
   "geometry": {
    "type": "Point",
    "coordinates": [
     144.96216053,
     -37.82973801
    ]
   },
   "properties": {
    "name": "113-115 MORAY STREET SOUTH MELBOURNE 3205",
    "locID": "LOC000124402459",
    "tech": "FTTC",
    "upgrade": "FTTP_SA",
    "gnaf_pid": "GAVIC423082867"
   }
  },
  {
   "type": "Feature",
   "geometry": {
    "type": "Point",
    "coordinates": [
     144.95833897,
     -37.83135475
    ]
   },
   "properties": {
    "name": "113-127 YORK STREET SOUTH MELBOURNE 3205",
    "locID": "ChIJScNkCP9n1moR5lMJbjaBGjI",
    "tech": "FTTN",
    "upgrade": "UNKNOWN",
    "gnaf_pid": "GAVIC423162255"
   }
  },
  {
   "type": "Feature",
   "geometry": {
    "type": "Point",
    "coordinates": [
     144.96494964,
     -37.83277085
    ]
   },
   "properties": {
    "name": "114 BANK STREET SOUTH MELBOURNE 3205",
    "locID": "LOC000092580518",
    "tech": "FTTN",
    "upgrade": "NULL_NA",
    "gnaf_pid": "GAVIC412327007"
   }
  },
  {
   "type": "Feature",
   "geometry": {
    "type": "Point",
    "coordinates": [
     144.96400148,
     -37.83627547
    ]
   },
   "properties": {
    "name": "114 COBDEN STREET SOUTH MELBOURNE 3205",
    "locID": "LOC000065623066",
    "tech": "FTTP",
    "upgrade": "UNKNOWN",
    "gnaf_pid": "GAVIC421738346"
   }
  },
  {
   "type": "Feature",
   "geometry": {
    "type": "Point",
    "coordinates": [
     144.96149343,
     -37.8295
    ]
   },
   "properties": {
    "name": "114 MORAY STREET SOUTH MELBOURNE 3205",
    "locID": "LOC000036667565",
    "tech": "FTTN",
    "upgrade": "NULL_NA",
    "gnaf_pid": "GAVIC412313984"
   }
  },
  {
   "type": "Feature",
   "geometry": {
    "type": "Point",
    "coordinates": [
     144.965029,
     -37.835328
    ]
   },
   "properties": {
    "name": "114 NAPIER STREET SOUTH MELBOURNE 3205",
    "locID": "LOC000086107957",
    "tech": "FTTC",
    "upgrade": "FTTP_SA",
    "gnaf_pid": "GAVIC420803183"
   }
  },
  {
   "type": "Feature",
   "geometry": {
    "type": "Point",
    "coordinates": [
     144.951757,
     -37.836973
    ]
   },
   "properties": {
    "name": "114 NELSON ROAD SOUTH MELBOURNE 3205",
    "locID": "LOC000072622014",
    "tech": "FTTN",
    "upgrade": "FTTP_SA",
    "gnaf_pid": "GAVIC420492492"
   }
  },
  {
   "type": "Feature",
   "geometry": {
    "type": "Point",
    "coordinates": [
     144.967423,
     -37.835865
    ]
   },
   "properties": {
    "name": "114 PALMERSTON CRESCENT SOUTH MELBOURNE 3205",
    "locID": "LOC000036936622",
    "tech": "FTTC",
    "upgrade": "FTTP_SA",
    "gnaf_pid": "GAVIC420199315"
   }
  },
  {
   "type": "Feature",
   "geometry": {
    "type": "Point",
    "coordinates": [
     144.966979,
     -37.833434
    ]
   },
   "properties": {
    "name": "114 PARK STREET SOUTH MELBOURNE 3205",
    "locID": "LOC000066046224",
    "tech": "FTTC",
    "upgrade": "FTTP_SA",
    "gnaf_pid": "GAVIC420184759"
   }
  },
  {
   "type": "Feature",
   "geometry": {
    "type": "Point",
    "coordinates": [
     144.947845,
     -37.838725
    ]
   },
   "properties": {
    "name": "114 PICKLES STREET SOUTH MELBOURNE 3205",
    "locID": "LOC000067070647",
    "tech": "FTTN",
    "upgrade": "FTTP_SA",
    "gnaf_pid": "GAVIC419896565"
   }
  },
  {
   "type": "Feature",
   "geometry": {
    "type": "Point",
    "coordinates": [
     144.96199,
     -37.837349
    ]
   },
   "properties": {
    "name": "114 RAGLAN STREET SOUTH MELBOURNE 3205",
    "locID": "LOC000089725412",
    "tech": "FTTN",
    "upgrade": "FTTP_SA",
    "gnaf_pid": "GAVIC420817960"
   }
  },
  {
   "type": "Feature",
   "geometry": {
    "type": "Point",
    "coordinates": [
     144.95014219,
     -37.83223765
    ]
   },
   "properties": {
    "name": "114 THISTLETHWAITE STREET SOUTH MELBOURNE 3205",
    "locID": "LOC000013701708",
    "tech": "FTTC",
    "upgrade": "FTTP_SA",
    "gnaf_pid": "GAVIC421131248"
   }
  },
  {
   "type": "Feature",
   "geometry": {
    "type": "Point",
    "coordinates": [
     144.964403,
     -37.833713
    ]
   },
   "properties": {
    "name": "114 TOPE STREET SOUTH MELBOURNE 3205",
    "locID": "LOC000025091016",
    "tech": "FTTC",
    "upgrade": "FTTP_SA",
    "gnaf_pid": "GAVIC420483465"
   }
  },
  {
   "type": "Feature",
   "geometry": {
    "type": "Point",
    "coordinates": [
     144.96991498,
     -37.8358009
    ]
   },
   "properties": {
    "name": "114-124 ALBERT ROAD SOUTH MELBOURNE 3205",
    "locID": "ChIJ4U_y_AJo1moRgXAFxlctoSg",
    "tech": "FTTP",
    "upgrade": "UNKNOWN",
    "gnaf_pid": "GAVIC423962712"
   }
  },
  {
   "type": "Feature",
   "geometry": {
    "type": "Point",
    "coordinates": [
     144.96991498,
     -37.8358009
    ]
   },
   "properties": {
    "name": "114-130 ALBERT ROAD SOUTH MELBOURNE 3205",
    "locID": "LOC000168774919",
    "tech": "FTTN",
    "upgrade": "NULL_NA",
    "gnaf_pid": "GAVIC720518189"
   }
  },