{"type": "FeatureCollection", "features": [{"type": "Feature", "geometry": {"type": "Point", "coordinates": [146.5201421, -38.20484687]}, "properties": {"name": "1 ACACIA STREET TRARALGON 3844", "locID": "LOC000080843841", "tech": "FTTN", "upgrade": "NULL_NA"}}, {"type": "Feature", "geometry": {"type": "Point", "coordinates": [146.5249822, -38.1897656]}, "properties": {"name": "1 ALAMEIN COURT TRARALGON 3844", "locID": "LOC000019603299", "tech": "FTTN", "upgrade": "FTTP_NA"}}, {"type": "Feature", "geometry": {"type": "Point", "coordinates": [146.5312921, -38.19897129]}, "properties": {"name": "1 ALBERT STREET TRARALGON 3844", "locID": "LOC000102259828", "tech": "FTTN", "upgrade": "NULL_NA"}}, {"type": "Feature", "geometry": {"type": "Point", "coordinates": [146.52973315, -38.18526668]}, "properties": {"name": "1 ALEXANDRA AVENUE TRARALGON 3844", "locID": "LOC000060314439", "tech": "FTTN", "upgrade": "FTTP_NA"}}, {"type": "Feature", "geometry": {"type": "Point", "coordinates": [146.544764, -38.18749139]}, "properties": {"name": "1 ALFRED CLOSE TRARALGON 3844", "locID": "LOC000016867880", "tech": "FTTN", "upgrade": "FTTP_SA"}}, {"type": "Feature", "geometry": {"type": "Point", "coordinates": [146.53435406, -38.20226985]}, "properties": {"name": "1 ALLARD STREET TRARALGON 3844", "locID": "LOC000068498672", "tech": "FTTN", "upgrade": "NULL_NA"}}, {"type": "Feature", "geometry": {"type": "Point", "coordinates": [146.55527944, -38.20097184]}, "properties": {"name": "1 ALLEN CRESCENT TRARALGON 3844", "locID": "LOC000039953832", "tech": "FTTN", "upgrade": "NULL_NA"}}, {"type": "Feature", "geometry": {"type": "Point", "coordinates": [146.513029, -38.1890917]}, "properties": {"name": "1 ALPINE CLOSE TRARALGON 3844", "locID": "LOC000030125957", "tech": "FTTN", "upgrade": "FTTP_NA"}}, {"type": "Feature", "geometry": {"type": "Point", "coordinates": [146.5457809, -38.18691573]}, "properties": {"name": "1 AMBLER PLACE TRARALGON 3844", "locID": "LOC000036090128", "tech": "FTTN", "upgrade": "FTTP_SA"}}, {"type": "Feature", "geometry": {"type": "Point", "coordinates": [146.52329916, -38.20092513]}, "properties": {"name": "1 AMBROSE AVENUE TRARALGON 3844", "locID": "LOC000052039084", "tech": "FTTN", "upgrade": "NULL_NA"}}, {"type": "Feature", "geometry": {"type": "Point", "coordinates": [146.53899183, -38.20240928]}, "properties": {"name": "1 AMY STREET TRARALGON 3844", "locID": "LOC000083546650", "tech": "FTTN", "upgrade": "NULL_NA"}}, {"type": "Feature", "geometry": {"type": "Point", "coordinates": [146.50492748, -38.1802974]}, "properties": {"name": "1 ANGUS ROAD TRARALGON 3844", "locID": "LOC000139966221", "tech": "FTTP", "upgrade": "NULL_NA"}}, {"type": "Feature", "geometry": {"type": "Point", "coordinates": [146.55922728, -38.19516338]}, "properties": {"name": "1 ARCHER COURT TRARALGON 3844", "locID": "LOC000011797444", "tech": "FTTN", "upgrade": "FTTP_SA"}}, {"type": "Feature", "geometry": {"type": "Point", "coordinates": [146.5564069, -38.19827449]}, "properties": {"name": "1 ARWON CLOSE TRARALGON 3844", "locID": "LOC000096058787", "tech": "FTTN", "upgrade": "NULL_NA"}}, {"type": "Feature", "geometry": {"type": "Point", "coordinates": [146.51812631, -38.20838029]}, "properties": {"name": "1 ASH COURT TRARALGON 3844", "locID": "LOC000007928489", "tech": "FTTN", "upgrade": "NULL_NA"}}, {"type": "Feature", "geometry": {"type": "Point", "coordinates": [146.51307438, -38.1815645]}, "properties": {"name": "1 AVON CLOSE TRARALGON 3844", "locID": "LOC000040241085", "tech": "FTTN", "upgrade": "FTTP_NA"}}, {"type": "Feature", "geometry": {"type": "Point", "coordinates": [146.56337645, -38.17515888]}, "properties": {"name": "1 BALDWIN ROAD TRARALGON 3844", "locID": "LOC000185719746", "tech": "FTTP", "upgrade": "NULL_NA"}}, {"type": "Feature", "geometry": {"type": "Point", "coordinates": [146.53231779, -38.20075626]}, "properties": {"name": "1 BANK STREET TRARALGON 3844", "locID": "LOC000047041108", "tech": "FTTN", "upgrade": "NULL_NA"}}, {"type": "Feature", "geometry": {"type": "Point", "coordinates": [146.54634241, -38.21124171]}, "properties": {"name": "1 BARBOR COURT TRARALGON 3844", "locID": "LOC000002841715", "tech": "FTTN", "upgrade": "NULL_NA"}}, {"type": "Feature", "geometry": {"type": "Point", "coordinates": [146.52887064, -38.18997305]}, "properties": {"name": "1 BARKER CRESCENT TRARALGON 3844", "locID": "LOC000086625920", "tech": "FTTN", "upgrade": "FTTP_NA"}}, {"type": "Feature", "geometry": {"type": "Point", "coordinates": [146.4998058, -38.17676451]}, "properties": {"name": "1 BARTHOLOMEW CIRCUIT TRARALGON 3844", "locID": "LOC000190894429", "tech": "FTTP", "upgrade": "NULL_NA"}}, {"type": "Feature", "geometry": {"type": "Point", "coordinates": [146.54824105, -38.18511715]}, "properties": {"name": "1 BARTON PLACE TRARALGON 3844", "locID": "LOC000008013443", "tech": "FTTN", "upgrade": "FTTP_SA"}}, {"type": "Feature", "geometry": {"type": "Point", "coordinates": [146.5500224, -38.18514294]}, "properties": {"name": "1 BASS COURT TRARALGON 3844", "locID": "LOC000014465693", "tech": "FTTN", "upgrade": "FTTP_SA"}}, {"type": "Feature", "geometry": {"type": "Point", "coordinates": [146.54802704, -38.21145944]}, "properties": {"name": "1 BAYLEY DRIVE TRARALGON 3844", "locID": "LOC000030964633", "tech": "FTTN", "upgrade": "NULL_NA"}}, {"type": "Feature", "geometry": {"type": "Point", "coordinates": [146.55964206, -38.1949312]}, "properties": {"name": "1 BAYSTONE COURT TRARALGON 3844", "locID": "LOC000107101458", "tech": "FTTN", "upgrade": "FTTP_SA"}}, {"type": "Feature", "geometry": {"type": "Point", "coordinates": [146.50805175, -38.19429516]}, "properties": {"name": "1 BELLBIRD WAY TRARALGON 3844", "locID": "LOC000071275602", "tech": "FTTN", "upgrade": "NULL_NA"}}, {"type": "Feature", "geometry": {"type": "Point", "coordinates": [146.51206449, -38.1899852]}, "properties": {"name": "1 BENDOCK COURT TRARALGON 3844", "locID": "LOC000059221904", "tech": "FTTN", "upgrade": "FTTP_NA"}}, {"type": "Feature", "geometry": {"type": "Point", "coordinates": [146.5479947, -38.18730918]}, "properties": {"name": "1 BENJAMIN COURT TRARALGON 3844", "locID": "LOC000057707366", "tech": "FTTN", "upgrade": "FTTP_SA"}}, {"type": "Feature", "geometry": {"type": "Point", "coordinates": [146.53085307, -38.20455782]}, "properties": {"name": "1 BENNETT COURT TRARALGON 3844", "locID": "LOC000040575636", "tech": "FTTN", "upgrade": "NULL_NA"}}, {"type": "Feature", "geometry": {"type": "Point", "coordinates": [146.5201323, -38.18427753]}, "properties": {"name": "1 BERNADETTE COURT TRARALGON 3844", "locID": "LOC000063347409", "tech": "FTTN", "upgrade": "FTTP_NA"}}, {"type": "Feature", "geometry": {"type": "Point", "coordinates": [146.52084078, -38.20089693]}, "properties": {"name": "1 BERNARD AVENUE TRARALGON 3844", "locID": "LOC000066870617", "tech": "FTTN", "upgrade": "NULL_NA"}}, {"type": "Feature", "geometry": {"type": "Point", "coordinates": [146.54231703, -38.19231116]}, "properties": {"name": "1 BERRY STREET TRARALGON 3844", "locID": "LOC000067325047", "tech": "FTTN", "upgrade": "FTTP_SA"}}, {"type": "Feature", "geometry": {"type": "Point", "coordinates": [146.52766578, -38.18727446]}, "properties": {"name": "1 BERWICK STREET TRARALGON 3844", "locID": "LOC000073936447", "tech": "FTTN", "upgrade": "FTTP_NA"}}, {"type": "Feature", "geometry": {"type": "Point", "coordinates": [146.51258158, -38.1882836]}, "properties": {"name": "1 BINDI CLOSE TRARALGON 3844", "locID": "LOC000102202243", "tech": "FTTN", "upgrade": "FTTP_NA"}}, {"type": "Feature", "geometry": {"type": "Point", "coordinates": [146.50900875, -38.18895045]}, "properties": {"name": "1 BIRREGUN COURT TRARALGON 3844", "locID": "LOC000016036538", "tech": "FTTN", "upgrade": "FTTP_NA"}}, {"type": "Feature", "geometry": {"type": "Point", "coordinates": [146.5443232, -38.179755]}, "properties": {"name": "1 BLACKWOOD CLOSE TRARALGON 3844", "locID": "LOC000014705980", "tech": "FTTN", "upgrade": "FTTP_SA"}}, {"type": "Feature", "geometry": {"type": "Point", "coordinates": [146.55026055, -38.18923455]}, "properties": {"name": "1 BLAIR ATHOL DRIVE TRARALGON 3844", "locID": "LOC000044534000", "tech": "FTTN", "upgrade": "FTTP_SA"}}, {"type": "Feature", "geometry": {"type": "Point", "coordinates": [146.54880902, -38.2117016]}, "properties": {"name": "1 BLAKE COURT TRARALGON 3844", "locID": "LOC000084670652", "tech": "FTTN", "upgrade": "NULL_NA"}}, {"type": "Feature", "geometry": {"type": "Point", "coordinates": [146.56286753, -38.17780758]}, "properties": {"name": "1 BLANCK GROVE TRARALGON 3844", "locID": "LOC000144426168", "tech": "FTTP", "upgrade": "NULL_NA"}}, {"type": "Feature", "geometry": {"type": "Point", "coordinates": [146.54714389, -38.1850968]}, "properties": {"name": "1 BLAXLAND COURT TRARALGON 3844", "locID": "LOC000006149238", "tech": "FTTN", "upgrade": "FTTP_SA"}}, {"type": "Feature", "geometry": {"type": "Point", "coordinates": [146.52318278, -38.19373994]}, "properties": {"name": "1 BLUNDELL COURT TRARALGON 3844", "locID": "LOC000075678851", "tech": "FTTN", "upgrade": "NULL_NA"}}, {"type": "Feature", "geometry": {"type": "Point", "coordinates": [146.54787535, -38.20537234]}, "properties": {"name": "1 BONIGHTON COURT TRARALGON 3844", "locID": "LOC000060726817", "tech": "FTTN", "upgrade": "NULL_NA"}}, {"type": "Feature", "geometry": {"type": "Point", "coordinates": [146.51430168, -38.19051425]}, "properties": {"name": "1 BOOLA COURT TRARALGON 3844", "locID": "LOC000001892910", "tech": "FTTN", "upgrade": "FTTP_NA"}}, {"type": "Feature", "geometry": {"type": "Point", "coordinates": [146.54263216, -38.19903306]}, "properties": {"name": "1 BOOTH COURT TRARALGON 3844", "locID": "LOC000033438550", "tech": "FTTN", "upgrade": "FTTP_SA"}}, {"type": "Feature", "geometry": {"type": "Point", "coordinates": [146.5176481, -38.20594888]}, "properties": {"name": "1 BORONIA CRESCENT TRARALGON 3844", "locID": "LOC000051898437", "tech": "FTTN", "upgrade": "NULL_NA"}}, {"type": "Feature", "geometry": {"type": "Point", "coordinates": [146.54611774, -38.1785683]}, "properties": {"name": "1 BOSTON BOULEVARD TRARALGON 3844", "locID": "LOC000186594619", "tech": "FTTP", "upgrade": "NULL_NA"}}, {"type": "Feature", "geometry": {"type": "Point", "coordinates": [146.55067725, -38.17678184]}, "properties": {"name": "1 BOURBON STREET TRARALGON 3844", "locID": "LOC000191252615", "tech": "FTTP", "upgrade": "NULL_NA"}}, {"type": "Feature", "geometry": {"type": "Point", "coordinates": [146.5589226, -38.20821371]}, "properties": {"name": "1 BOWDEN COURT TRARALGON 3844", "locID": "LOC000006092314", "tech": "FTTN", "upgrade": "NULL_NA"}}, {"type": "Feature", "geometry": {"type": "Point", "coordinates": [146.53064868, -38.18284911]}, "properties": {"name": "1 BOWRAL WAY TRARALGON 3844", "locID": "LOC000152096969", "tech": "FTTN", "upgrade": "FTTP_NA"}}, {"type": "Feature", "geometry": {"type": "Point", "coordinates": [146.5324963, -38.1995754]}, "properties": {"name": "1 BREED STREET TRARALGON 3844", "locID": "LOC000041181651", "tech": "FTTN", "upgrade": "NULL_NA"}}, {"type": "Feature", "geometry": {"type": "Point", "coordinates": [146.54954652, -38.19683459]}, "properties": {"name": "1 BREEDON STREET TRARALGON 3844", "locID": "LOC000031030350", "tech": "FTTN", "upgrade": "NULL_NA"}}, {"type": "Feature", "geometry": {"type": "Point", "coordinates": [146.5236213, -38.19840084]}, "properties": {"name": "1 BREEN COURT TRARALGON 3844", "locID": "LOC000054556132", "tech": "FTTN", "upgrade": "NULL_NA"}}, {"type": "Feature", "geometry": {"type": "Point", "coordinates": [146.55039589, -38.1989334]}, "properties": {"name": "1 BREN COURT TRARALGON 3844", "locID": "LOC000032130384", "tech": "FTTN", "upgrade": "NULL_NA"}}, {"type": "Feature", "geometry": {"type": "Point", "coordinates": [146.55959266, -38.20141945]}, "properties": {"name": "1 BRERETON STREET TRARALGON 3844", "locID": "LOC000091015986", "tech": "FTTN", "upgrade": "NULL_NA"}}, {"type": "Feature", "geometry": {"type": "Point", "coordinates": [146.53220161, -38.19940938]}, "properties": {"name": "1 BRIDGES AVENUE TRARALGON 3844", "locID": "LOC000064695732", "tech": "FTTN", "upgrade": "NULL_NA"}}, {"type": "Feature", "geometry": {"type": "Point", "coordinates": [146.52308108, -38.19509054]}, "properties": {"name": "1 BROADFORD COURT TRARALGON 3844", "locID": "LOC000080644379", "tech": "FTTN", "upgrade": "NULL_NA"}}, {"type": "Feature", "geometry": {"type": "Point", "coordinates": [146.55038912, -38.17832767]}, "properties": {"name": "1 BROADWAY BOULEVARD TRARALGON 3844", "locID": "LOC000191252662", "tech": "FTTP", "upgrade": "NULL_NA"}}, {"type": "Feature", "geometry": {"type": "Point", "coordinates": [146.512803, -38.19353496]}, "properties": {"name": "1 BROLGA BOULEVARD TRARALGON 3844", "locID": "LOC000094780129", "tech": "FTTN", "upgrade": "NULL_NA"}}, {"type": "Feature", "geometry": {"type": "Point", "coordinates": [146.52441177, -38.195498]}, "properties": {"name": "1 BROOKES STREET TRARALGON 3844", "locID": "LOC000056731443", "tech": "FTTN", "upgrade": "NULL_NA"}}, {"type": "Feature", "geometry": {"type": "Point", "coordinates": [146.50521028, -38.1880487]}, "properties": {"name": "1 BROOME TERRACE TRARALGON 3844", "locID": "LOC000091276304", "tech": "FTTN", "upgrade": "FTTP_NA"}}, {"type": "Feature", "geometry": {"type": "Point", "coordinates": [146.52491276, -38.19551954]}, "properties": {"name": "1 BROWETT STREET TRARALGON 3844", "locID": "LOC000170601621", "tech": "FTTN", "upgrade": "NULL_NA"}}, {"type": "Feature", "geometry": {"type": "Point", "coordinates": [146.52579213, -38.19203155]}, "properties": {"name": "1 BROWN STREET TRARALGON 3844", "locID": "LOC000107823253", "tech": "FTTN", "upgrade": "FTTP_NA"}}, {"type": "Feature", "geometry": {"type": "Point", "coordinates": [146.51359535, -38.18834112]}, "properties": {"name": "1 BULLER COURT TRARALGON 3844", "locID": "LOC000034268985", "tech": "FTTN", "upgrade": "FTTP_NA"}}, {"type": "Feature", "geometry": {"type": "Point", "coordinates": [146.55766993, -38.18825271]}, "properties": {"name": "1 BURNET PLACE TRARALGON 3844", "locID": "LOC000061832324", "tech": "FTTN", "upgrade": "FTTP_SA"}}, {"type": "Feature", "geometry": {"type": "Point", "coordinates": [146.52871438, -38.19167476]}, "properties": {"name": "1 BURNS STREET TRARALGON 3844", "locID": "LOC000125289056", "tech": "FTTN", "upgrade": "NULL_NA"}}, {"type": "Feature", "geometry": {"type": "Point", "coordinates": [146.53126605, -38.19126021]}, "properties": {"name": "1 BYRON STREET TRARALGON 3844", "locID": "LOC000029254179", "tech": "FTTN", "upgrade": "FTTP_NA"}}, {"type": "Feature", "geometry": {"type": "Point", "coordinates": [146.50564336, -38.18427473]}, "properties": {"name": "1 CABLE CLOSE TRARALGON 3844", "locID": "LOC000045080057", "tech": "FTTN", "upgrade": "FTTP_NA"}}, {"type": "Feature", "geometry": {"type": "Point", "coordinates": [146.51589788, -38.2080084]}, "properties": {"name": "1 CAGNEY COURT TRARALGON 3844", "locID": "LOC000041039869", "tech": "FTTN", "upgrade": "NULL_NA"}}, {"type": "Feature", "geometry": {"type": "Point", "coordinates": [146.555636, -38.202987]}, "properties": {"name": "1 CAMERON STREET TRARALGON 3844", "locID": "LOC000026059552", "tech": "FTTN", "upgrade": "NULL_NA"}}, {"type": "Feature", "geometry": {"type": "Point", "coordinates": [146.52407936, -38.18448695]}, "properties": {"name": "1 CANFIELD CRESCENT TRARALGON 3844", "locID": "LOC000011064844", "tech": "FTTN", "upgrade": "FTTP_NA"}}, {"type": "Feature", "geometry": {"type": "Point", "coordinates": [146.55615514, -38.19544506]}, "properties": {"name": "1 CARBINE COURT TRARALGON 3844", "locID": "LOC000046458375", "tech": "FTTN", "upgrade": "FTTP_SA"}}, {"type": "Feature", "geometry": {"type": "Point", "coordinates": [146.5179192, -38.21055213]}, "properties": {"name": "1 CARLOW COURT TRARALGON 3844", "locID": "LOC000003719622", "tech": "FTTN", "upgrade": "NULL_NA"}}, {"type": "Feature", "geometry": {"type": "Point", "coordinates": [146.54648905, -38.20964699]}, "properties": {"name": "1 CARY PLACE TRARALGON 3844", "locID": "LOC000013040027", "tech": "FTTN", "upgrade": "NULL_NA"}}, {"type": "Feature", "geometry": {"type": "Point", "coordinates": [146.54129998, -38.18409403]}, "properties": {"name": "1 CASTLEREAGH COURT TRARALGON 3844", "locID": "LOC000008492206", "tech": "FTTN", "upgrade": "FTTP_SA"}}, {"type": "Feature", "geometry": {"type": "Point", "coordinates": [146.5199054, -38.18589765]}, "properties": {"name": "1 CATHERINE COURT TRARALGON 3844", "locID": "LOC000102007272", "tech": "FTTN", "upgrade": "FTTP_NA"}}, {"type": "Feature", "geometry": {"type": "Point", "coordinates": [146.51899873, -38.19907955]}, "properties": {"name": "1 CATTERICK CRESCENT TRARALGON 3844", "locID": "LOC000042623007", "tech": "FTTN", "upgrade": "NULL_NA"}}, {"type": "Feature", "geometry": {"type": "Point", "coordinates": [146.51784966, -38.2066398]}, "properties": {"name": "1 CEDAR STREET TRARALGON 3844", "locID": "LOC000036715174", "tech": "FTTN", "upgrade": "NULL_NA"}}, {"type": "Feature", "geometry": {"type": "Point", "coordinates": [146.52122671, -38.19653409]}, "properties": {"name": "1 CHAMBERLAIN COURT TRARALGON 3844", "locID": "LOC000066795918", "tech": "FTTN", "upgrade": "NULL_NA"}}, {"type": "Feature", "geometry": {"type": "Point", "coordinates": [146.53099158, -38.2063146]}, "properties": {"name": "1 CHARLES STREET TRARALGON 3844", "locID": "LOC000051813469", "tech": "FTTN", "upgrade": "NULL_NA"}}, {"type": "Feature", "geometry": {"type": "Point", "coordinates": [146.53100876, -38.18793165]}, "properties": {"name": "1 CHENHALL CRESCENT TRARALGON 3844", "locID": "LOC000054415578", "tech": "FTTN", "upgrade": "FTTP_NA"}}, {"type": "Feature", "geometry": {"type": "Point", "coordinates": [146.55753785, -38.19756684]}, "properties": {"name": "1 CHESTER CLOSE TRARALGON 3844", "locID": "LOC000038875567", "tech": "FTTN", "upgrade": "NULL_NA"}}, {"type": "Feature", "geometry": {"type": "Point", "coordinates": [146.54257025, -38.18469769]}, "properties": {"name": "1 CHISHOLM COURT TRARALGON 3844", "locID": "LOC000067162557", "tech": "FTTN", "upgrade": "FTTP_SA"}}, {"type": "Feature", "geometry": {"type": "Point", "coordinates": [146.52116208, -38.20581033]}, "properties": {"name": "1 CHRIS CRESCENT TRARALGON 3844", "locID": "LOC000153685999", "tech": "FTTP", "upgrade": "NULL_NA"}}, {"type": "Feature", "geometry": {"type": "Point", "coordinates": [146.54938095, -38.19064315]}, "properties": {"name": "1 CHRISTENSEN CLOSE TRARALGON 3844", "locID": "LOC000020411120", "tech": "FTTN", "upgrade": "FTTP_SA"}}, {"type": "Feature", "geometry": {"type": "Point", "coordinates": [146.55820882, -38.18037664]}, "properties": {"name": "1 CHRISTIAN RISE TRARALGON 3844", "locID": "LOC000125258685", "tech": "FTTP", "upgrade": "NULL_NA"}}, {"type": "Feature", "geometry": {"type": "Point", "coordinates": [146.51001062, -38.19139265]}, "properties": {"name": "1 CHRISTOPHER COURT TRARALGON 3844", "locID": "LOC000002046310", "tech": "FTTN", "upgrade": "NULL_NA"}}, {"type": "Feature", "geometry": {"type": "Point", "coordinates": [146.53470852, -38.19878709]}, "properties": {"name": "1 CHURCH STREET TRARALGON 3844", "locID": "LOC000178203555", "tech": "FTTN", "upgrade": "NULL_NA"}}, {"type": "Feature", "geometry": {"type": "Point", "coordinates": [146.526472, -38.19337]}, "properties": {"name": "1 CHURCHILL STREET TRARALGON 3844", "locID": "LOC000108056921", "tech": "FTTN", "upgrade": "NULL_NA"}}, {"type": "Feature", "geometry": {"type": "Point", "coordinates": [146.50881435, -38.18813461]}, "properties": {"name": "1 CLAIRE COURT TRARALGON 3844", "locID": "LOC000056321676", "tech": "FTTN", "upgrade": "FTTP_NA"}}, {"type": "Feature", "geometry": {"type": "Point", "coordinates": [146.53058088, -38.1837411]}, "properties": {"name": "1 CLAREMONT CLOSE TRARALGON 3844", "locID": "LOC000069979190", "tech": "FTTN", "upgrade": "FTTP_NA"}}, {"type": "Feature", "geometry": {"type": "Point", "coordinates": [146.53335898, -38.18877233]}, "properties": {"name": "1 CLIFT COURT TRARALGON 3844", "locID": "LOC000098339404", "tech": "FTTN", "upgrade": "FTTP_NA"}}, {"type": "Feature", "geometry": {"type": "Point", "coordinates": [146.51293796, -38.18684081]}, "properties": {"name": "1 CLOVERLEA COURT TRARALGON 3844", "locID": "LOC000061703959", "tech": "FTTN", "upgrade": "FTTP_NA"}}, {"type": "Feature", "geometry": {"type": "Point", "coordinates": [146.53888853, -38.19981158]}, "properties": {"name": "1 COATES STREET TRARALGON 3844", "locID": "LOC000103898978", "tech": "FTTN", "upgrade": "NULL_NA"}}, {"type": "Feature", "geometry": {"type": "Point", "coordinates": [146.55107341, -38.19694069]}, "properties": {"name": "1 COBBLEDICK COURT TRARALGON 3844", "locID": "LOC000026056351", "tech": "FTTN", "upgrade": "FTTP_SA"}}, {"type": "Feature", "geometry": {"type": "Point", "coordinates": [146.5165927, -38.20905553]}, "properties": {"name": "1 COFFEY COURT TRARALGON 3844", "locID": "LOC000072665289", "tech": "FTTN", "upgrade": "NULL_NA"}}, {"type": "Feature", "geometry": {"type": "Point", "coordinates": [146.54996541, -38.20362815]}, "properties": {"name": "1 COLLEGE AVENUE TRARALGON 3844", "locID": "LOC000024344763", "tech": "FTTN", "upgrade": "FTTP_SA"}}, {"type": "Feature", "geometry": {"type": "Point", "coordinates": [146.54996723, -38.20778319]}, "properties": {"name": "1 COMANS COURT TRARALGON 3844", "locID": "LOC000050125163", "tech": "FTTN", "upgrade": "FTTP_SA"}}, {"type": "Feature", "geometry": {"type": "Point", "coordinates": [146.52957355, -38.1860057]}, "properties": {"name": "1 COMO COURT TRARALGON 3844", "locID": "LOC000098292052", "tech": "FTTN", "upgrade": "FTTP_NA"}}, {"type": "Feature", "geometry": {"type": "Point", "coordinates": [146.51482671, -38.20834631]}, "properties": {"name": "1 CONNAUGHT WAY TRARALGON 3844", "locID": "LOC000004414513", "tech": "FTTN", "upgrade": "NULL_NA"}}, {"type": "Feature", "geometry": {"type": "Point", "coordinates": [146.55727061, -38.2044741]}, "properties": {"name": "1 COOPER STREET TRARALGON 3844", "locID": "LOC000027110222", "tech": "FTTN", "upgrade": "NULL_NA"}}, {"type": "Feature", "geometry": {"type": "Point", "coordinates": [146.54787524, -38.17885509]}, "properties": {"name": "1 CORNELL WAY TRARALGON 3844", "locID": "LOC000186594585", "tech": "FTTP", "upgrade": "NULL_NA"}}, {"type": "Feature", "geometry": {"type": "Point", "coordinates": [146.52206761, -38.19316176]}, "properties": {"name": "1 CORONATION COURT TRARALGON 3844", "locID": "LOC000067019685", "tech": "FTTN", "upgrade": "NULL_NA"}}, {"type": "Feature", "geometry": {"type": "Point", "coordinates": [146.54866269, -38.20129855]}, "properties": {"name": "1 COULSON COURT TRARALGON 3844", "locID": "LOC000075515733", "tech": "FTTN", "upgrade": "NULL_NA"}}, {"type": "Feature", "geometry": {"type": "Point", "coordinates": [146.55623425, -38.18262035]}, "properties": {"name": "1 COVENTRY ROAD TRARALGON 3844", "locID": "LOC000020285677", "tech": "FTTN", "upgrade": "FTTP_SA"}}, {"type": "Feature", "geometry": {"type": "Point", "coordinates": [146.55301373, -38.2091944]}, "properties": {"name": "1 COWELL COURT TRARALGON 3844", "locID": "LOC000076972893", "tech": "FTTN", "upgrade": "NULL_NA"}}, {"type": "Feature", "geometry": {"type": "Point", "coordinates": [146.55850925, -38.17531724]}, "properties": {"name": "1 CRAVEN MEWS TRARALGON 3844", "locID": "LOC000188959105", "tech": "FTTP", "upgrade": "NULL_NA"}}, {"type": "Feature", "geometry": {"type": "Point", "coordinates": [146.5243773, -38.1829035]}, "properties": {"name": "1 CRESTMONT COURT TRARALGON 3844", "locID": "LOC000075191378", "tech": "FTTN", "upgrade": "FTTP_NA"}}, {"type": "Feature", "geometry": {"type": "Point", "coordinates": [146.54327693, -38.17918186]}, "properties": {"name": "1 CROFTERS PLACE TRARALGON 3844", "locID": "LOC000054891423", "tech": "FTTN", "upgrade": "FTTP_SA"}}, {"type": "Feature", "geometry": {"type": "Point", "coordinates": [146.50468665, -38.17864136]}, "properties": {"name": "1 CROSSS ROAD TRARALGON 3844", "locID": "LOC000125293785", "tech": "FTTN", "upgrade": "NULL_NA"}}, {"type": "Feature", "geometry": {"type": "Point", "coordinates": [146.52100536, -38.19411874]}, "properties": {"name": "1 CUMBERLAND STREET TRARALGON 3844", "locID": "LOC000049981919", "tech": "FTTN", "upgrade": "NULL_NA"}}, {"type": "Feature", "geometry": {"type": "Point", "coordinates": [146.5171757, -38.1838481]}, "properties": {"name": "1 DALE CLOSE TRARALGON 3844", "locID": "LOC000053083508", "tech": "FTTN", "upgrade": "FTTP_NA"}}, {"type": "Feature", "geometry": {"type": "Point", "coordinates": [146.55903973, -38.19819106]}, "properties": {"name": "1 DALRAY COURT TRARALGON 3844", "locID": "LOC000072733627", "tech": "FTTN", "upgrade": "NULL_NA"}}, {"type": "Feature", "geometry": {"type": "Point", "coordinates": [146.50711468, -38.18662715]}, "properties": {"name": "1 DAMPIER CLOSE TRARALGON 3844", "locID": "LOC000006209960", "tech": "FTTN", "upgrade": "FTTP_NA"}}, {"type": "Feature", "geometry": {"type": "Point", "coordinates": [146.54811785, -38.20630226]}, "properties": {"name": "1 DANIEL COURT TRARALGON 3844", "locID": "LOC000102507247", "tech": "FTTN", "upgrade": "FTTP_SA"}}, {"type": "Feature", "geometry": {"type": "Point", "coordinates": [146.50890934, -38.18729245]}, "properties": {"name": "1 DAVID COURT TRARALGON 3844", "locID": "LOC000080216229", "tech": "FTTN", "upgrade": "FTTP_NA"}}, {"type": "Feature", "geometry": {"type": "Point", "coordinates": [146.53799796, -38.19017656]}, "properties": {"name": "1 DAVIDSON STREET TRARALGON 3844", "locID": "LOC000006151523", "tech": "FTTN", "upgrade": "FTTP_SA"}}, {"type": "Feature", "geometry": {"type": "Point", "coordinates": [146.51580797, -38.20261774]}, "properties": {"name": "1 DAVIS COURT TRARALGON 3844", "locID": "LOC000085128355", "tech": "FTTN", "upgrade": "NULL_NA"}}, {"type": "Feature", "geometry": {"type": "Point", "coordinates": [146.51421409, -38.19749596]}, "properties": {"name": "1 DAWN GROVE TRARALGON 3844", "locID": "LOC000067898339", "tech": "FTTN", "upgrade": "NULL_NA"}}, {"type": "Feature", "geometry": {"type": "Point", "coordinates": [146.51059179, -38.20933903]}, "properties": {"name": "1 DEANE STREET TRARALGON 3844", "locID": "LOC000153913044", "tech": "FTTP", "upgrade": "NULL_NA"}}, {"type": "Feature", "geometry": {"type": "Point", "coordinates": [146.55475455, -38.19551661]}, "properties": {"name": "1 DELTA COURT TRARALGON 3844", "locID": "LOC000034373462", "tech": "FTTN", "upgrade": "FTTP_SA"}}, {"type": "Feature", "geometry": {"type": "Point", "coordinates": [146.52455376, -38.1962676]}, "properties": {"name": "1 DENISON STREET TRARALGON 3844", "locID": "LOC000085330562", "tech": "FTTN", "upgrade": "NULL_NA"}}, {"type": "Feature", "geometry": {"type": "Point", "coordinates": [146.50977972, -38.21007537]}, "properties": {"name": "1 DERRY STREET TRARALGON 3844", "locID": "LOC000185926031", "tech": "FTTP", "upgrade": "NULL_NA"}}, {"type": "Feature", "geometry": {"type": "Point", "coordinates": [146.51813327, -38.19200665]}, "properties": {"name": "1 DOHERTY COURT TRARALGON 3844", "locID": "LOC000013518070", "tech": "FTTN", "upgrade": "NULL_NA"}}, {"type": "Feature", "geometry": {"type": "Point", "coordinates": [146.55791922, -38.20807165]}, "properties": {"name": "1 DONALD COURT TRARALGON 3844", "locID": "LOC000081552999", "tech": "FTTN", "upgrade": "NULL_NA"}}, {"type": "Feature", "geometry": {"type": "Point", "coordinates": [146.51972736, -38.21087613]}, "properties": {"name": "1 DONEGAL AVENUE TRARALGON 3844", "locID": "LOC000091048046", "tech": "FTTN", "upgrade": "NULL_NA"}}, {"type": "Feature", "geometry": {"type": "Point", "coordinates": [146.52019543, -38.18719878]}, "properties": {"name": "1 DOUGLAS PARADE TRARALGON 3844", "locID": "LOC000049174384", "tech": "FTTN", "upgrade": "FTTP_NA"}}, {"type": "Feature", "geometry": {"type": "Point", "coordinates": [146.51027243, -38.19520495]}, "properties": {"name": "1 DOVE COURT TRARALGON 3844", "locID": "LOC000066520304", "tech": "FTTN", "upgrade": "NULL_NA"}}, {"type": "Feature", "geometry": {"type": "Point", "coordinates": [146.54921565, -38.1978632]}, "properties": {"name": "1 DOWLING STREET TRARALGON 3844", "locID": "LOC000028838598", "tech": "FTTN", "upgrade": "FTTP_SA"}}, {"type": "Feature", "geometry": {"type": "Point", "coordinates": [146.54784501, -38.19785204]}, "properties": {"name": "1 DOWNIE COURT TRARALGON 3844", "locID": "LOC000073911625", "tech": "FTTN", "upgrade": "NULL_NA"}}, {"type": "Feature", "geometry": {"type": "Point", "coordinates": [146.52310865, -38.18896096]}, "properties": {"name": "1 DOYNE CRESCENT TRARALGON 3844", "locID": "LOC000066710798", "tech": "FTTN", "upgrade": "FTTP_NA"}}, {"type": "Feature", "geometry": {"type": "Point", "coordinates": [146.51410549, -38.20925506]}, "properties": {"name": "1 DUBLIN PLACE TRARALGON 3844", "locID": "LOC000070460883", "tech": "FTTN", "upgrade": "NULL_NA"}}, {"type": "Feature", "geometry": {"type": "Point", "coordinates": [146.5042456, -38.18517165]}, "properties": {"name": "1 DURACK PLACE TRARALGON 3844", "locID": "LOC000038616721", "tech": "FTTN", "upgrade": "FTTP_NA"}}, {"type": "Feature", "geometry": {"type": "Point", "coordinates": [146.52202321, -38.1827688]}, "properties": {"name": "1 DUXBURY DRIVE TRARALGON 3844", "locID": "LOC000108073536", "tech": "FTTN", "upgrade": "FTTP_NA"}}, {"type": "Feature", "geometry": {"type": "Point", "coordinates": [146.55201495, -38.20910508]}, "properties": {"name": "1 DYER COURT TRARALGON 3844", "locID": "LOC000095228231", "tech": "FTTN", "upgrade": "NULL_NA"}}, {"type": "Feature", "geometry": {"type": "Point", "coordinates": [146.55767226, -38.199322]}, "properties": {"name": "1 EAGLE COURT TRARALGON 3844", "locID": "LOC000021924079", "tech": "FTTN", "upgrade": "NULL_NA"}}, {"type": "Feature", "geometry": {"type": "Point", "coordinates": [146.52316047, -38.17956426]}, "properties": {"name": "1 EARL COURT TRARALGON 3844", "locID": "LOC000152103604", "tech": "FTTN", "upgrade": "FTTP_NA"}}, {"type": "Feature", "geometry": {"type": "Point", "coordinates": [146.51326016, -38.19552195]}, "properties": {"name": "1 ELIZABETH STREET TRARALGON 3844", "locID": "LOC000085311486", "tech": "FTTN", "upgrade": "NULL_NA"}}, {"type": "Feature", "geometry": {"type": "Point", "coordinates": [146.50491555, -38.18287931]}, "properties": {"name": "1 ELLENBRAE COURT TRARALGON 3844", "locID": "LOC000031107394", "tech": "FTTN", "upgrade": "FTTP_NA"}}, {"type": "Feature", "geometry": {"type": "Point", "coordinates": [146.51200448, -38.1890343]}, "properties": {"name": "1 ELLERY PLACE TRARALGON 3844", "locID": "LOC000032993876", "tech": "FTTN", "upgrade": "FTTP_NA"}}, {"type": "Feature", "geometry": {"type": "Point", "coordinates": [146.52671848, -38.20428365]}, "properties": {"name": "1 ELLIOTT STREET TRARALGON 3844", "locID": "LOC000090992807", "tech": "FTTN", "upgrade": "NULL_NA"}}, {"type": "Feature", "geometry": {"type": "Point", "coordinates": [146.51920105, -38.20708806]}, "properties": {"name": "1 ELM COURT TRARALGON 3844", "locID": "LOC000073851055", "tech": "FTTN", "upgrade": "NULL_NA"}}, {"type": "Feature", "geometry": {"type": "Point", "coordinates": [146.5067446, -38.18408567]}, "properties": {"name": "1 EMERALD COURT TRARALGON 3844", "locID": "LOC000022646375", "tech": "FTTN", "upgrade": "FTTP_NA"}}, {"type": "Feature", "geometry": {"type": "Point", "coordinates": [146.54539481, -38.19030772]}, "properties": {"name": "1 ERICA COURT TRARALGON 3844", "locID": "LOC000037936709", "tech": "FTTN", "upgrade": "FTTP_SA"}}, {"type": "Feature", "geometry": {"type": "Point", "coordinates": [146.55807566, -38.20632539]}, "properties": {"name": "1 ESLER STREET TRARALGON 3844", "locID": "LOC000050709687", "tech": "FTTN", "upgrade": "NULL_NA"}}, {"type": "Feature", "geometry": {"type": "Point", "coordinates": [146.52882827, -38.20019795]}, "properties": {"name": "1 ETHEL STREET TRARALGON 3844", "locID": "LOC000106614130", "tech": "FTTN", "upgrade": "NULL_NA"}}, {"type": "Feature", "geometry": {"type": "Point", "coordinates": [146.5224307, -38.17987093]}, "properties": {"name": "1 ETON AVENUE TRARALGON 3844", "locID": "LOC000125258713", "tech": "FTTN", "upgrade": "FTTP_NA"}}, {"type": "Feature", "geometry": {"type": "Point", "coordinates": [146.55730345, -38.20068474]}, "properties": {"name": "1 EVELYN COURT TRARALGON 3844", "locID": "LOC000094868400", "tech": "FTTN", "upgrade": "NULL_NA"}}, {"type": "Feature", "geometry": {"type": "Point", "coordinates": [146.5109637, -38.18912387]}, "properties": {"name": "1 EVERARD COURT TRARALGON 3844", "locID": "LOC000035426365", "tech": "FTTN", "upgrade": "FTTP_NA"}}, {"type": "Feature", "geometry": {"type": "Point", "coordinates": [146.52660945, -38.19701713]}, "properties": {"name": "1 FAIRVIEW STREET TRARALGON 3844", "locID": "LOC000092368582", "tech": "FTTN", "upgrade": "NULL_NA"}}, {"type": "Feature", "geometry": {"type": "Point", "coordinates": [146.53209936, -38.21170781]}, "properties": {"name": "1 FAIRWAY DRIVE TRARALGON 3844", "locID": "LOC000013021067", "tech": "FTTP", "upgrade": "FTTN_CT"}}, {"type": "Feature", "geometry": {"type": "Point", "coordinates": [146.51315604, -38.18482035]}, "properties": {"name": "1 FARINA COURT TRARALGON 3844", "locID": "LOC000068018547", "tech": "FTTN", "upgrade": "FTTP_NA"}}, {"type": "Feature", "geometry": {"type": "Point", "coordinates": [146.52467462, -38.1858171]}, "properties": {"name": "1 FARMER CRESCENT TRARALGON 3844", "locID": "LOC000080226190", "tech": "FTTN", "upgrade": "FTTP_NA"}}, {"type": "Feature", "geometry": {"type": "Point", "coordinates": [146.54777607, -38.20929064]}, "properties": {"name": "1 FARREN CLOSE TRARALGON 3844", "locID": "LOC000125288889", "tech": "FTTN", "upgrade": "NULL_NA"}}, {"type": "Feature", "geometry": {"type": "Point", "coordinates": [146.55663203, -38.20794325]}, "properties": {"name": "1 FARRINGTON PARADE TRARALGON 3844", "locID": "LOC000002896093", "tech": "FTTN", "upgrade": "NULL_NA"}}, {"type": "Feature", "geometry": {"type": "Point", "coordinates": [146.52060259, -38.20621335]}, "properties": {"name": "1 FERNLEA STREET TRARALGON 3844", "locID": "LOC000058613055", "tech": "FTTN", "upgrade": "NULL_NA"}}, {"type": "Feature", "geometry": {"type": "Point", "coordinates": [146.51399027, -38.19889716]}, "properties": {"name": "1 FIELD COURT TRARALGON 3844", "locID": "LOC000091017221", "tech": "FTTN", "upgrade": "NULL_NA"}}, {"type": "Feature", "geometry": {"type": "Point", "coordinates": [146.51998185, -38.1942914]}, "properties": {"name": "1 FINLAYSON CRESCENT TRARALGON 3844", "locID": "LOC000065739446", "tech": "FTTN", "upgrade": "NULL_NA"}}, {"type": "Feature", "geometry": {"type": "Point", "coordinates": [146.54533372, -38.18897616]}, "properties": {"name": "1 FIRMIN STREET TRARALGON 3844", "locID": "LOC000095166200", "tech": "FTTN", "upgrade": "FTTP_SA"}}, {"type": "Feature", "geometry": {"type": "Point", "coordinates": [146.5463659, -38.18459826]}, "properties": {"name": "1 FLINDERS PLACE TRARALGON 3844", "locID": "LOC000098822447", "tech": "FTTN", "upgrade": "FTTP_SA"}}, {"type": "Feature", "geometry": {"type": "Point", "coordinates": [146.55780434, -38.18650559]}, "properties": {"name": "1 FOREST HILL CLOSE TRARALGON 3844", "locID": "LOC000056994913", "tech": "FTTN", "upgrade": "FTTP_SA"}}, {"type": "Feature", "geometry": {"type": "Point", "coordinates": [146.53124548, -38.1899998]}, "properties": {"name": "1 FOXLEASE AVENUE TRARALGON 3844", "locID": "LOC000091379564", "tech": "FTTN", "upgrade": "FTTP_NA"}}, {"type": "Feature", "geometry": {"type": "Point", "coordinates": [146.53012345, -38.20154369]}, "properties": {"name": "1 FRANCIS STREET TRARALGON 3844", "locID": "LOC000072059801", "tech": "FTTN", "upgrade": "NULL_NA"}}, {"type": "Feature", "geometry": {"type": "Point", "coordinates": [146.49624077, -38.19267256]}, "properties": {"name": "1 FREEMANS ROAD TRARALGON 3844", "locID": "LOC000087454083", "tech": "WIRELESS", "upgrade": "NULL_NA"}}, {"type": "Feature", "geometry": {"type": "Point", "coordinates": [146.55502406, -38.19605278]}, "properties": {"name": "1 GALILEE COURT TRARALGON 3844", "locID": "LOC000096248492", "tech": "FTTN", "upgrade": "FTTP_SA"}}, {"type": "Feature", "geometry": {"type": "Point", "coordinates": [146.50532841, -38.18177881]}, "properties": {"name": "1 GALLOWAY STREET TRARALGON 3844", "locID": "LOC000138442316", "tech": "FTTP", "upgrade": "NULL_NA"}}, {"type": "Feature", "geometry": {"type": "Point", "coordinates": [146.51404, -38.20808448]}, "properties": {"name": "1 GALWAY COURT TRARALGON 3844", "locID": "LOC000040576912", "tech": "FTTN", "upgrade": "NULL_NA"}}, {"type": "Feature", "geometry": {"type": "Point", "coordinates": [146.52417073, -38.20129763]}, "properties": {"name": "1 GARDEN GROVE TRARALGON 3844", "locID": "LOC000098102789", "tech": "FTTN", "upgrade": "NULL_NA"}}, {"type": "Feature", "geometry": {"type": "Point", "coordinates": [146.5271536, -38.19971921]}, "properties": {"name": "1 GARIBALDI STREET TRARALGON 3844", "locID": "LOC000040276527", "tech": "FTTN", "upgrade": "NULL_NA"}}, {"type": "Feature", "geometry": {"type": "Point", "coordinates": [146.55278793, -38.20682555]}, "properties": {"name": "1 GATHERCOLE DRIVE TRARALGON 3844", "locID": "LOC000038480394", "tech": "FTTN", "upgrade": "NULL_NA"}}, {"type": "Feature", "geometry": {"type": "Point", "coordinates": [146.51653979, -38.18428233]}, "properties": {"name": "1 GAVIN CLOSE TRARALGON 3844", "locID": "LOC000095073983", "tech": "FTTN", "upgrade": "FTTP_NA"}}, {"type": "Feature", "geometry": {"type": "Point", "coordinates": [146.54303615, -38.19290173]}, "properties": {"name": "1 GEORGE STREET TRARALGON 3844", "locID": "LOC000046350614", "tech": "FTTN", "upgrade": "FTTP_SA"}}, {"type": "Feature", "geometry": {"type": "Point", "coordinates": [146.51874598, -38.19446358]}, "properties": {"name": "1 GEPP COURT TRARALGON 3844", "locID": "LOC000026096214", "tech": "FTTN", "upgrade": "NULL_NA"}}, {"type": "Feature", "geometry": {"type": "Point", "coordinates": [146.55016053, -38.18580345]}, "properties": {"name": "1 GILES PLACE TRARALGON 3844", "locID": "LOC000073723500", "tech": "FTTN", "upgrade": "FTTP_SA"}}, {"type": "Feature", "geometry": {"type": "Point", "coordinates": [146.52979279, -38.1884835]}, "properties": {"name": "1 GILWELL AVENUE TRARALGON 3844", "locID": "LOC000089573350", "tech": "FTTN", "upgrade": "FTTP_NA"}}, {"type": "Feature", "geometry": {"type": "Point", "coordinates": [146.52526931, -38.20043335]}, "properties": {"name": "1 GLENLEE COURT TRARALGON 3844", "locID": "LOC000015651042", "tech": "FTTN", "upgrade": "NULL_NA"}}, {"type": "Feature", "geometry": {"type": "Point", "coordinates": [146.5522608, -38.19625893]}, "properties": {"name": "1 GLENVIEW DRIVE TRARALGON 3844", "locID": "LOC000015236504", "tech": "FTTN", "upgrade": "FTTP_SA"}}, {"type": "Feature", "geometry": {"type": "Point", "coordinates": [146.54645851, -38.19043423]}, "properties": {"name": "1 GOULD COURT TRARALGON 3844", "locID": "LOC000034325742", "tech": "FTTN", "upgrade": "FTTP_SA"}}, {"type": "Feature", "geometry": {"type": "Point", "coordinates": [146.51752285, -38.17927358]}, "properties": {"name": "1 GRADUATE PLACE TRARALGON 3844", "locID": "LOC000075866600", "tech": "FTTN", "upgrade": "FTTP_NA"}}, {"type": "Feature", "geometry": {"type": "Point", "coordinates": [146.52485414, -38.19054279]}, "properties": {"name": "1 GRAHAM CRESCENT TRARALGON 3844", "locID": "LOC000047455467", "tech": "FTTN", "upgrade": "FTTP_NA"}}, {"type": "Feature", "geometry": {"type": "Point", "coordinates": [146.52141944, -38.1836633]}, "properties": {"name": "1 GRAMMAR DRIVE TRARALGON 3844", "locID": "LOC000045441231", "tech": "FTTN", "upgrade": "FTTP_NA"}}, {"type": "Feature", "geometry": {"type": "Point", "coordinates": [146.53256488, -38.1897059]}, "properties": {"name": "1 GRANT COURT TRARALGON 3844", "locID": "LOC000075416846", "tech": "FTTN", "upgrade": "FTTP_NA"}}, {"type": "Feature", "geometry": {"type": "Point", "coordinates": [146.51086674, -38.18406083]}, "properties": {"name": "1 GREENDALE COURT TRARALGON 3844", "locID": "LOC000100260370", "tech": "FTTN", "upgrade": "FTTP_NA"}}, {"type": "Feature", "geometry": {"type": "Point", "coordinates": [146.54484455, -38.17865485]}, "properties": {"name": "1 GREENFIELD DRIVE TRARALGON 3844", "locID": "LOC000019419213", "tech": "FTTN", "upgrade": "FTTP_SA"}}, {"type": "Feature", "geometry": {"type": "Point", "coordinates": [146.51622635, -38.18506866]}, "properties": {"name": "1 GREENVALLEY COURT TRARALGON 3844", "locID": "LOC000051927807", "tech": "FTTN", "upgrade": "FTTP_NA"}}, {"type": "Feature", "geometry": {"type": "Point", "coordinates": [146.53019693, -38.19497013]}, "properties": {"name": "1 GREENWOOD GROVE TRARALGON 3844", "locID": "LOC000048618192", "tech": "FTTN", "upgrade": "NULL_NA"}}, {"type": "Feature", "geometry": {"type": "Point", "coordinates": [146.5575091, -38.18281018]}, "properties": {"name": "1 GREYTHORN ROAD TRARALGON 3844", "locID": "LOC000080608584", "tech": "FTTN", "upgrade": "FTTP_SA"}}, {"type": "Feature", "geometry": {"type": "Point", "coordinates": [146.51785318, -38.19764761]}, "properties": {"name": "1 GRIFFITHS COURT TRARALGON 3844", "locID": "LOC000077154166", "tech": "FTTN", "upgrade": "NULL_NA"}}, {"type": "Feature", "geometry": {"type": "Point", "coordinates": [146.51440939, -38.19533486]}, "properties": {"name": "1 GRUBB AVENUE TRARALGON 3844", "locID": "LOC000085118213", "tech": "FTTN", "upgrade": "NULL_NA"}}, {"type": "Feature", "geometry": {"type": "Point", "coordinates": [146.53326281, -38.18819634]}, "properties": {"name": "1 GUNTZLER COURT TRARALGON 3844", "locID": "LOC000079149545", "tech": "FTTN", "upgrade": "FTTP_NA"}}, {"type": "Feature", "geometry": {"type": "Point", "coordinates": [146.50855509, -38.18518764]}, "properties": {"name": "1 GWINEAR COURT TRARALGON 3844", "locID": "LOC000039186832", "tech": "FTTN", "upgrade": "FTTP_NA"}}, {"type": "Feature", "geometry": {"type": "Point", "coordinates": [146.55871401, -38.18650413]}, "properties": {"name": "1 HAMBLEWOOD RISE TRARALGON 3844", "locID": "LOC000051188964", "tech": "FTTN", "upgrade": "FTTP_SA"}}, {"type": "Feature", "geometry": {"type": "Point", "coordinates": [146.54885615, -38.2026101]}, "properties": {"name": "1 HAMLET DRIVE TRARALGON 3844", "locID": "LOC000049253680", "tech": "FTTN", "upgrade": "FTTP_SA"}}, {"type": "Feature", "geometry": {"type": "Point", "coordinates": [146.55101024, -38.18168544]}, "properties": {"name": "1 HAMMERSMITH CIRCUIT TRARALGON 3844", "locID": "LOC000022084860", "tech": "FTTN", "upgrade": "FTTP_SA"}}, {"type": "Feature", "geometry": {"type": "Point", "coordinates": [146.5393594, -38.20247166]}, "properties": {"name": "1 HARNEY PLACE TRARALGON 3844", "locID": "LOC000186138631", "tech": "FTTN", "upgrade": "NULL_NA"}}, {"type": "Feature", "geometry": {"type": "Point", "coordinates": [146.552167, -38.18138731]}, "properties": {"name": "1 HAWKSBURN ROAD TRARALGON 3844", "locID": "LOC000071948995", "tech": "FTTN", "upgrade": "FTTP_SA"}}, {"type": "Feature", "geometry": {"type": "Point", "coordinates": [146.52205814, -38.20334586]}, "properties": {"name": "1 HAZELWOOD ROAD TRARALGON 3844", "locID": "LOC000085253899", "tech": "FTTN", "upgrade": "NULL_NA"}}, {"type": "Feature", "geometry": {"type": "Point", "coordinates": [146.52041866, -38.2045239]}, "properties": {"name": "1 HEATHER GROVE TRARALGON 3844", "locID": "LOC000100251980", "tech": "FTTN", "upgrade": "NULL_NA"}}, {"type": "Feature", "geometry": {"type": "Point", "coordinates": [146.53456048, -38.18665592]}, "properties": {"name": "1 HEDGES AVENUE TRARALGON 3844", "locID": "LOC000080986646", "tech": "FTTN", "upgrade": "NULL_NA"}}, {"type": "Feature", "geometry": {"type": "Point", "coordinates": [146.53227185, -38.19814885]}, "properties": {"name": "1 HENRY STREET TRARALGON 3844", "locID": "LOC000059795497", "tech": "FTTN", "upgrade": "NULL_NA"}}, {"type": "Feature", "geometry": {"type": "Point", "coordinates": [146.56100843, -38.1756783]}, "properties": {"name": "1 HICKMAN CLOSE TRARALGON 3844", "locID": "LOC000185719849", "tech": "FTTP", "upgrade": "NULL_NA"}}, {"type": "Feature", "geometry": {"type": "Point", "coordinates": [146.52132276, -38.20014798]}, "properties": {"name": "1 HICKS COURT TRARALGON 3844", "locID": "LOC000039096424", "tech": "FTTN", "upgrade": "NULL_NA"}}, {"type": "Feature", "geometry": {"type": "Point", "coordinates": [146.55846761, -38.18282129]}, "properties": {"name": "1 HIGHFIELD COURT TRARALGON 3844", "locID": "LOC000013787349", "tech": "FTTN", "upgrade": "FTTP_SA"}}, {"type": "Feature", "geometry": {"type": "Point", "coordinates": [146.52820653, -38.20060525]}, "properties": {"name": "1 HILL COURT TRARALGON 3844", "locID": "LOC000047381291", "tech": "FTTN", "upgrade": "NULL_NA"}}, {"type": "Feature", "geometry": {"type": "Point", "coordinates": [146.50825453, -38.18349472]}, "properties": {"name": "1 HILLCREST COURT TRARALGON 3844", "locID": "LOC000031809237", "tech": "FTTN", "upgrade": "FTTP_NA"}}, {"type": "Feature", "geometry": {"type": "Point", "coordinates": [146.52285647, -38.18813678]}, "properties": {"name": "1 HOLDEN CRESCENT TRARALGON 3844", "locID": "LOC000080885974", "tech": "FTTN", "upgrade": "FTTP_NA"}}, {"type": "Feature", "geometry": {"type": "Point", "coordinates": [146.54308704, -38.1980839]}, "properties": {"name": "1 HOWITT STREET TRARALGON 3844", "locID": "LOC000058060553", "tech": "FTTN", "upgrade": "FTTP_SA"}}, {"type": "Feature", "geometry": {"type": "Point", "coordinates": [146.52592154, -38.2049834]}, "properties": {"name": "1 HUGH COURT TRARALGON 3844", "locID": "LOC000104640914", "tech": "FTTN", "upgrade": "NULL_NA"}}, {"type": "Feature", "geometry": {"type": "Point", "coordinates": [146.54597443, -38.2087658]}, "properties": {"name": "1 HUNTER ROAD TRARALGON 3844", "locID": "LOC000051232046", "tech": "FTTN", "upgrade": "NULL_NA"}}, {"type": "Feature", "geometry": {"type": "Point", "coordinates": [146.52740715, -38.18609495]}, "properties": {"name": "1 HUNTINGFIELD CLOSE TRARALGON 3844", "locID": "LOC000044642620", "tech": "FTTN", "upgrade": "FTTP_NA"}}, {"type": "Feature", "geometry": {"type": "Point", "coordinates": [146.5272879, -38.20201153]}, "properties": {"name": "1 HYDE PARK ROAD TRARALGON 3844", "locID": "LOC000005180217", "tech": "FTTN", "upgrade": "NULL_NA"}}, {"type": "Feature", "geometry": {"type": "Point", "coordinates": [146.5560085, -38.20188424]}, "properties": {"name": "1 HYLAND STREET TRARALGON 3844", "locID": "LOC000016829968", "tech": "FTTN", "upgrade": "NULL_NA"}}, {"type": "Feature", "geometry": {"type": "Point", "coordinates": [146.50642228, -38.19561966]}, "properties": {"name": "1 IBIS COURT TRARALGON 3844", "locID": "LOC000030240628", "tech": "FTTN", "upgrade": "NULL_NA"}}, {"type": "Feature", "geometry": {"type": "Point", "coordinates": [146.55834623, -38.18767978]}, "properties": {"name": "1 ILLYARRIE PLACE TRARALGON 3844", "locID": "LOC000013501710", "tech": "FTTN", "upgrade": "FTTP_SA"}}, {"type": "Feature", "geometry": {"type": "Point", "coordinates": [146.5165926, -38.18263609]}, "properties": {"name": "1 INDEPENDENT WAY TRARALGON 3844", "locID": "LOC000048710690", "tech": "FTTN", "upgrade": "FTTP_NA"}}, {"type": "Feature", "geometry": {"type": "Point", "coordinates": [146.51829575, -38.18574106]}, "properties": {"name": "1 INVERNESS WAY TRARALGON 3844", "locID": "LOC000058256419", "tech": "FTTN", "upgrade": "FTTP_NA"}}, {"type": "Feature", "geometry": {"type": "Point", "coordinates": [146.55893051, -38.2053597]}, "properties": {"name": "1 JACKSON STREET TRARALGON 3844", "locID": "LOC000044495814", "tech": "FTTN", "upgrade": "NULL_NA"}}, {"type": "Feature", "geometry": {"type": "Point", "coordinates": [146.55625953, -38.20851]}, "properties": {"name": "1 JAKOBI COURT TRARALGON 3844", "locID": "LOC000019425536", "tech": "FTTN", "upgrade": "NULL_NA"}}, {"type": "Feature", "geometry": {"type": "Point", "coordinates": [146.52018814, -38.18561159]}, "properties": {"name": "1 JAMES PARADE TRARALGON 3844", "locID": "LOC000003908265", "tech": "FTTN", "upgrade": "FTTP_NA"}}, {"type": "Feature", "geometry": {"type": "Point", "coordinates": [146.53499081, -38.20401105]}, "properties": {"name": "1 JANETTE STREET TRARALGON 3844", "locID": "LOC000039939396", "tech": "FTTN", "upgrade": "NULL_NA"}}, {"type": "Feature", "geometry": {"type": "Point", "coordinates": [146.51981595, -38.2090694]}, "properties": {"name": "1 JARRAH COURT TRARALGON 3844", "locID": "LOC000087605149", "tech": "FTTN", "upgrade": "NULL_NA"}}, {"type": "Feature", "geometry": {"type": "Point", "coordinates": [146.52079648, -38.20803357]}, "properties": {"name": "1 JAZ CLOSE TRARALGON 3844", "locID": "LOC000153689728", "tech": "FTTP", "upgrade": "NULL_NA"}}, {"type": "Feature", "geometry": {"type": "Point", "coordinates": [146.53370425, -38.18635733]}, "properties": {"name": "1 JAZMINE COURT TRARALGON 3844", "locID": "LOC000066769928", "tech": "FTTN", "upgrade": "FTTP_NA"}}, {"type": "Feature", "geometry": {"type": "Point", "coordinates": [146.53183789, -38.18350246]}, "properties": {"name": "1 JEFFERSON CLOSE TRARALGON 3844", "locID": "LOC000020359291", "tech": "FTTN", "upgrade": "FTTP_NA"}}, {"type": "Feature", "geometry": {"type": "Point", "coordinates": [146.52234535, -38.20597652]}, "properties": {"name": "1 JIM COURT TRARALGON 3844", "locID": "LOC000189743406", "tech": "FTTP", "upgrade": "NULL_NA"}}, {"type": "Feature", "geometry": {"type": "Point", "coordinates": [146.54805267, -38.19227356]}, "properties": {"name": "1 JOHN STREET TRARALGON 3844", "locID": "LOC000009448405", "tech": "FTTN", "upgrade": "NULL_NA"}}, {"type": "Feature", "geometry": {"type": "Point", "coordinates": [146.55701244, -38.20311526]}, "properties": {"name": "1 JONES COURT TRARALGON 3844", "locID": "LOC000032991378", "tech": "FTTN", "upgrade": "NULL_NA"}}, {"type": "Feature", "geometry": {"type": "Point", "coordinates": [146.5184899, -38.18413668]}, "properties": {"name": "1 JOSEPHINE COURT TRARALGON 3844", "locID": "LOC000096845303", "tech": "FTTN", "upgrade": "FTTP_NA"}}, {"type": "Feature", "geometry": {"type": "Point", "coordinates": [146.5229606, -38.18280339]}, "properties": {"name": "1 KAITLYN COURT TRARALGON 3844", "locID": "LOC000098017697", "tech": "FTTN", "upgrade": "FTTP_NA"}}, {"type": "Feature", "geometry": {"type": "Point", "coordinates": [146.51966095, -38.20991069]}, "properties": {"name": "1 KARRI COURT TRARALGON 3844", "locID": "LOC000125284360", "tech": "FTTN", "upgrade": "NULL_NA"}}, {"type": "Feature", "geometry": {"type": "Point", "coordinates": [146.5475189, -38.18852886]}, "properties": {"name": "1 KASSANDRA DRIVE TRARALGON 3844", "locID": "LOC000024377360", "tech": "FTTN", "upgrade": "FTTP_SA"}}, {"type": "Feature", "geometry": {"type": "Point", "coordinates": [146.51012147, -38.20798082]}, "properties": {"name": "1 KAVANAGH STREET TRARALGON 3844", "locID": "LOC000188961618", "tech": "FTTP", "upgrade": "NULL_NA"}}, {"type": "Feature", "geometry": {"type": "Point", "coordinates": [146.54734803, -38.20398064]}, "properties": {"name": "1 KEITH COURT TRARALGON 3844", "locID": "LOC000102170719", "tech": "FTTN", "upgrade": "FTTP_SA"}}, {"type": "Feature", "geometry": {"type": "Point", "coordinates": [146.54682134, -38.21021756]}, "properties": {"name": "1 KENNEDY CLOSE TRARALGON 3844", "locID": "LOC000081229209", "tech": "FTTN", "upgrade": "NULL_NA"}}, {"type": "Feature", "geometry": {"type": "Point", "coordinates": [146.51126369, -38.19372858]}, "properties": {"name": "1 KESTREL CLOSE TRARALGON 3844", "locID": "LOC000002783151", "tech": "FTTN", "upgrade": "NULL_NA"}}, {"type": "Feature", "geometry": {"type": "Point", "coordinates": [146.54671369, -38.2076588]}, "properties": {"name": "1 KEVIN COURT TRARALGON 3844", "locID": "LOC000083469744", "tech": "FTTN", "upgrade": "NULL_NA"}}, {"type": "Feature", "geometry": {"type": "Point", "coordinates": [146.52875558, -38.20328044]}, "properties": {"name": "1 KEYS COURT TRARALGON 3844", "locID": "LOC000033828507", "tech": "FTTN", "upgrade": "NULL_NA"}}, {"type": "Feature", "geometry": {"type": "Point", "coordinates": [146.51725221, -38.21219739]}, "properties": {"name": "1 KILKENNY CLOSE TRARALGON 3844", "locID": "LOC000008903151", "tech": "FTTN", "upgrade": "NULL_NA"}}, {"type": "Feature", "geometry": {"type": "Point", "coordinates": [146.55578663, -38.19805264]}, "properties": {"name": "1 KINGSBURGH COURT TRARALGON 3844", "locID": "LOC000010943399", "tech": "FTTN", "upgrade": "NULL_NA"}}, {"type": "Feature", "geometry": {"type": "Point", "coordinates": [146.55959875, -38.19585115]}, "properties": {"name": "1 KIWI COURT TRARALGON 3844", "locID": "LOC000048052306", "tech": "FTTN", "upgrade": "NULL_NA"}}, {"type": "Feature", "geometry": {"type": "Point", "coordinates": [146.51436038, -38.20387475]}, "properties": {"name": "1 KOSCIUSZKO STREET TRARALGON 3844", "locID": "LOC000013573922", "tech": "FTTN", "upgrade": "NULL_NA"}}, {"type": "Feature", "geometry": {"type": "Point", "coordinates": [146.54394475, -38.1850478]}, "properties": {"name": "1 LACHLAN CLOSE TRARALGON 3844", "locID": "LOC000013068403", "tech": "FTTN", "upgrade": "FTTP_SA"}}, {"type": "Feature", "geometry": {"type": "Point", "coordinates": [146.55448846, -38.18521284]}, "properties": {"name": "1 LAKESET DRIVE TRARALGON 3844", "locID": "LOC000082291121", "tech": "FTTN", "upgrade": "FTTP_SA"}}, {"type": "Feature", "geometry": {"type": "Point", "coordinates": [146.53213454, -38.20919815]}, "properties": {"name": "1 LAKEVIEW LANE TRARALGON 3844", "locID": "LOC000075924188", "tech": "FTTP", "upgrade": "FTTN_CT"}}, {"type": "Feature", "geometry": {"type": "Point", "coordinates": [146.50756506, -38.19362635]}, "properties": {"name": "1 LAMPREY COURT TRARALGON 3844", "locID": "LOC000053093382", "tech": "FTTN", "upgrade": "NULL_NA"}}, {"type": "Feature", "geometry": {"type": "Point", "coordinates": [146.51475387, -38.19787348]}, "properties": {"name": "1 LAURENCE GROVE TRARALGON 3844", "locID": "LOC000052539418", "tech": "FTTN", "upgrade": "NULL_NA"}}, {"type": "Feature", "geometry": {"type": "Point", "coordinates": [146.54898528, -38.20366859]}, "properties": {"name": "1 LAWN AVENUE TRARALGON 3844", "locID": "LOC000066578823", "tech": "FTTN", "upgrade": "FTTP_SA"}}, {"type": "Feature", "geometry": {"type": "Point", "coordinates": [146.54748993, -38.18471545]}, "properties": {"name": "1 LAWSON COURT TRARALGON 3844", "locID": "LOC000001937082", "tech": "FTTN", "upgrade": "FTTP_SA"}}, {"type": "Feature", "geometry": {"type": "Point", "coordinates": [146.54229775, -38.18678038]}, "properties": {"name": "1 LE GRANGE TRARALGON 3844", "locID": "LOC000086597179", "tech": "FTTN", "upgrade": "FTTP_SA"}}, {"type": "Feature", "geometry": {"type": "Point", "coordinates": [146.51448324, -38.2088967]}, "properties": {"name": "1 LEINSTER AVENUE TRARALGON 3844", "locID": "LOC000042695890", "tech": "FTTN", "upgrade": "NULL_NA"}}, {"type": "Feature", "geometry": {"type": "Point", "coordinates": [146.54694674, -38.18673683]}, "properties": {"name": "1 LEON TERRACE TRARALGON 3844", "locID": "LOC000071071635", "tech": "FTTN", "upgrade": "FTTP_SA"}}, {"type": "Feature", "geometry": {"type": "Point", "coordinates": [146.5231497, -38.204917]}, "properties": {"name": "1 LICOLA COURT TRARALGON 3844", "locID": "LOC000094352171", "tech": "FTTN", "upgrade": "NULL_NA"}}, {"type": "Feature", "geometry": {"type": "Point", "coordinates": [146.5324809, -38.19041713]}, "properties": {"name": "1 LINDSAY COURT TRARALGON 3844", "locID": "LOC000023516126", "tech": "FTTN", "upgrade": "FTTP_NA"}}, {"type": "Feature", "geometry": {"type": "Point", "coordinates": [146.55300273, -38.20451598]}, "properties": {"name": "1 LITTLE CRESCENT TRARALGON 3844", "locID": "LOC000006115909", "tech": "FTTN", "upgrade": "NULL_NA"}}, {"type": "Feature", "geometry": {"type": "Point", "coordinates": [146.50368014, -38.18439055]}, "properties": {"name": "1 LLOYD COURT TRARALGON 3844", "locID": "LOC000164349163", "tech": "FTTN", "upgrade": "FTTP_NA"}}, {"type": "Feature", "geometry": {"type": "Point", "coordinates": [146.52744963, -38.20066654]}, "properties": {"name": "1 LOCH PARK ROAD TRARALGON 3844", "locID": "LOC000100199803", "tech": "FTTN", "upgrade": "NULL_NA"}}, {"type": "Feature", "geometry": {"type": "Point", "coordinates": [146.54881761, -38.20838908]}, "properties": {"name": "1 LONGFORD COURT TRARALGON 3844", "locID": "LOC000003872156", "tech": "FTTN", "upgrade": "NULL_NA"}}, {"type": "Feature", "geometry": {"type": "Point", "coordinates": [146.50966983, -38.19470915]}, "properties": {"name": "1 LORIKEET PLACE TRARALGON 3844", "locID": "LOC000007110746", "tech": "FTTN", "upgrade": "NULL_NA"}}, {"type": "Feature", "geometry": {"type": "Point", "coordinates": [146.512823, -38.1922613]}, "properties": {"name": "1 LOUISE COURT TRARALGON 3844", "locID": "LOC000054250091", "tech": "FTTN", "upgrade": "NULL_NA"}}, {"type": "Feature", "geometry": {"type": "Point", "coordinates": [146.55805884, -38.2025036]}, "properties": {"name": "1 LYNDON CRESCENT TRARALGON 3844", "locID": "LOC000058141116", "tech": "FTTN", "upgrade": "NULL_NA"}}, {"type": "Feature", "geometry": {"type": "Point", "coordinates": [146.530006, -38.200006]}, "properties": {"name": "1 MABEL STREET TRARALGON 3844", "locID": "LOC000019475628", "tech": "FTTN", "upgrade": "NULL_NA"}}, {"type": "Feature", "geometry": {"type": "Point", "coordinates": [146.55823606, -38.19509312]}, "properties": {"name": "1 MACDOUGAL COURT TRARALGON 3844", "locID": "LOC000073089942", "tech": "FTTN", "upgrade": "FTTP_SA"}}, {"type": "Feature", "geometry": {"type": "Point", "coordinates": [146.52627725, -38.19635635]}, "properties": {"name": "1 MACKAY STREET TRARALGON 3844", "locID": "LOC000106303705", "tech": "FTTN", "upgrade": "NULL_NA"}}, {"type": "Feature", "geometry": {"type": "Point", "coordinates": [146.54446896, -38.18094993]}, "properties": {"name": "1 MACKILLOP COURT TRARALGON 3844", "locID": "LOC000007623446", "tech": "FTTN", "upgrade": "FTTP_SA"}}, {"type": "Feature", "geometry": {"type": "Point", "coordinates": [146.54039964, -38.18448256]}, "properties": {"name": "1 MACQUARIE PLACE TRARALGON 3844", "locID": "LOC000047389759", "tech": "FTTN", "upgrade": "FTTP_SA"}}, {"type": "Feature", "geometry": {"type": "Point", "coordinates": [146.554573, -38.20007963]}, "properties": {"name": "1 MAGUIRE COURT TRARALGON 3844", "locID": "LOC000010912240", "tech": "FTTN", "upgrade": "NULL_NA"}}, {"type": "Feature", "geometry": {"type": "Point", "coordinates": [146.54662215, -38.2023278]}, "properties": {"name": "1 MAPLESON DRIVE TRARALGON 3844", "locID": "LOC000085533689", "tech": "FTTN", "upgrade": "FTTP_SA"}}, {"type": "Feature", "geometry": {"type": "Point", "coordinates": [146.52371955, -38.20371284]}, "properties": {"name": "1 MARGARET STREET TRARALGON 3844", "locID": "LOC000083690389", "tech": "FTTN", "upgrade": "NULL_NA"}}, {"type": "Feature", "geometry": {"type": "Point", "coordinates": [146.53163528, -38.20527048]}, "properties": {"name": "1 MARIE STREET TRARALGON 3844", "locID": "LOC000062611261", "tech": "FTTN", "upgrade": "NULL_NA"}}, {"type": "Feature", "geometry": {"type": "Point", "coordinates": [146.54995238, -38.19686488]}, "properties": {"name": "1 MARION COURT TRARALGON 3844", "locID": "LOC000016911645", "tech": "FTTN", "upgrade": "NULL_NA"}}, {"type": "Feature", "geometry": {"type": "Point", "coordinates": [146.51463506, -38.18841484]}, "properties": {"name": "1 MARYVALE COURT TRARALGON 3844", "locID": "LOC000019365472", "tech": "FTTN", "upgrade": "FTTP_NA"}}, {"type": "Feature", "geometry": {"type": "Point", "coordinates": [146.55443253, -38.20485641]}, "properties": {"name": "1 MASKREY STREET TRARALGON 3844", "locID": "LOC000083681947", "tech": "FTTN", "upgrade": "NULL_NA"}}, {"type": "Feature", "geometry": {"type": "Point", "coordinates": [146.52479765, -38.20259048]}, "properties": {"name": "1 MATES STREET TRARALGON 3844", "locID": "LOC000061857552", "tech": "FTTN", "upgrade": "NULL_NA"}}, {"type": "Feature", "geometry": {"type": "Point", "coordinates": [146.54850629, -38.19535682]}, "properties": {"name": "1 MATTHEWS CRESCENT TRARALGON 3844", "locID": "LOC000022814687", "tech": "FTTN", "upgrade": "NULL_NA"}}, {"type": "Feature", "geometry": {"type": "Point", "coordinates": [146.5516382, -38.18295145]}, "properties": {"name": "1 MAYFAIR COURT TRARALGON 3844", "locID": "LOC000039167215", "tech": "FTTN", "upgrade": "FTTP_SA"}}, {"type": "Feature", "geometry": {"type": "Point", "coordinates": [146.54923215, -38.20018021]}, "properties": {"name": "1 MAYNE COURT TRARALGON 3844", "locID": "LOC000008666101", "tech": "FTTN", "upgrade": "NULL_NA"}}, {"type": "Feature", "geometry": {"type": "Point", "coordinates": [146.5184509, -38.20111665]}, "properties": {"name": "1 MCCALLUM COURT TRARALGON 3844", "locID": "LOC000078974192", "tech": "FTTN", "upgrade": "NULL_NA"}}, {"type": "Feature", "geometry": {"type": "Point", "coordinates": [146.52862189, -38.18619181]}, "properties": {"name": "1 MCCLURE COURT TRARALGON 3844", "locID": "LOC000007082140", "tech": "FTTN", "upgrade": "FTTP_NA"}}, {"type": "Feature", "geometry": {"type": "Point", "coordinates": [146.5544898, -38.20803743]}, "properties": {"name": "1 MCDONALD COURT TRARALGON 3844", "locID": "LOC000032145837", "tech": "FTTN", "upgrade": "NULL_NA"}}, {"type": "Feature", "geometry": {"type": "Point", "coordinates": [146.55375235, -38.20621465]}, "properties": {"name": "1 MCENTEE COURT TRARALGON 3844", "locID": "LOC000040616028", "tech": "FTTN", "upgrade": "NULL_NA"}}, {"type": "Feature", "geometry": {"type": "Point", "coordinates": [146.5544663, -38.19040339]}, "properties": {"name": "1 MCMAHON STREET TRARALGON 3844", "locID": "LOC000018490829", "tech": "FTTN", "upgrade": "NULL_NA"}}, {"type": "Feature", "geometry": {"type": "Point", "coordinates": [146.51985046, -38.19619166]}, "properties": {"name": "1 MCMILLAN STREET TRARALGON 3844", "locID": "LOC000074218467", "tech": "FTTN", "upgrade": "NULL_NA"}}, {"type": "Feature", "geometry": {"type": "Point", "coordinates": [146.56047139, -38.2027099]}, "properties": {"name": "1 MCNAIRN ROAD TRARALGON 3844", "locID": "LOC000091010720", "tech": "FTTN", "upgrade": "NULL_NA"}}, {"type": "Feature", "geometry": {"type": "Point", "coordinates": [146.51139593, -38.21050369]}, "properties": {"name": "1 MCNULTY DRIVE TRARALGON 3844", "locID": "LOC000138658284", "tech": "FTTP", "upgrade": "NULL_NA"}}, {"type": "Feature", "geometry": {"type": "Point", "coordinates": [146.5150098, -38.18579312]}, "properties": {"name": "1 MEADOW PARK DRIVE TRARALGON 3844", "locID": "LOC000032664117", "tech": "FTTN", "upgrade": "FTTP_NA"}}, {"type": "Feature", "geometry": {"type": "Point", "coordinates": [146.54914238, -38.20545419]}, "properties": {"name": "1 MEGAN PLACE TRARALGON 3844", "locID": "LOC000050662282", "tech": "FTTN", "upgrade": "FTTP_SA"}}, {"type": "Feature", "geometry": {"type": "Point", "coordinates": [146.5105065, -38.19261758]}, "properties": {"name": "1 MELANIE COURT TRARALGON 3844", "locID": "LOC000038917374", "tech": "FTTN", "upgrade": "NULL_NA"}}, {"type": "Feature", "geometry": {"type": "Point", "coordinates": [146.54841725, -38.18794996]}, "properties": {"name": "1 MELISSA COURT TRARALGON 3844", "locID": "LOC000101072383", "tech": "FTTN", "upgrade": "FTTP_SA"}}, {"type": "Feature", "geometry": {"type": "Point", "coordinates": [146.53903579, -38.20034537]}, "properties": {"name": "1 MEREDITH STREET TRARALGON 3844", "locID": "LOC000114887193", "tech": "FTTN", "upgrade": "NULL_NA"}}, {"type": "Feature", "geometry": {"type": "Point", "coordinates": [146.54920718, -38.21359639]}, "properties": {"name": "1 MERIDIAN DRIVE TRARALGON 3844", "locID": "LOC000187812714", "tech": "FTTP", "upgrade": "NULL_NA"}}, {"type": "Feature", "geometry": {"type": "Point", "coordinates": [146.51007989, -38.18500906]}, "properties": {"name": "1 MERINDAH COURT TRARALGON 3844", "locID": "LOC000018507135", "tech": "FTTN", "upgrade": "FTTP_NA"}}, {"type": "Feature", "geometry": {"type": "Point", "coordinates": [146.51644052, -38.20124562]}, "properties": {"name": "1 MERMOD COURT TRARALGON 3844", "locID": "LOC000093324402", "tech": "FTTN", "upgrade": "NULL_NA"}}, {"type": "Feature", "geometry": {"type": "Point", "coordinates": [146.5228868, -38.20321714]}, "properties": {"name": "1 MERVYN STREET TRARALGON 3844", "locID": "LOC000069662218", "tech": "FTTN", "upgrade": "NULL_NA"}}, {"type": "Feature", "geometry": {"type": "Point", "coordinates": [146.53350923, -38.18790376]}, "properties": {"name": "1 MICHAEL COURT TRARALGON 3844", "locID": "LOC000061833547", "tech": "FTTN", "upgrade": "FTTP_NA"}}, {"type": "Feature", "geometry": {"type": "Point", "coordinates": [146.50788733, -38.18819359]}, "properties": {"name": "1 MICHELLE COURT TRARALGON 3844", "locID": "LOC000103072165", "tech": "FTTN", "upgrade": "FTTP_NA"}}, {"type": "Feature", "geometry": {"type": "Point", "coordinates": [146.55116941, -38.20469645]}, "properties": {"name": "1 MILES STREET TRARALGON 3844", "locID": "LOC000020284047", "tech": "FTTN", "upgrade": "NULL_NA"}}, {"type": "Feature", "geometry": {"type": "Point", "coordinates": [146.55829366, -38.20408001]}, "properties": {"name": "1 MILLIGAN COURT TRARALGON 3844", "locID": "LOC000079545325", "tech": "FTTN", "upgrade": "NULL_NA"}}, {"type": "Feature", "geometry": {"type": "Point", "coordinates": [146.5439854, -38.20072844]}, "properties": {"name": "1 MILTON COURT TRARALGON 3844", "locID": "LOC000047754771", "tech": "FTTN", "upgrade": "FTTP_SA"}}, {"type": "Feature", "geometry": {"type": "Point", "coordinates": [146.54865585, -38.18472769]}, "properties": {"name": "1 MITCHELL DRIVE TRARALGON 3844", "locID": "LOC000040629044", "tech": "FTTN", "upgrade": "FTTP_SA"}}, {"type": "Feature", "geometry": {"type": "Point", "coordinates": [146.55063745, -38.1999953]}, "properties": {"name": "1 MONASH STREET TRARALGON 3844", "locID": "LOC000095354533", "tech": "FTTN", "upgrade": "NULL_NA"}}, {"type": "Feature", "geometry": {"type": "Point", "coordinates": [146.54384565, -38.19989305]}, "properties": {"name": "1 MOONABEAL COURT TRARALGON 3844", "locID": "LOC000101541717", "tech": "FTTN", "upgrade": "FTTP_SA"}}, {"type": "Feature", "geometry": {"type": "Point", "coordinates": [146.55187888, -38.18525591]}, "properties": {"name": "1 MORGAN DRIVE TRARALGON 3844", "locID": "LOC000046772928", "tech": "FTTN", "upgrade": "FTTP_SA"}}, {"type": "Feature", "geometry": {"type": "Point", "coordinates": [146.56070049, -38.18349825]}, "properties": {"name": "1 MOUNTBATTEN COURT TRARALGON 3844", "locID": "LOC000017575339", "tech": "FTTN", "upgrade": "NULL_NA"}}, {"type": "Feature", "geometry": {"type": "Point", "coordinates": [146.54637501, -38.19171075]}, "properties": {"name": "1 MUNRO STREET TRARALGON 3844", "locID": "LOC000040505721", "tech": "FTTN", "upgrade": "FTTP_SA"}}, {"type": "Feature", "geometry": {"type": "Point", "coordinates": [146.55763898, -38.20329406]}, "properties": {"name": "1 MURPHY CRESCENT TRARALGON 3844", "locID": "LOC000125276152", "tech": "FTTN", "upgrade": "NULL_NA"}}, {"type": "Feature", "geometry": {"type": "Point", "coordinates": [146.50623816, -38.17929146]}, "properties": {"name": "1 MURRAY GREY AVENUE TRARALGON 3844", "locID": "LOC000140250143", "tech": "FTTP", "upgrade": "NULL_NA"}}, {"type": "Feature", "geometry": {"type": "Point", "coordinates": [146.51817454, -38.20796313]}, "properties": {"name": "1 MYRTLE CRESCENT TRARALGON 3844", "locID": "LOC000074342633", "tech": "FTTN", "upgrade": "NULL_NA"}}, {"type": "Feature", "geometry": {"type": "Point", "coordinates": [146.50686878, -38.18480303]}, "properties": {"name": "1 NAPIER PLACE TRARALGON 3844", "locID": "LOC000011826566", "tech": "FTTN", "upgrade": "FTTP_NA"}}, {"type": "Feature", "geometry": {"type": "Point", "coordinates": [146.5218634, -38.19581704]}, "properties": {"name": "1 NEVILLE STREET TRARALGON 3844", "locID": "LOC000044867096", "tech": "FTTN", "upgrade": "NULL_NA"}}, {"type": "Feature", "geometry": {"type": "Point", "coordinates": [146.55628787, -38.19946193]}, "properties": {"name": "1 NEWMAN CRESCENT TRARALGON 3844", "locID": "LOC000060457405", "tech": "FTTN", "upgrade": "NULL_NA"}}, {"type": "Feature", "geometry": {"type": "Point", "coordinates": [146.52350466, -38.20631493]}, "properties": {"name": "1 NICK PLACE TRARALGON 3844", "locID": "LOC000189743195", "tech": "FTTP", "upgrade": "NULL_NA"}}, {"type": "Feature", "geometry": {"type": "Point", "coordinates": [146.55010055, -38.20696264]}, "properties": {"name": "1 NIXON COURT TRARALGON 3844", "locID": "LOC000067656355", "tech": "FTTN", "upgrade": "FTTP_SA"}}, {"type": "Feature", "geometry": {"type": "Point", "coordinates": [146.50129146, -38.17857166]}, "properties": {"name": "1 NORAH STREET TRARALGON 3844", "locID": "LOC000186095800", "tech": "FTTP", "upgrade": "NULL_NA"}}, {"type": "Feature", "geometry": {"type": "Point", "coordinates": [146.52956928, -38.18497625]}, "properties": {"name": "1 NOTTING HILL TRARALGON 3844", "locID": "LOC000038910623", "tech": "FTTN", "upgrade": "FTTP_NA"}}, {"type": "Feature", "geometry": {"type": "Point", "coordinates": [146.5092419, -38.18996714]}, "properties": {"name": "1 NUGONG PLACE TRARALGON 3844", "locID": "LOC000105894474", "tech": "FTTN", "upgrade": "FTTP_NA"}}, {"type": "Feature", "geometry": {"type": "Point", "coordinates": [146.51778211, -38.20456291]}, "properties": {"name": "1 OAK AVENUE TRARALGON 3844", "locID": "LOC000056232531", "tech": "FTTN", "upgrade": "NULL_NA"}}, {"type": "Feature", "geometry": {"type": "Point", "coordinates": [146.5464067, -38.21046615]}, "properties": {"name": "1 OHEHIR COURT TRARALGON 3844", "locID": "LOC000095116946", "tech": "FTTN", "upgrade": "NULL_NA"}}, {"type": "Feature", "geometry": {"type": "Point", "coordinates": [146.54702912, -38.20591579]}, "properties": {"name": "1 ORMOND ROAD TRARALGON 3844", "locID": "LOC000091982143", "tech": "FTTN", "upgrade": "FTTP_SA"}}, {"type": "Feature", "geometry": {"type": "Point", "coordinates": [146.5282512, -38.20435375]}, "properties": {"name": "1 ORR BRIEN CRESCENT TRARALGON 3844", "locID": "LOC000024411251", "tech": "FTTN", "upgrade": "NULL_NA"}}, {"type": "Feature", "geometry": {"type": "Point", "coordinates": [146.53285008, -38.19087509]}, "properties": {"name": "1 OSBORNE STREET TRARALGON 3844", "locID": "LOC000001936003", "tech": "FTTN", "upgrade": "FTTP_NA"}}, {"type": "Feature", "geometry": {"type": "Point", "coordinates": [146.54591386, -38.18502636]}, "properties": {"name": "1 OXLEY COURT TRARALGON 3844", "locID": "LOC000048206591", "tech": "FTTP", "upgrade": "FTTN_CT"}}, {"type": "Feature", "geometry": {"type": "Point", "coordinates": [146.50180898, -38.1818125]}, "properties": {"name": "1 PAIGE AVENUE TRARALGON 3844", "locID": "LOC000179268709", "tech": "FTTP", "upgrade": "NULL_NA"}}, {"type": "Feature", "geometry": {"type": "Point", "coordinates": [146.50189304, -38.18254803]}, "properties": {"name": "1 PALMGATE TERRACE TRARALGON 3844", "locID": "LOC000038927705", "tech": "FTTN", "upgrade": "FTTP_NA"}}, {"type": "Feature", "geometry": {"type": "Point", "coordinates": [146.5147072, -38.18554186]}, "properties": {"name": "1 PARKWOOD WAY TRARALGON 3844", "locID": "LOC000083332622", "tech": "FTTN", "upgrade": "FTTP_NA"}}, {"type": "Feature", "geometry": {"type": "Point", "coordinates": [146.50767698, -38.18949048]}, "properties": {"name": "1 PARSLOW COURT TRARALGON 3844", "locID": "LOC000099493991", "tech": "FTTN", "upgrade": "FTTP_NA"}}, {"type": "Feature", "geometry": {"type": "Point", "coordinates": [146.51783455, -38.18645981]}, "properties": {"name": "1 PATRICIA COURT TRARALGON 3844", "locID": "LOC000076077460", "tech": "FTTN", "upgrade": "FTTP_NA"}}, {"type": "Feature", "geometry": {"type": "Point", "coordinates": [146.55478106, -38.19754225]}, "properties": {"name": "1 PATROBAS COURT TRARALGON 3844", "locID": "LOC000083484516", "tech": "FTTN", "upgrade": "NULL_NA"}}, {"type": "Feature", "geometry": {"type": "Point", "coordinates": [146.54189033, -38.18676178]}, "properties": {"name": "1 PAUL STREET TRARALGON 3844", "locID": "LOC000025149711", "tech": "FTTN", "upgrade": "FTTP_SA"}}, {"type": "Feature", "geometry": {"type": "Point", "coordinates": [146.52968066, -38.1901119]}, "properties": {"name": "1 PAX ROAD TRARALGON 3844", "locID": "LOC000065755979", "tech": "FTTN", "upgrade": "FTTP_NA"}}, {"type": "Feature", "geometry": {"type": "Point", "coordinates": [146.51187645, -38.21078452]}, "properties": {"name": "1 PENNY COURT TRARALGON 3844", "locID": "LOC000138658307", "tech": "FTTP", "upgrade": "NULL_NA"}}, {"type": "Feature", "geometry": {"type": "Point", "coordinates": [146.5557573, -38.1868274]}, "properties": {"name": "1 PEPPERDINE COURT TRARALGON 3844", "locID": "LOC000108250528", "tech": "FTTN", "upgrade": "FTTP_SA"}}, {"type": "Feature", "geometry": {"type": "Point", "coordinates": [146.54752816, -38.1905819]}, "properties": {"name": "1 PETTIT STREET TRARALGON 3844", "locID": "LOC000041477128", "tech": "FTTN", "upgrade": "FTTP_SA"}}, {"type": "Feature", "geometry": {"type": "Point", "coordinates": [146.5145795, -38.19359284]}, "properties": {"name": "1 PHILLIP STREET TRARALGON 3844", "locID": "LOC000066065326", "tech": "FTTN", "upgrade": "NULL_NA"}}, {"type": "Feature", "geometry": {"type": "Point", "coordinates": [146.51961905, -38.19355251]}, "properties": {"name": "1 POLLOCK AVENUE TRARALGON 3844", "locID": "LOC000037967833", "tech": "FTTN", "upgrade": "NULL_NA"}}, {"type": "Feature", "geometry": {"type": "Point", "coordinates": [146.51996851, -38.20813578]}, "properties": {"name": "1 POPLAR AVENUE TRARALGON 3844", "locID": "LOC000014233923", "tech": "FTTN", "upgrade": "NULL_NA"}}, {"type": "Feature", "geometry": {"type": "Point", "coordinates": [146.55096403, -38.17791637]}, "properties": {"name": "1 PORTABELLO ROAD TRARALGON 3844", "locID": "LOC000189185535", "tech": "FTTP", "upgrade": "NULL_NA"}}, {"type": "Feature", "geometry": {"type": "Point", "coordinates": [146.55317901, -38.2070722]}, "properties": {"name": "1 PRIESTLY COURT TRARALGON 3844", "locID": "LOC000095122411", "tech": "FTTN", "upgrade": "NULL_NA"}}, {"type": "Feature", "geometry": {"type": "Point", "coordinates": [146.52194454, -38.20238527]}, "properties": {"name": "1 PRINCES STREET TRARALGON 3844", "locID": "LOC000050350839", "tech": "FTTN", "upgrade": "NULL_NA"}}, {"type": "Feature", "geometry": {"type": "Point", "coordinates": [146.54982737, -38.1832796]}, "properties": {"name": "1 PRINCETON WAY TRARALGON 3844", "locID": "LOC000158631313", "tech": "FTTP", "upgrade": "NULL_NA"}}, {"type": "Feature", "geometry": {"type": "Point", "coordinates": [146.5088557, -38.19566339]}, "properties": {"name": "1 QUAIL COURT TRARALGON 3844", "locID": "LOC000058756470", "tech": "FTTN", "upgrade": "NULL_NA"}}, {"type": "Feature", "geometry": {"type": "Point", "coordinates": [146.51487444, -38.18813261]}, "properties": {"name": "1 RANGEVIEW DRIVE TRARALGON 3844", "locID": "LOC000056430332", "tech": "FTTN", "upgrade": "FTTP_NA"}}, {"type": "Feature", "geometry": {"type": "Point", "coordinates": [146.51240844, -38.19482756]}, "properties": {"name": "1 RAVEN COURT TRARALGON 3844", "locID": "LOC000086556156", "tech": "FTTN", "upgrade": "NULL_NA"}}, {"type": "Feature", "geometry": {"type": "Point", "coordinates": [146.5234206, -38.2046069]}, "properties": {"name": "1 RAY STREET TRARALGON 3844", "locID": "LOC000095202275", "tech": "FTTN", "upgrade": "NULL_NA"}}, {"type": "Feature", "geometry": {"type": "Point", "coordinates": [146.55240069, -38.18494559]}, "properties": {"name": "1 REGENCY COURT TRARALGON 3844", "locID": "LOC000024440670", "tech": "FTTN", "upgrade": "FTTP_SA"}}, {"type": "Feature", "geometry": {"type": "Point", "coordinates": [146.56203844, -38.17640642]}, "properties": {"name": "1 REGIMENT LANE TRARALGON 3844", "locID": "LOC000144425864", "tech": "FTTP", "upgrade": "NULL_NA"}}, {"type": "Feature", "geometry": {"type": "Point", "coordinates": [146.55450604, -38.21258776]}, "properties": {"name": "1 RETREAT ROAD TRARALGON 3844", "locID": "LOC000009745445", "tech": "WIRELESS", "upgrade": "NULL_NA"}}, {"type": "Feature", "geometry": {"type": "Point", "coordinates": [146.5086812, -38.19162919]}, "properties": {"name": "1 RIALTO COURT TRARALGON 3844", "locID": "LOC000090562275", "tech": "FTTN", "upgrade": "NULL_NA"}}, {"type": "Feature", "geometry": {"type": "Point", "coordinates": [146.55353075, -38.19137238]}, "properties": {"name": "1 RIGGALL ROAD TRARALGON 3844", "locID": "LOC000091665722", "tech": "FTTN", "upgrade": "NULL_NA"}}, {"type": "Feature", "geometry": {"type": "Point", "coordinates": [146.5562744, -38.19483714]}, "properties": {"name": "1 RIMFIRE COURT TRARALGON 3844", "locID": "LOC000104443182", "tech": "FTTN", "upgrade": "FTTP_SA"}}, {"type": "Feature", "geometry": {"type": "Point", "coordinates": [146.56300933, -38.17694792]}, "properties": {"name": "1 RISE BOULEVARD TRARALGON 3844", "locID": "LOC000144426054", "tech": "FTTP", "upgrade": "NULL_NA"}}, {"type": "Feature", "geometry": {"type": "Point", "coordinates": [146.51374015, -38.18282796]}, "properties": {"name": "1 RIVERSLEA BOULEVARD TRARALGON 3844", "locID": "LOC000097229744", "tech": "FTTN", "upgrade": "FTTP_NA"}}, {"type": "Feature", "geometry": {"type": "Point", "coordinates": [146.55240087, -38.20044399]}, "properties": {"name": "1 ROBERTS STREET TRARALGON 3844", "locID": "LOC000075267070", "tech": "FTTN", "upgrade": "NULL_NA"}}, {"type": "Feature", "geometry": {"type": "Point", "coordinates": [146.50600795, -38.18834706]}, "properties": {"name": "1 ROEBUCK BAY TRARALGON 3844", "locID": "LOC000041393467", "tech": "FTTN", "upgrade": "FTTP_NA"}}, {"type": "Feature", "geometry": {"type": "Point", "coordinates": [146.54997633, -38.2013776]}, "properties": {"name": "1 ROGERS COURT TRARALGON 3844", "locID": "LOC000098285381", "tech": "FTTN", "upgrade": "NULL_NA"}}, {"type": "Feature", "geometry": {"type": "Point", "coordinates": [146.52542495, -38.19341324]}, "properties": {"name": "1 ROOSEVELT STREET TRARALGON 3844", "locID": "LOC000044806158", "tech": "FTTN", "upgrade": "NULL_NA"}}, {"type": "Feature", "geometry": {"type": "Point", "coordinates": [146.51729319, -38.21104745]}, "properties": {"name": "1 ROSCOMMON DRIVE TRARALGON 3844", "locID": "LOC000101531624", "tech": "FTTN", "upgrade": "NULL_NA"}}, {"type": "Feature", "geometry": {"type": "Point", "coordinates": [146.53001165, -38.20237246]}, "properties": {"name": "1 ROSENEATH STREET TRARALGON 3844", "locID": "LOC000012068973", "tech": "FTTN", "upgrade": "NULL_NA"}}, {"type": "Feature", "geometry": {"type": "Point", "coordinates": [146.54492035, -38.18303759]}, "properties": {"name": "1 ROTHBURY PLACE TRARALGON 3844", "locID": "LOC000088830478", "tech": "FTTN", "upgrade": "FTTP_SA"}}, {"type": "Feature", "geometry": {"type": "Point", "coordinates": [146.52646678, -38.19894995]}, "properties": {"name": "1 ROW STREET TRARALGON 3844", "locID": "LOC000067606784", "tech": "FTTN", "upgrade": "NULL_NA"}}, {"type": "Feature", "geometry": {"type": "Point", "coordinates": [146.50950674, -38.19303025]}, "properties": {"name": "1 RURAL DRIVE TRARALGON 3844", "locID": "LOC000012125569", "tech": "FTTN", "upgrade": "NULL_NA"}}, {"type": "Feature", "geometry": {"type": "Point", "coordinates": [146.52842818, -38.18911675]}, "properties": {"name": "1 RYAN AVENUE TRARALGON 3844", "locID": "LOC000003881023", "tech": "FTTN", "upgrade": "FTTP_NA"}}, {"type": "Feature", "geometry": {"type": "Point", "coordinates": [146.52981673, -38.18120708]}, "properties": {"name": "1 RYE COURT TRARALGON 3844", "locID": "LOC000166523901", "tech": "FTTN", "upgrade": "FTTP_NA"}}, {"type": "Feature", "geometry": {"type": "Point", "coordinates": [146.54690759, -38.20688648]}, "properties": {"name": "1 SALLY COURT TRARALGON 3844", "locID": "LOC000037847534", "tech": "FTTN", "upgrade": "FTTP_SA"}}, {"type": "Feature", "geometry": {"type": "Point", "coordinates": [146.5555528, -38.18337949]}, "properties": {"name": "1 SANCTUARY LANE TRARALGON 3844", "locID": "LOC000091041384", "tech": "FTTN", "upgrade": "FTTP_SA"}}, {"type": "Feature", "geometry": {"type": "Point", "coordinates": [146.50872403, -38.18589468]}, "properties": {"name": "1 SANDALWOOD COURT TRARALGON 3844", "locID": "LOC000053085952", "tech": "FTTN", "upgrade": "FTTP_NA"}}, {"type": "Feature", "geometry": {"type": "Point", "coordinates": [146.5253306, -38.20458213]}, "properties": {"name": "1 SARA COURT TRARALGON 3844", "locID": "LOC000106687385", "tech": "FTTN", "upgrade": "NULL_NA"}}, {"type": "Feature", "geometry": {"type": "Point", "coordinates": [146.52723058, -38.186379]}, "properties": {"name": "1 SAVILLE COURT TRARALGON 3844", "locID": "LOC000018764451", "tech": "FTTN", "upgrade": "FTTP_NA"}}, {"type": "Feature", "geometry": {"type": "Point", "coordinates": [146.51078615, -38.18985356]}, "properties": {"name": "1 SELMA COURT TRARALGON 3844", "locID": "LOC000046268358", "tech": "FTTN", "upgrade": "FTTP_NA"}}, {"type": "Feature", "geometry": {"type": "Point", "coordinates": [146.51342085, -38.19011818]}, "properties": {"name": "1 SELWYN PLACE TRARALGON 3844", "locID": "LOC000091628559", "tech": "FTTN", "upgrade": "FTTP_NA"}}, {"type": "Feature", "geometry": {"type": "Point", "coordinates": [146.5421015, -38.17982191]}, "properties": {"name": "1 SENADE COURT TRARALGON 3844", "locID": "LOC000125262935", "tech": "FTTN", "upgrade": "FTTP_SA"}}, {"type": "Feature", "geometry": {"type": "Point", "coordinates": [146.54058086, -38.19664907]}, "properties": {"name": "1 SEYMOUR STREET TRARALGON 3844", "locID": "LOC000125262942", "tech": "FTTP", "upgrade": "NULL_NA"}}, {"type": "Feature", "geometry": {"type": "Point", "coordinates": [146.53414034, -38.2007119]}, "properties": {"name": "1 SHAKESPEARE STREET TRARALGON 3844", "locID": "LOC000060604276", "tech": "FTTN", "upgrade": "NULL_NA"}}, {"type": "Feature", "geometry": {"type": "Point", "coordinates": [146.51753545, -38.19461691]}, "properties": {"name": "1 SIMPSON COURT TRARALGON 3844", "locID": "LOC000049030397", "tech": "FTTN", "upgrade": "NULL_NA"}}, {"type": "Feature", "geometry": {"type": "Point", "coordinates": [146.55383114, -38.19595013]}, "properties": {"name": "1 SKIPTON COURT TRARALGON 3844", "locID": "LOC000046815075", "tech": "FTTN", "upgrade": "FTTP_SA"}}, {"type": "Feature", "geometry": {"type": "Point", "coordinates": [146.51617315, -38.21120629]}, "properties": {"name": "1 SLIGO COURT TRARALGON 3844", "locID": "LOC000058143063", "tech": "FTTN", "upgrade": "NULL_NA"}}, {"type": "Feature", "geometry": {"type": "Point", "coordinates": [146.55234694, -38.18620103]}, "properties": {"name": "1 SMITH STREET TRARALGON 3844", "locID": "LOC000102350031", "tech": "FTTN", "upgrade": "FTTP_SA"}}, {"type": "Feature", "geometry": {"type": "Point", "coordinates": [146.53091921, -38.18949811]}, "properties": {"name": "1 SOMERS PLACE TRARALGON 3844", "locID": "LOC000061866682", "tech": "FTTN", "upgrade": "FTTP_NA"}}, {"type": "Feature", "geometry": {"type": "Point", "coordinates": [146.55773424, -38.19813416]}, "properties": {"name": "1 SPEARFELT COURT TRARALGON 3844", "locID": "LOC000061735554", "tech": "FTTN", "upgrade": "NULL_NA"}}, {"type": "Feature", "geometry": {"type": "Point", "coordinates": [146.51094534, -38.18449361]}, "properties": {"name": "1 SPRINGFIELD COURT TRARALGON 3844", "locID": "LOC000080328780", "tech": "FTTN", "upgrade": "FTTP_NA"}}, {"type": "Feature", "geometry": {"type": "Point", "coordinates": [146.53317128, -38.18526019]}, "properties": {"name": "1 ST GEORGES ROAD TRARALGON 3844", "locID": "LOC000075660959", "tech": "FTTN", "upgrade": "FTTP_NA"}}, {"type": "Feature", "geometry": {"type": "Point", "coordinates": [146.517045, -38.20229681]}, "properties": {"name": "1 STAGG STREET TRARALGON 3844", "locID": "LOC000018692243", "tech": "FTTN", "upgrade": "NULL_NA"}}, {"type": "Feature", "geometry": {"type": "Point", "coordinates": [146.51935345, -38.19208559]}, "properties": {"name": "1 STEELE COURT TRARALGON 3844", "locID": "LOC000060503710", "tech": "FTTN", "upgrade": "NULL_NA"}}, {"type": "Feature", "geometry": {"type": "Point", "coordinates": [146.51209114, -38.18598833]}, "properties": {"name": "1 STIRLING AVENUE TRARALGON 3844", "locID": "LOC000072887091", "tech": "FTTN", "upgrade": "FTTP_NA"}}, {"type": "Feature", "geometry": {"type": "Point", "coordinates": [146.52390835, -38.19152456]}, "properties": {"name": "1 STOCKDALE ROAD TRARALGON 3844", "locID": "LOC000010212426", "tech": "FTTN", "upgrade": "FTTP_NA"}}, {"type": "Feature", "geometry": {"type": "Point", "coordinates": [146.52605861, -38.19864373]}, "properties": {"name": "1 STODDART AVENUE TRARALGON 3844", "locID": "LOC000002043370", "tech": "FTTN", "upgrade": "NULL_NA"}}, {"type": "Feature", "geometry": {"type": "Point", "coordinates": [146.5543015, -38.1824056]}, "properties": {"name": "1 STONEHAVEN ROAD TRARALGON 3844", "locID": "LOC000098106411", "tech": "FTTN", "upgrade": "FTTP_SA"}}, {"type": "Feature", "geometry": {"type": "Point", "coordinates": [146.5532869, -38.18940128]}, "properties": {"name": "1 STRATHCOLE DRIVE TRARALGON 3844", "locID": "LOC000103431690", "tech": "FTTN", "upgrade": "FTTP_SA"}}, {"type": "Feature", "geometry": {"type": "Point", "coordinates": [146.52218485, -38.20484696]}, "properties": {"name": "1 STRZELECKI COURT TRARALGON 3844", "locID": "LOC000092558487", "tech": "FTTN", "upgrade": "NULL_NA"}}, {"type": "Feature", "geometry": {"type": "Point", "coordinates": [146.55805349, -38.20317984]}, "properties": {"name": "1 STUART STREET TRARALGON 3844", "locID": "LOC000106518934", "tech": "FTTN", "upgrade": "NULL_NA"}}, {"type": "Feature", "geometry": {"type": "Point", "coordinates": [146.5071396, -38.1847818]}, "properties": {"name": "1 SUNDALE ROAD TRARALGON 3844", "locID": "LOC000006931762", "tech": "FTTN", "upgrade": "FTTP_NA"}}, {"type": "Feature", "geometry": {"type": "Point", "coordinates": [146.51403221, -38.20271361]}, "properties": {"name": "1 SUNDERLAND CIRCUIT TRARALGON 3844", "locID": "LOC000082930977", "tech": "FTTN", "upgrade": "NULL_NA"}}, {"type": "Feature", "geometry": {"type": "Point", "coordinates": [146.55811201, -38.18386085]}, "properties": {"name": "1 SUNHILL RISE TRARALGON 3844", "locID": "LOC000031988470", "tech": "FTTN", "upgrade": "FTTP_SA"}}, {"type": "Feature", "geometry": {"type": "Point", "coordinates": [146.51447975, -38.18627183]}, "properties": {"name": "1 SUNSET PLACE TRARALGON 3844", "locID": "LOC000085262019", "tech": "FTTN", "upgrade": "FTTP_NA"}}, {"type": "Feature", "geometry": {"type": "Point", "coordinates": [146.50542058, -38.19668306]}, "properties": {"name": "1 SWALLOW GROVE TRARALGON 3844", "locID": "LOC000103288920", "tech": "FTTN", "upgrade": "NULL_NA"}}, {"type": "Feature", "geometry": {"type": "Point", "coordinates": [146.54839236, -38.1813127]}, "properties": {"name": "1 SWINBURNE CRESCENT TRARALGON 3844", "locID": "LOC000148653549", "tech": "FTTP", "upgrade": "NULL_NA"}}, {"type": "Feature", "geometry": {"type": "Point", "coordinates": [146.54959308, -38.19867974]}, "properties": {"name": "1 TANJIL STREET TRARALGON 3844", "locID": "LOC000054033888", "tech": "FTTN", "upgrade": "NULL_NA"}}, {"type": "Feature", "geometry": {"type": "Point", "coordinates": [146.51724753, -38.20510718]}, "properties": {"name": "1 TARA COURT TRARALGON 3844", "locID": "LOC000056371819", "tech": "FTTN", "upgrade": "NULL_NA"}}, {"type": "Feature", "geometry": {"type": "Point", "coordinates": [146.55098028, -38.18591156]}, "properties": {"name": "1 TASMAN CLOSE TRARALGON 3844", "locID": "LOC000104773674", "tech": "FTTN", "upgrade": "FTTP_SA"}}, {"type": "Feature", "geometry": {"type": "Point", "coordinates": [146.55284675, -38.19592326]}, "properties": {"name": "1 TAVEL CLOSE TRARALGON 3844", "locID": "LOC000015359683", "tech": "FTTN", "upgrade": "FTTP_SA"}}, {"type": "Feature", "geometry": {"type": "Point", "coordinates": [146.55638052, -38.20508788]}, "properties": {"name": "1 TAYLOR CRESCENT TRARALGON 3844", "locID": "LOC000057523162", "tech": "FTTN", "upgrade": "NULL_NA"}}, {"type": "Feature", "geometry": {"type": "Point", "coordinates": [146.5424569, -38.20086291]}, "properties": {"name": "1 TENNYSON STREET TRARALGON 3844", "locID": "LOC000018432221", "tech": "FTTN", "upgrade": "FTTP_SA"}}, {"type": "Feature", "geometry": {"type": "Point", "coordinates": [146.55343803, -38.18507905]}, "properties": {"name": "1 THE AVENUE TRARALGON 3844", "locID": "LOC000088830743", "tech": "FTTN", "upgrade": "FTTP_SA"}}, {"type": "Feature", "geometry": {"type": "Point", "coordinates": [146.50331326, -38.18561775]}, "properties": {"name": "1 THEMI PLACE TRARALGON 3844", "locID": "LOC000069990648", "tech": "FTTN", "upgrade": "FTTP_NA"}}, {"type": "Feature", "geometry": {"type": "Point", "coordinates": [146.55707985, -38.2058022]}, "properties": {"name": "1 THEXTON STREET TRARALGON 3844", "locID": "LOC000031079445", "tech": "FTTN", "upgrade": "NULL_NA"}}, {"type": "Feature", "geometry": {"type": "Point", "coordinates": [146.53344242, -38.20122261]}, "properties": {"name": "1 THOMAS STREET TRARALGON 3844", "locID": "LOC000039796250", "tech": "FTTN", "upgrade": "NULL_NA"}}, {"type": "Feature", "geometry": {"type": "Point", "coordinates": [146.55275289, -38.20610215]}, "properties": {"name": "1 TIERNEY COURT TRARALGON 3844", "locID": "LOC000034752004", "tech": "FTTN", "upgrade": "NULL_NA"}}, {"type": "Feature", "geometry": {"type": "Point", "coordinates": [146.52720447, -38.17983378]}, "properties": {"name": "1 TINTERN PLACE TRARALGON 3844", "locID": "LOC000158875308", "tech": "WIRELESS", "upgrade": "NULL_NA"}}, {"type": "Feature", "geometry": {"type": "Point", "coordinates": [146.52491209, -38.1912729]}, "properties": {"name": "1 TOBRUK COURT TRARALGON 3844", "locID": "LOC000106363932", "tech": "FTTN", "upgrade": "FTTP_NA"}}, {"type": "Feature", "geometry": {"type": "Point", "coordinates": [146.55728083, -38.19481071]}, "properties": {"name": "1 TOPAROA COURT TRARALGON 3844", "locID": "LOC000067044928", "tech": "FTTN", "upgrade": "FTTP_SA"}}, {"type": "Feature", "geometry": {"type": "Point", "coordinates": [146.50655132, -38.19477875]}, "properties": {"name": "1 TOUCAN COURT TRARALGON 3844", "locID": "LOC000021183100", "tech": "FTTN", "upgrade": "NULL_NA"}}, {"type": "Feature", "geometry": {"type": "Point", "coordinates": [146.51159498, -38.19269819]}, "properties": {"name": "1 TRENT COURT TRARALGON 3844", "locID": "LOC000071133889", "tech": "FTTN", "upgrade": "NULL_NA"}}, {"type": "Feature", "geometry": {"type": "Point", "coordinates": [146.55242451, -38.1979416]}, "properties": {"name": "1 TRIVALVE COURT TRARALGON 3844", "locID": "LOC000071934845", "tech": "FTTN", "upgrade": "NULL_NA"}}, {"type": "Feature", "geometry": {"type": "Point", "coordinates": [146.5167645, -38.19773496]}, "properties": {"name": "1 TUCKER COURT TRARALGON 3844", "locID": "LOC000069570761", "tech": "FTTN", "upgrade": "NULL_NA"}}, {"type": "Feature", "geometry": {"type": "Point", "coordinates": [146.52364422, -38.17888557]}, "properties": {"name": "1 TUDOR COURT TRARALGON 3844", "locID": "LOC000171522395", "tech": "FTTP", "upgrade": "NULL_NA"}}, {"type": "Feature", "geometry": {"type": "Point", "coordinates": [146.55393351, -38.19630975]}, "properties": {"name": "1 TULLOCH WAY TRARALGON 3844", "locID": "LOC000094088138", "tech": "FTTN", "upgrade": "FTTP_SA"}}, {"type": "Feature", "geometry": {"type": "Point", "coordinates": [146.51409064, -38.18930725]}, "properties": {"name": "1 WALHALLA COURT TRARALGON 3844", "locID": "LOC000079587667", "tech": "FTTN", "upgrade": "FTTP_NA"}}, {"type": "Feature", "geometry": {"type": "Point", "coordinates": [146.52212755, -38.1876196]}, "properties": {"name": "1 WALLACE COURT TRARALGON 3844", "locID": "LOC000025196552", "tech": "FTTN", "upgrade": "FTTP_NA"}}, {"type": "Feature", "geometry": {"type": "Point", "coordinates": [146.53454588, -38.18295562]}, "properties": {"name": "1 WATERFORD COURT TRARALGON 3844", "locID": "LOC000181979229", "tech": "WIRELESS", "upgrade": "NULL_NA"}}, {"type": "Feature", "geometry": {"type": "Point", "coordinates": [146.5539419, -38.20923968]}, "properties": {"name": "1 WATKINS COURT TRARALGON 3844", "locID": "LOC000040991410", "tech": "FTTN", "upgrade": "NULL_NA"}}, {"type": "Feature", "geometry": {"type": "Point", "coordinates": [146.51548599, -38.1921932]}, "properties": {"name": "1 WATSON COURT TRARALGON 3844", "locID": "LOC000083422589", "tech": "FTTN", "upgrade": "NULL_NA"}}, {"type": "Feature", "geometry": {"type": "Point", "coordinates": [146.51822716, -38.20565154]}, "properties": {"name": "1 WATTLE COURT TRARALGON 3844", "locID": "LOC000018017457", "tech": "FTTN", "upgrade": "NULL_NA"}}, {"type": "Feature", "geometry": {"type": "Point", "coordinates": [146.51871499, -38.19865841]}, "properties": {"name": "1 WEBB STREET TRARALGON 3844", "locID": "LOC000074666837", "tech": "FTTN", "upgrade": "NULL_NA"}}, {"type": "Feature", "geometry": {"type": "Point", "coordinates": [146.55854881, -38.20700994]}, "properties": {"name": "1 WELCH COURT TRARALGON 3844", "locID": "LOC000022798046", "tech": "FTTN", "upgrade": "NULL_NA"}}, {"type": "Feature", "geometry": {"type": "Point", "coordinates": [146.52198265, -38.18580799]}, "properties": {"name": "1 WEST COURT TRARALGON 3844", "locID": "LOC000106409471", "tech": "FTTN", "upgrade": "FTTP_NA"}}, {"type": "Feature", "geometry": {"type": "Point", "coordinates": [146.5552802, -38.18252858]}, "properties": {"name": "1 WESTMINSTER STREET TRARALGON 3844", "locID": "LOC000044384068", "tech": "FTTN", "upgrade": "FTTP_SA"}}, {"type": "Feature", "geometry": {"type": "Point", "coordinates": [146.51311421, -38.20895986]}, "properties": {"name": "1 WEXFORD CLOSE TRARALGON 3844", "locID": "LOC000106433818", "tech": "FTTN", "upgrade": "NULL_NA"}}, {"type": "Feature", "geometry": {"type": "Point", "coordinates": [146.55787158, -38.19226816]}, "properties": {"name": "1 WHEELDON COURT TRARALGON 3844", "locID": "LOC000125262974", "tech": "FTTN", "upgrade": "NULL_NA"}}, {"type": "Feature", "geometry": {"type": "Point", "coordinates": [146.5010762, -38.18033519]}, "properties": {"name": "1 WHITNEY LANE TRARALGON 3844", "locID": "LOC000169035967", "tech": "FTTP", "upgrade": "NULL_NA"}}, {"type": "Feature", "geometry": {"type": "Point", "coordinates": [146.51847373, -38.21092495]}, "properties": {"name": "1 WICKLOW STREET TRARALGON 3844", "locID": "LOC000042599454", "tech": "FTTN", "upgrade": "NULL_NA"}}, {"type": "Feature", "geometry": {"type": "Point", "coordinates": [146.5068028, -38.19306445]}, "properties": {"name": "1 WILLAROO COURT TRARALGON 3844", "locID": "LOC000035153149", "tech": "FTTN", "upgrade": "NULL_NA"}}, {"type": "Feature", "geometry": {"type": "Point", "coordinates": [146.54643735, -38.1883989]}, "properties": {"name": "1 WILLIAM CUTHILL COURT TRARALGON 3844", "locID": "LOC000053118992", "tech": "FTTP", "upgrade": "FTTN_CT"}}, {"type": "Feature", "geometry": {"type": "Point", "coordinates": [146.54955236, -38.20286876]}, "properties": {"name": "1 WILLIAM TERRACE TRARALGON 3844", "locID": "LOC000072736962", "tech": "FTTN", "upgrade": "FTTP_SA"}}, {"type": "Feature", "geometry": {"type": "Point", "coordinates": [146.52158213, -38.1979369]}, "properties": {"name": "1 WILLIAMS COURT TRARALGON 3844", "locID": "LOC000106635420", "tech": "FTTN", "upgrade": "NULL_NA"}}, {"type": "Feature", "geometry": {"type": "Point", "coordinates": [146.51615025, -38.1946297]}, "properties": {"name": "1 WILLIS CRESCENT TRARALGON 3844", "locID": "LOC000030962792", "tech": "FTTN", "upgrade": "NULL_NA"}}, {"type": "Feature", "geometry": {"type": "Point", "coordinates": [146.54007813, -38.19115547]}, "properties": {"name": "1 WILLOW COURT TRARALGON 3844", "locID": "LOC000021965675", "tech": "FTTN", "upgrade": "FTTP_SA"}}, {"type": "Feature", "geometry": {"type": "Point", "coordinates": [146.51455005, -38.19031657]}, "properties": {"name": "1 WIRILDA CRESCENT TRARALGON 3844", "locID": "LOC000021060486", "tech": "FTTN", "upgrade": "FTTP_NA"}}, {"type": "Feature", "geometry": {"type": "Point", "coordinates": [146.55421289, -38.19828615]}, "properties": {"name": "1 WOTAN COURT TRARALGON 3844", "locID": "LOC000020242090", "tech": "FTTN", "upgrade": "NULL_NA"}}, {"type": "Feature", "geometry": {"type": "Point", "coordinates": [146.50762656, -38.19188446]}, "properties": {"name": "1 WYLAH COURT TRARALGON 3844", "locID": "LOC000038557952", "tech": "FTTN", "upgrade": "NULL_NA"}}, {"type": "Feature", "geometry": {"type": "Point", "coordinates": [146.50594054, -38.186253]}, "properties": {"name": "1 WYNDHAM COURT TRARALGON 3844", "locID": "LOC000011233721", "tech": "FTTN", "upgrade": "FTTP_NA"}}, {"type": "Feature", "geometry": {"type": "Point", "coordinates": [146.54782064, -38.21175245]}, "properties": {"name": "1 YORK COURT TRARALGON 3844", "locID": "LOC000010294028", "tech": "FTTN", "upgrade": "NULL_NA"}}, {"type": "Feature", "geometry": {"type": "Point", "coordinates": [146.54581084, -38.18731286]}, "properties": {"name": "1 ZANELLA RISE TRARALGON 3844", "locID": "LOC000058618371", "tech": "FTTN", "upgrade": "FTTP_SA"}}, {"type": "Feature", "geometry": {"type": "Point", "coordinates": [146.56054948, -38.18850519]}, "properties": {"name": "1-2 NEFERTITI COURT TRARALGON 3844", "locID": "LOC000164428426", "tech": "FTTN", "upgrade": "NULL_NA"}}, {"type": "Feature", "geometry": {"type": "Point", "coordinates": [146.5523231, -38.18996223]}, "properties": {"name": "1-3 CONWAY COURT TRARALGON 3844", "locID": "LOC000112883174", "tech": "FTTN", "upgrade": "FTTP_SA"}}, {"type": "Feature", "geometry": {"type": "Point", "coordinates": [146.53449091, -38.2011404]}, "properties": {"name": "1-3 DUNBAR ROAD TRARALGON 3844", "locID": "LOC000015866618", "tech": "FTTN", "upgrade": "NULL_NA"}}, {"type": "Feature", "geometry": {"type": "Point", "coordinates": [146.5451658, -38.19534435]}, "properties": {"name": "1-3 GWALIA STREET TRARALGON 3844", "locID": "LOC000104817233", "tech": "FTTN", "upgrade": "NULL_NA"}}, {"type": "Feature", "geometry": {"type": "Point", "coordinates": [146.52645142, -38.20367137]}, "properties": {"name": "1-3 LEILA STREET TRARALGON 3844", "locID": "LOC000066446226", "tech": "FTTN", "upgrade": "NULL_NA"}}, {"type": "Feature", "geometry": {"type": "Point", "coordinates": [146.52696779, -38.19170245]}, "properties": {"name": "1-3 NORMAN STREET TRARALGON 3844", "locID": "LOC000027910281", "tech": "FTTN", "upgrade": "FTTP_NA"}}, {"type": "Feature", "geometry": {"type": "Point", "coordinates": [146.53859826, -38.19528987]}, "properties": {"name": "1-3 POST OFFICE PLACE TRARALGON 3844", "locID": "LOC000180046660", "tech": "FTTN", "upgrade": "NULL_NA"}}, {"type": "Feature", "geometry": {"type": "Point", "coordinates": [146.53670801, -38.201805]}, "properties": {"name": "1-3 SHORT STREET TRARALGON 3844", "locID": "LOC000125263041", "tech": "FTTN", "upgrade": "NULL_NA"}}, {"type": "Feature", "geometry": {"type": "Point", "coordinates": [146.54752934, -38.19599586]}, "properties": {"name": "1-5 CAMPBELL STREET TRARALGON 3844", "locID": "LOC000013904402", "tech": "FTTN", "upgrade": "NULL_NA"}}, {"type": "Feature", "geometry": {"type": "Point", "coordinates": [146.55545187, -38.20621374]}, "properties": {"name": "1-5 FURLONGER STREET TRARALGON 3844", "locID": "LOC000125289039", "tech": "FTTN", "upgrade": "NULL_NA"}}, {"type": "Feature", "geometry": {"type": "Point", "coordinates": [146.52870447, -38.19174835]}, "properties": {"name": "1-9 BURNS STREET TRARALGON 3844", "locID": "LOC000160757973", "tech": "FTTN", "upgrade": "NULL_NA"}}, {"type": "Feature", "geometry": {"type": "Point", "coordinates": [146.50119374, -38.17932172]}, "properties": {"name": "10 ABBY ROAD TRARALGON 3844", "locID": "LOC000169036314", "tech": "FTTP", "upgrade": "NULL_NA"}}, {"type": "Feature", "geometry": {"type": "Point", "coordinates": [146.51969051, -38.205568]},