{"type": "FeatureCollection", "features": [{"type": "Feature", "geometry": {"type": "Point", "coordinates": [151.65755244, -33.03973704]}, "properties": {"name": "1 ADA STREET BELMONT 2280", "locID": "LOC000055763348", "tech": "FTTN", "upgrade": "NULL_NA"}}, {"type": "Feature", "geometry": {"type": "Point", "coordinates": [151.65816569, -33.02921573]}, "properties": {"name": "1 ALBERT STREET BELMONT 2280", "locID": "LOC000053373626", "tech": "FTTN", "upgrade": "FTTP_SA"}}, {"type": "Feature", "geometry": {"type": "Point", "coordinates": [151.6574462, -33.04500708]}, "properties": {"name": "1 ANDRA CLOSE BELMONT 2280", "locID": "LOC000033292372", "tech": "FTTN", "upgrade": "NULL_NA"}}, {"type": "Feature", "geometry": {"type": "Point", "coordinates": [151.65430983, -33.02419775]}, "properties": {"name": "1 AYLWARD STREET BELMONT 2280", "locID": "LOC000060056942", "tech": "FTTN", "upgrade": "NULL_NA"}}, {"type": "Feature", "geometry": {"type": "Point", "coordinates": [151.65601821, -33.04424751]}, "properties": {"name": "1 BELLEVUE ROAD BELMONT 2280", "locID": "LOC000007131528", "tech": "FTTN", "upgrade": "NULL_NA"}}, {"type": "Feature", "geometry": {"type": "Point", "coordinates": [151.65026929, -33.02589056]}, "properties": {"name": "1 BELMONT CRESCENT BELMONT 2280", "locID": "LOC000063238750", "tech": "FTTN", "upgrade": "NULL_NA"}}, {"type": "Feature", "geometry": {"type": "Point", "coordinates": [151.66459048, -33.02754425]}, "properties": {"name": "1 BLUEBELL STREET BELMONT 2280", "locID": "LOC000088186633", "tech": "FTTN", "upgrade": "NULL_NA"}}, {"type": "Feature", "geometry": {"type": "Point", "coordinates": [151.65794475, -33.04417077]}, "properties": {"name": "1 BRANDT CLOSE BELMONT 2280", "locID": "LOC000023258210", "tech": "FTTN", "upgrade": "NULL_NA"}}, {"type": "Feature", "geometry": {"type": "Point", "coordinates": [151.64595301, -33.02377326]}, "properties": {"name": "1 BRUSHTAIL PLACE BELMONT 2280", "locID": "LOC000035729197", "tech": "FTTN", "upgrade": "FTTP_SA"}}, {"type": "Feature", "geometry": {"type": "Point", "coordinates": [151.65661249, -33.04590353]}, "properties": {"name": "1 CAPRI CLOSE BELMONT 2280", "locID": "LOC000046004910", "tech": "FTTN", "upgrade": "NULL_NA"}}, {"type": "Feature", "geometry": {"type": "Point", "coordinates": [151.65723183, -33.03739151]}, "properties": {"name": "1 CLIFT STREET BELMONT 2280", "locID": "LOC000103186886", "tech": "FTTN", "upgrade": "NULL_NA"}}, {"type": "Feature", "geometry": {"type": "Point", "coordinates": [151.66483597, -33.02592727]}, "properties": {"name": "1 COBBIN PARADE BELMONT 2280", "locID": "LOC000104132008", "tech": "FTTN", "upgrade": "NULL_NA"}}, {"type": "Feature", "geometry": {"type": "Point", "coordinates": [151.65080654, -33.02790329]}, "properties": {"name": "1 CROUDACE BAY ROAD BELMONT 2280", "locID": "LOC000083707097", "tech": "FTTN", "upgrade": "FTTP_SA"}}, {"type": "Feature", "geometry": {"type": "Point", "coordinates": [151.6502706, -33.02887129]}, "properties": {"name": "1 CROWN STREET BELMONT 2280", "locID": "LOC000068339294", "tech": "FTTN", "upgrade": "FTTP_SA"}}, {"type": "Feature", "geometry": {"type": "Point", "coordinates": [151.64706418, -33.02760755]}, "properties": {"name": "1 DANIEL STREET BELMONT 2280", "locID": "LOC000092476084", "tech": "FTTN", "upgrade": "FTTP_SA"}}, {"type": "Feature", "geometry": {"type": "Point", "coordinates": [151.66650904, -33.02812271]}, "properties": {"name": "1 DEANE STREET BELMONT 2280", "locID": "LOC000052719594", "tech": "FTTN", "upgrade": "FTTP_SA"}}, {"type": "Feature", "geometry": {"type": "Point", "coordinates": [151.65743174, -33.03374018]}, "properties": {"name": "1 EDGAR STREET BELMONT 2280", "locID": "LOC000003744980", "tech": "FTTN", "upgrade": "NULL_NA"}}, {"type": "Feature", "geometry": {"type": "Point", "coordinates": [151.66199071, -33.03304254]}, "properties": {"name": "1 ERNEST STREET BELMONT 2280", "locID": "LOC000024640412", "tech": "FTTN", "upgrade": "NULL_NA"}}, {"type": "Feature", "geometry": {"type": "Point", "coordinates": [151.66064705, -33.0287662]}, "properties": {"name": "1 EVANS STREET BELMONT 2280", "locID": "LOC000035936297", "tech": "FTTN", "upgrade": "NULL_NA"}}, {"type": "Feature", "geometry": {"type": "Point", "coordinates": [151.66078596, -33.03865198]}, "properties": {"name": "1 GEN STREET BELMONT 2280", "locID": "LOC000044222304", "tech": "FTTN", "upgrade": "NULL_NA"}}, {"type": "Feature", "geometry": {"type": "Point", "coordinates": [151.6488957, -33.02085313]}, "properties": {"name": "1 GENOA CLOSE BELMONT 2280", "locID": "LOC000008887677", "tech": "FTTN", "upgrade": "FTTP_SA"}}, {"type": "Feature", "geometry": {"type": "Point", "coordinates": [151.66461151, -33.03798515]}, "properties": {"name": "1 GEORGE STREET BELMONT 2280", "locID": "LOC000102386554", "tech": "FTTN", "upgrade": "NULL_NA"}}, {"type": "Feature", "geometry": {"type": "Point", "coordinates": [151.65536147, -33.0303931]}, "properties": {"name": "1 GERALD STREET BELMONT 2280", "locID": "LOC000046294899", "tech": "FTTN", "upgrade": "NULL_NA"}}, {"type": "Feature", "geometry": {"type": "Point", "coordinates": [151.66515904, -33.03606925]}, "properties": {"name": "1 GIBSON STREET BELMONT 2280", "locID": "LOC000014919631", "tech": "FTTN", "upgrade": "NULL_NA"}}, {"type": "Feature", "geometry": {"type": "Point", "coordinates": [151.6648885, -33.03506749]}, "properties": {"name": "1 GLOVER STREET BELMONT 2280", "locID": "LOC000036336671", "tech": "FTTN", "upgrade": "NULL_NA"}}, {"type": "Feature", "geometry": {"type": "Point", "coordinates": [151.65358147, -33.02416639]}, "properties": {"name": "1 GREENWOOD AVENUE BELMONT 2280", "locID": "LOC000045850554", "tech": "FTTN", "upgrade": "FTTP_SA"}}, {"type": "Feature", "geometry": {"type": "Point", "coordinates": [151.65969514, -33.02817542]}, "properties": {"name": "1 HENRY STREET BELMONT 2280", "locID": "LOC000147371338", "tech": "FTTN", "upgrade": "FTTP_SA"}}, {"type": "Feature", "geometry": {"type": "Point", "coordinates": [151.66041886, -33.03409419]}, "properties": {"name": "1 HERBERT STREET BELMONT 2280", "locID": "LOC000066613469", "tech": "FTTN", "upgrade": "NULL_NA"}}, {"type": "Feature", "geometry": {"type": "Point", "coordinates": [151.65865981, -33.03737637]}, "properties": {"name": "1 HIGH STREET BELMONT 2280", "locID": "LOC000009075548", "tech": "FTTN", "upgrade": "NULL_NA"}}, {"type": "Feature", "geometry": {"type": "Point", "coordinates": [151.65453866, -33.02582695]}, "properties": {"name": "1 HILL STREET BELMONT 2280", "locID": "LOC000051950198", "tech": "FTTN", "upgrade": "FTTP_SA"}}, {"type": "Feature", "geometry": {"type": "Point", "coordinates": [151.66414175, -33.03117962]}, "properties": {"name": "1 HITCHCOCK AVENUE BELMONT 2280", "locID": "LOC000074687967", "tech": "FTTN", "upgrade": "FTTP_SA"}}, {"type": "Feature", "geometry": {"type": "Point", "coordinates": [151.64392064, -33.02355652]}, "properties": {"name": "1 JACKY CLOSE BELMONT 2280", "locID": "LOC000022188554", "tech": "FTTN", "upgrade": "FTTP_SA"}}, {"type": "Feature", "geometry": {"type": "Point", "coordinates": [151.64591502, -33.02604175]}, "properties": {"name": "1 JEAN STREET BELMONT 2280", "locID": "LOC000095913374", "tech": "FTTN", "upgrade": "FTTP_SA"}}, {"type": "Feature", "geometry": {"type": "Point", "coordinates": [151.66368474, -33.03282849]}, "properties": {"name": "1 KYNETON STREET BELMONT 2280", "locID": "LOC000030048769", "tech": "FTTN", "upgrade": "NULL_NA"}}, {"type": "Feature", "geometry": {"type": "Point", "coordinates": [151.65125274, -33.0291437]}, "properties": {"name": "1 LEWERS STREET BELMONT 2280", "locID": "LOC000026315679", "tech": "FTTN", "upgrade": "NULL_NA"}}, {"type": "Feature", "geometry": {"type": "Point", "coordinates": [151.66614126, -33.02993114]}, "properties": {"name": "1 LIVINGSTONE STREET BELMONT 2280", "locID": "LOC000006830484", "tech": "FTTN", "upgrade": "FTTP_SA"}}, {"type": "Feature", "geometry": {"type": "Point", "coordinates": [151.65920421, -33.02553654]}, "properties": {"name": "1 MACQUARIE DRIVE BELMONT 2280", "locID": "LOC000105293536", "tech": "FTTN", "upgrade": "FTTP_SA"}}, {"type": "Feature", "geometry": {"type": "Point", "coordinates": [151.66493268, -33.03627324]}, "properties": {"name": "1 MACQUARIE STREET BELMONT 2280", "locID": "LOC000105489599", "tech": "FTTN", "upgrade": "NULL_NA"}}, {"type": "Feature", "geometry": {"type": "Point", "coordinates": [151.65454727, -33.0235305]}, "properties": {"name": "1 MARY AVENUE BELMONT 2280", "locID": "LOC000073786675", "tech": "FTTN", "upgrade": "FTTP_SA"}}, {"type": "Feature", "geometry": {"type": "Point", "coordinates": [151.64832667, -33.02251007]}, "properties": {"name": "1 MATELOT PLACE BELMONT 2280", "locID": "LOC000019958418", "tech": "FTTN", "upgrade": "FTTP_SA"}}, {"type": "Feature", "geometry": {"type": "Point", "coordinates": [151.6636177, -33.03364445]}, "properties": {"name": "1 MAUDE STREET BELMONT 2280", "locID": "LOC000100899105", "tech": "FTTN", "upgrade": "NULL_NA"}}, {"type": "Feature", "geometry": {"type": "Point", "coordinates": [151.66403789, -33.03664061]}, "properties": {"name": "1 MAY STREET BELMONT 2280", "locID": "LOC000099581436", "tech": "FTTN", "upgrade": "NULL_NA"}}, {"type": "Feature", "geometry": {"type": "Point", "coordinates": [151.64531601, -33.02678574]}, "properties": {"name": "1 MERIDIAN CLOSE BELMONT 2280", "locID": "LOC000001504438", "tech": "FTTN", "upgrade": "FTTP_SA"}}, {"type": "Feature", "geometry": {"type": "Point", "coordinates": [151.66396148, -33.03205744]}, "properties": {"name": "1 MERLEVIEW STREET BELMONT 2280", "locID": "LOC000099215429", "tech": "FTTN", "upgrade": "NULL_NA"}}, {"type": "Feature", "geometry": {"type": "Point", "coordinates": [151.65554202, -33.02808686]}, "properties": {"name": "1 MONASH STREET BELMONT 2280", "locID": "LOC000144544348", "tech": "FTTN", "upgrade": "NULL_NA"}}, {"type": "Feature", "geometry": {"type": "Point", "coordinates": [151.6512154, -33.02291688]}, "properties": {"name": "1 NERANG PLACE BELMONT 2280", "locID": "LOC000036241109", "tech": "FTTN", "upgrade": "FTTP_SA"}}, {"type": "Feature", "geometry": {"type": "Point", "coordinates": [151.65819003, -33.0268288]}, "properties": {"name": "1 PEARCE AVENUE BELMONT 2280", "locID": "LOC000028797407", "tech": "FTTN", "upgrade": "FTTP_SA"}}, {"type": "Feature", "geometry": {"type": "Point", "coordinates": [151.64091325, -33.02504578]}, "properties": {"name": "1 PEBBLE BEACH COURT BELMONT 2280", "locID": "LOC000024652912", "tech": "FTTN", "upgrade": "FTTP_SA"}}, {"type": "Feature", "geometry": {"type": "Point", "coordinates": [151.66475652, -33.03867616]}, "properties": {"name": "1 RAILWAY PARADE BELMONT 2280", "locID": "LOC000120772362", "tech": "FTTN", "upgrade": "NULL_NA"}}, {"type": "Feature", "geometry": {"type": "Point", "coordinates": [151.66468318, -33.02678296]}, "properties": {"name": "1 REDROSE AVENUE BELMONT 2280", "locID": "LOC000099814316", "tech": "FTTN", "upgrade": "NULL_NA"}}, {"type": "Feature", "geometry": {"type": "Point", "coordinates": [151.65685899, -33.02904642]}, "properties": {"name": "1 ROBB STREET BELMONT 2280", "locID": "LOC000050385238", "tech": "FTTN", "upgrade": "FTTP_SA"}}, {"type": "Feature", "geometry": {"type": "Point", "coordinates": [151.65518168, -33.03158536]}, "properties": {"name": "1 ROSS STREET BELMONT 2280", "locID": "LOC000054528797", "tech": "FTTN", "upgrade": "FTTP_SA"}}, {"type": "Feature", "geometry": {"type": "Point", "coordinates": [151.64805825, -33.0223422]}, "properties": {"name": "1 SABOT CLOSE BELMONT 2280", "locID": "LOC000074596649", "tech": "FTTN", "upgrade": "FTTP_SA"}}, {"type": "Feature", "geometry": {"type": "Point", "coordinates": [151.6592332, -33.036889]}, "properties": {"name": "1 SINGLETON STREET BELMONT 2280", "locID": "LOC100043438630", "tech": "FTTN", "upgrade": "NULL_NA"}}, {"type": "Feature", "geometry": {"type": "Point", "coordinates": [151.66626178, -33.02900102]}, "properties": {"name": "1 STANLEY STREET BELMONT 2280", "locID": "LOC000065471686", "tech": "FTTN", "upgrade": "FTTP_SA"}}, {"type": "Feature", "geometry": {"type": "Point", "coordinates": [151.6427743, -33.02879903]}, "properties": {"name": "1 THE CAPSTAN BELMONT 2280", "locID": "LOC000184314708", "tech": "FTTN", "upgrade": "FTTP_SA"}}, {"type": "Feature", "geometry": {"type": "Point", "coordinates": [151.65042166, -33.0192741]}, "properties": {"name": "1 THE MAINDECK BELMONT 2280", "locID": "LOC000026357558", "tech": "FTTN", "upgrade": "FTTP_SA"}}, {"type": "Feature", "geometry": {"type": "Point", "coordinates": [151.65132481, -33.02998507]}, "properties": {"name": "1 THE PARADE BELMONT 2280", "locID": "LOC000004713529", "tech": "FTTN", "upgrade": "NULL_NA"}}, {"type": "Feature", "geometry": {"type": "Point", "coordinates": [151.64448623, -33.02839165]}, "properties": {"name": "1 THE SHORES WAY BELMONT 2280", "locID": "LOC000080896920", "tech": "FTTN", "upgrade": "FTTP_SA"}}, {"type": "Feature", "geometry": {"type": "Point", "coordinates": [151.64452998, -33.0265975]}, "properties": {"name": "1 TOPGALLANT WAY BELMONT 2280", "locID": "LOC000099966211", "tech": "FTTN", "upgrade": "FTTP_SA"}}, {"type": "Feature", "geometry": {"type": "Point", "coordinates": [151.65379628, -33.02580256]}, "properties": {"name": "1 TUDOR STREET BELMONT 2280", "locID": "LOC000023174656", "tech": "FTTN", "upgrade": "FTTP_SA"}}, {"type": "Feature", "geometry": {"type": "Point", "coordinates": [151.65741229, -33.0322612]}, "properties": {"name": "1 TURNER STREET BELMONT 2280", "locID": "LOC000077050207", "tech": "FTTN", "upgrade": "NULL_NA"}}, {"type": "Feature", "geometry": {"type": "Point", "coordinates": [151.64602788, -33.02909001]}, "properties": {"name": "1 VIEW STREET BELMONT 2280", "locID": "LOC000056873865", "tech": "FTTN", "upgrade": "FTTP_SA"}}, {"type": "Feature", "geometry": {"type": "Point", "coordinates": [151.65691686, -33.02533307]}, "properties": {"name": "1 VISTA PARADE BELMONT 2280", "locID": "LOC000094170195", "tech": "FTTN", "upgrade": "FTTP_SA"}}, {"type": "Feature", "geometry": {"type": "Point", "coordinates": [151.65799686, -33.03621667]}, "properties": {"name": "1 WALTER STREET BELMONT 2280", "locID": "LOC000082346555", "tech": "FTTN", "upgrade": "NULL_NA"}}, {"type": "Feature", "geometry": {"type": "Point", "coordinates": [151.64102566, -33.02406647]}, "properties": {"name": "1 WHIPBIRD WAY BELMONT 2280", "locID": "LOC000003827943", "tech": "FTTN", "upgrade": "FTTP_SA"}}, {"type": "Feature", "geometry": {"type": "Point", "coordinates": [151.65886548, -33.02953991]}, "properties": {"name": "10 ALBERT STREET BELMONT 2280", "locID": "LOC000025570382", "tech": "FTTN", "upgrade": "FTTP_SA"}}, {"type": "Feature", "geometry": {"type": "Point", "coordinates": [151.65182352, -33.02218003]}, "properties": {"name": "10 ANCHOR CLOSE BELMONT 2280", "locID": "LOC000053991995", "tech": "FTTN", "upgrade": "FTTP_SA"}}, {"type": "Feature", "geometry": {"type": "Point", "coordinates": [151.65815578, -33.04558078]}, "properties": {"name": "10 ANDRA CLOSE BELMONT 2280", "locID": "LOC000084427784", "tech": "FTTN", "upgrade": "NULL_NA"}}, {"type": "Feature", "geometry": {"type": "Point", "coordinates": [151.65275717, -33.02504538]}, "properties": {"name": "10 AYLWARD STREET BELMONT 2280", "locID": "LOC000105389844", "tech": "FTTN", "upgrade": "FTTP_SA"}}, {"type": "Feature", "geometry": {"type": "Point", "coordinates": [151.65495303, -33.0441294]}, "properties": {"name": "10 BELLEVUE ROAD BELMONT 2280", "locID": "LOC000009642642", "tech": "FTTN", "upgrade": "NULL_NA"}}, {"type": "Feature", "geometry": {"type": "Point", "coordinates": [151.64941827, -33.02665287]}, "properties": {"name": "10 BELMONT CRESCENT BELMONT 2280", "locID": "LOC000043947681", "tech": "FTTN", "upgrade": "NULL_NA"}}, {"type": "Feature", "geometry": {"type": "Point", "coordinates": [151.66607201, -33.02687213]}, "properties": {"name": "10 BLUEBELL STREET BELMONT 2280", "locID": "LOC000008872266", "tech": "FTTN", "upgrade": "NULL_NA"}}, {"type": "Feature", "geometry": {"type": "Point", "coordinates": [151.65847128, -33.0447296]}, "properties": {"name": "10 BRANDT CLOSE BELMONT 2280", "locID": "LOC000013328620", "tech": "FTTN", "upgrade": "NULL_NA"}}, {"type": "Feature", "geometry": {"type": "Point", "coordinates": [151.65617785, -33.03303429]}, "properties": {"name": "10 BROOKS PARADE BELMONT 2280", "locID": "LOC000076676069", "tech": "FTTN", "upgrade": "NULL_NA"}}, {"type": "Feature", "geometry": {"type": "Point", "coordinates": [151.6450393, -33.02454292]}, "properties": {"name": "10 BRUSHTAIL PLACE BELMONT 2280", "locID": "LOC000084039914", "tech": "FTTN", "upgrade": "FTTP_SA"}}, {"type": "Feature", "geometry": {"type": "Point", "coordinates": [151.66261987, -33.03565067]}, "properties": {"name": "10 CHURCH STREET BELMONT 2280", "locID": "LOC000013204801", "tech": "FTTN", "upgrade": "NULL_NA"}}, {"type": "Feature", "geometry": {"type": "Point", "coordinates": [151.66397406, -33.02620692]}, "properties": {"name": "10 COBBIN PARADE BELMONT 2280", "locID": "LOC000056020979", "tech": "FTTN", "upgrade": "NULL_NA"}}, {"type": "Feature", "geometry": {"type": "Point", "coordinates": [151.6506495, -33.02660371]}, "properties": {"name": "10 CROUDACE BAY ROAD BELMONT 2280", "locID": "LOC000022284953", "tech": "FTTN", "upgrade": "NULL_NA"}}, {"type": "Feature", "geometry": {"type": "Point", "coordinates": [151.64934572, -33.02885552]}, "properties": {"name": "10 CROWN STREET BELMONT 2280", "locID": "LOC000044541496", "tech": "FTTN", "upgrade": "FTTP_SA"}}, {"type": "Feature", "geometry": {"type": "Point", "coordinates": [151.64691687, -33.02916773]}, "properties": {"name": "10 DANIEL STREET BELMONT 2280", "locID": "LOC000074467361", "tech": "FTTN", "upgrade": "FTTP_SA"}}, {"type": "Feature", "geometry": {"type": "Point", "coordinates": [151.66572714, -33.02856592]}, "properties": {"name": "10 DEANE STREET BELMONT 2280", "locID": "LOC000048353463", "tech": "FTTN", "upgrade": "FTTP_SA"}}, {"type": "Feature", "geometry": {"type": "Point", "coordinates": [151.66004301, -33.02923582]}, "properties": {"name": "10 EVANS STREET BELMONT 2280", "locID": "LOC000070465133", "tech": "FTTN", "upgrade": "FTTP_SA"}}, {"type": "Feature", "geometry": {"type": "Point", "coordinates": [151.66343539, -33.03834298]}, "properties": {"name": "10 GEORGE STREET BELMONT 2280", "locID": "LOC000009689535", "tech": "FTTN", "upgrade": "NULL_NA"}}, {"type": "Feature", "geometry": {"type": "Point", "coordinates": [151.65623034, -33.0294538]}, "properties": {"name": "10 GERALD STREET BELMONT 2280", "locID": "LOC000055427417", "tech": "FTTN", "upgrade": "FTTP_SA"}}, {"type": "Feature", "geometry": {"type": "Point", "coordinates": [151.66548922, -33.03606443]}, "properties": {"name": "10 GIBSON STREET BELMONT 2280", "locID": "LOC000143690743", "tech": "FTTN", "upgrade": "NULL_NA"}}, {"type": "Feature", "geometry": {"type": "Point", "coordinates": [151.6643749, -33.03565061]}, "properties": {"name": "10 GLOVER STREET BELMONT 2280", "locID": "LOC100032539107", "tech": "FTTN", "upgrade": "NULL_NA"}}, {"type": "Feature", "geometry": {"type": "Point", "coordinates": [151.65263581, -33.02451285]}, "properties": {"name": "10 GREENWOOD AVENUE BELMONT 2280", "locID": "LOC000037356149", "tech": "FTTN", "upgrade": "FTTP_SA"}}, {"type": "Feature", "geometry": {"type": "Point", "coordinates": [151.65623159, -33.02477609]}, "properties": {"name": "10 HAIG STREET BELMONT 2280", "locID": "LOC000103637184", "tech": "FTTN", "upgrade": "FTTP_SA"}}, {"type": "Feature", "geometry": {"type": "Point", "coordinates": [151.66361837, -33.03713396]}, "properties": {"name": "10 HALL STREET BELMONT 2280", "locID": "LOC000015437169", "tech": "FTTN", "upgrade": "NULL_NA"}}, {"type": "Feature", "geometry": {"type": "Point", "coordinates": [151.6514746, -33.02110387]}, "properties": {"name": "10 HALYARD WAY BELMONT 2280", "locID": "LOC000055939685", "tech": "FTTN", "upgrade": "FTTP_SA"}}, {"type": "Feature", "geometry": {"type": "Point", "coordinates": [151.65970443, -33.03453715]}, "properties": {"name": "10 HERBERT STREET BELMONT 2280", "locID": "LOC000038097801", "tech": "FTTN", "upgrade": "NULL_NA"}}, {"type": "Feature", "geometry": {"type": "Point", "coordinates": [151.64425984, -33.02292024]}, "properties": {"name": "10 HERON PLACE BELMONT 2280", "locID": "LOC000064313712", "tech": "FTTN", "upgrade": "FTTP_SA"}}, {"type": "Feature", "geometry": {"type": "Point", "coordinates": [151.65930135, -33.03758751]}, "properties": {"name": "10 HIGH STREET BELMONT 2280", "locID": "LOC000001602197", "tech": "FTTN", "upgrade": "NULL_NA"}}, {"type": "Feature", "geometry": {"type": "Point", "coordinates": [151.65624561, -33.02213558]}, "properties": {"name": "10 HILL STREET BELMONT 2280", "locID": "LOC000010057797", "tech": "FTTN", "upgrade": "FTTP_SA"}}, {"type": "Feature", "geometry": {"type": "Point", "coordinates": [151.66341072, -33.03163698]}, "properties": {"name": "10 HITCHCOCK AVENUE BELMONT 2280", "locID": "LOC000051929438", "tech": "FTTN", "upgrade": "FTTP_SA"}}, {"type": "Feature", "geometry": {"type": "Point", "coordinates": [151.64287406, -33.02353587]}, "properties": {"name": "10 JACKY CLOSE BELMONT 2280", "locID": "LOC000038143226", "tech": "FTTN", "upgrade": "FTTP_SA"}}, {"type": "Feature", "geometry": {"type": "Point", "coordinates": [151.64641417, -33.02751516]}, "properties": {"name": "10 JEAN STREET BELMONT 2280", "locID": "LOC000031153457", "tech": "FTTN", "upgrade": "FTTP_SA"}}, {"type": "Feature", "geometry": {"type": "Point", "coordinates": [151.66307231, -33.03325204]}, "properties": {"name": "10 KYNETON STREET BELMONT 2280", "locID": "LOC000072358989", "tech": "FTTN", "upgrade": "NULL_NA"}}, {"type": "Feature", "geometry": {"type": "Point", "coordinates": [151.65034449, -33.02849818]}, "properties": {"name": "10 LEWERS STREET BELMONT 2280", "locID": "LOC000068805100", "tech": "FTTN", "upgrade": "FTTP_SA"}}, {"type": "Feature", "geometry": {"type": "Point", "coordinates": [151.66521023, -33.03065929]}, "properties": {"name": "10 LIVINGSTONE STREET BELMONT 2280", "locID": "LOC000016385538", "tech": "FTTN", "upgrade": "FTTP_SA"}}, {"type": "Feature", "geometry": {"type": "Point", "coordinates": [151.65658056, -33.02483167]}, "properties": {"name": "10 MACQUARIE DRIVE BELMONT 2280", "locID": "LOC000002235858", "tech": "FTTN", "upgrade": "FTTP_SA"}}, {"type": "Feature", "geometry": {"type": "Point", "coordinates": [151.66298064, -33.03654424]}, "properties": {"name": "10 MACQUARIE STREET BELMONT 2280", "locID": "LOC000002220406", "tech": "FTTN", "upgrade": "NULL_NA"}}, {"type": "Feature", "geometry": {"type": "Point", "coordinates": [151.65841865, -33.03137608]}, "properties": {"name": "10 MARKS STREET BELMONT 2280", "locID": "LOC000110144725", "tech": "FTTN", "upgrade": "NULL_NA"}}, {"type": "Feature", "geometry": {"type": "Point", "coordinates": [151.64827221, -33.02168141]}, "properties": {"name": "10 MATELOT PLACE BELMONT 2280", "locID": "LOC000037442239", "tech": "FTTN", "upgrade": "FTTP_SA"}}, {"type": "Feature", "geometry": {"type": "Point", "coordinates": [151.66467072, -33.03735944]}, "properties": {"name": "10 MAY STREET BELMONT 2280", "locID": "LOC000042288702", "tech": "FTTN", "upgrade": "NULL_NA"}}, {"type": "Feature", "geometry": {"type": "Point", "coordinates": [151.64473292, -33.02747977]}, "properties": {"name": "10 MERIDIAN CLOSE BELMONT 2280", "locID": "LOC000110044678", "tech": "FTTN", "upgrade": "FTTP_SA"}}, {"type": "Feature", "geometry": {"type": "Point", "coordinates": [151.66309845, -33.03243774]}, "properties": {"name": "10 MERLEVIEW STREET BELMONT 2280", "locID": "LOC000010454456", "tech": "FTTN", "upgrade": "NULL_NA"}}, {"type": "Feature", "geometry": {"type": "Point", "coordinates": [151.65238846, -33.02277031]}, "properties": {"name": "10 NERANG PLACE BELMONT 2280", "locID": "LOC000092441167", "tech": "FTTN", "upgrade": "FTTP_SA"}}, {"type": "Feature", "geometry": {"type": "Point", "coordinates": [151.64315997, -33.02251659]}, "properties": {"name": "10 ORIOLE COURT BELMONT 2280", "locID": "LOC000032305837", "tech": "FTTN", "upgrade": "FTTP_SA"}}, {"type": "Feature", "geometry": {"type": "Point", "coordinates": [151.65734379, -33.027535]}, "properties": {"name": "10 PEARCE AVENUE BELMONT 2280", "locID": "LOC000099943556", "tech": "FTTN", "upgrade": "FTTP_SA"}}, {"type": "Feature", "geometry": {"type": "Point", "coordinates": [151.64242902, -33.02573816]}, "properties": {"name": "10 PEBBLE BEACH COURT BELMONT 2280", "locID": "LOC000043048775", "tech": "FTTN", "upgrade": "FTTP_SA"}}, {"type": "Feature", "geometry": {"type": "Point", "coordinates": [151.66389997, -33.02731774]}, "properties": {"name": "10 REDROSE AVENUE BELMONT 2280", "locID": "LOC000017517054", "tech": "FTTN", "upgrade": "NULL_NA"}}, {"type": "Feature", "geometry": {"type": "Point", "coordinates": [151.65753785, -33.02963305]}, "properties": {"name": "10 ROBB STREET BELMONT 2280", "locID": "LOC000058638885", "tech": "FTTN", "upgrade": "FTTP_SA"}}, {"type": "Feature", "geometry": {"type": "Point", "coordinates": [151.65468014, -33.03199099]}, "properties": {"name": "10 ROSS STREET BELMONT 2280", "locID": "LOC000037028962", "tech": "FTTN", "upgrade": "FTTP_SA"}}, {"type": "Feature", "geometry": {"type": "Point", "coordinates": [151.64762543, -33.02248532]}, "properties": {"name": "10 SABOT CLOSE BELMONT 2280", "locID": "LOC000055902400", "tech": "FTTN", "upgrade": "FTTP_SA"}}, {"type": "Feature", "geometry": {"type": "Point", "coordinates": [151.6487411, -33.02191588]}, "properties": {"name": "10 SEAFARER CLOSE BELMONT 2280", "locID": "LOC000072531461", "tech": "FTTN", "upgrade": "FTTP_SA"}}, {"type": "Feature", "geometry": {"type": "Point", "coordinates": [151.65819329, -33.03443713]}, "properties": {"name": "10 SHARP STREET BELMONT 2280", "locID": "LOC000069981879", "tech": "FTTN", "upgrade": "NULL_NA"}}, {"type": "Feature", "geometry": {"type": "Point", "coordinates": [151.65393975, -33.0228091]}, "properties": {"name": "10 SPINNAKER RIDGE WAY BELMONT 2280", "locID": "LOC000027292731", "tech": "FTTN", "upgrade": "FTTP_SA"}}, {"type": "Feature", "geometry": {"type": "Point", "coordinates": [151.66550494, -33.02944302]}, "properties": {"name": "10 STANLEY STREET BELMONT 2280", "locID": "LOC000096334207", "tech": "FTTN", "upgrade": "FTTP_SA"}}, {"type": "Feature", "geometry": {"type": "Point", "coordinates": [151.64506725, -33.02268056]}, "properties": {"name": "10 SUGARGLIDER COURT BELMONT 2280", "locID": "LOC000095701917", "tech": "FTTN", "upgrade": "FTTP_SA"}}, {"type": "Feature", "geometry": {"type": "Point", "coordinates": [151.64279417, -33.02800726]}, "properties": {"name": "10 THE CAPSTAN BELMONT 2280", "locID": "LOC000041642632", "tech": "FTTN", "upgrade": "FTTP_SA"}}, {"type": "Feature", "geometry": {"type": "Point", "coordinates": [151.65144945, -33.01991176]}, "properties": {"name": "10 THE MAINDECK BELMONT 2280", "locID": "LOC000098828524", "tech": "FTTN", "upgrade": "FTTP_SA"}}, {"type": "Feature", "geometry": {"type": "Point", "coordinates": [151.64406739, -33.02956461]}, "properties": {"name": "10 THE MAINSAIL BELMONT 2280", "locID": "LOC000011371551", "tech": "FTTN", "upgrade": "FTTP_SA"}}, {"type": "Feature", "geometry": {"type": "Point", "coordinates": [151.64317064, -33.0285958]}, "properties": {"name": "10 THE SHORES WAY BELMONT 2280", "locID": "LOC000078406449", "tech": "FTTN", "upgrade": "FTTP_SA"}}, {"type": "Feature", "geometry": {"type": "Point", "coordinates": [151.65973478, -33.03488897]}, "properties": {"name": "10 THOMAS STREET BELMONT 2280", "locID": "LOC000023359938", "tech": "FTTN", "upgrade": "NULL_NA"}}, {"type": "Feature", "geometry": {"type": "Point", "coordinates": [151.64540671, -33.02641706]}, "properties": {"name": "10 TOPGALLANT WAY BELMONT 2280", "locID": "LOC000099966211", "tech": "FTTN", "upgrade": "FTTP_SA"}}, {"type": "Feature", "geometry": {"type": "Point", "coordinates": [151.65283111, -33.02591459]}, "properties": {"name": "10 TUDOR STREET BELMONT 2280", "locID": "LOC000049806282", "tech": "FTTN", "upgrade": "FTTP_SA"}}, {"type": "Feature", "geometry": {"type": "Point", "coordinates": [151.65717207, -33.03275976]}, "properties": {"name": "10 TURNER STREET BELMONT 2280", "locID": "LOC000071156659", "tech": "FTTN", "upgrade": "NULL_NA"}}, {"type": "Feature", "geometry": {"type": "Point", "coordinates": [151.64523622, -33.02958428]}, "properties": {"name": "10 VIEW STREET BELMONT 2280", "locID": "LOC000102148716", "tech": "FTTN", "upgrade": "FTTP_SA"}}, {"type": "Feature", "geometry": {"type": "Point", "coordinates": [151.65793713, -33.02587038]}, "properties": {"name": "10 VISTA PARADE BELMONT 2280", "locID": "LOC000042796685", "tech": "FTTN", "upgrade": "FTTP_SA"}}, {"type": "Feature", "geometry": {"type": "Point", "coordinates": [151.65849099, -33.03678438]}, "properties": {"name": "10 WALTER STREET BELMONT 2280", "locID": "LOC000040360835", "tech": "FTTN", "upgrade": "NULL_NA"}}, {"type": "Feature", "geometry": {"type": "Point", "coordinates": [151.64221725, -33.02415722]}, "properties": {"name": "10 WHIPBIRD WAY BELMONT 2280", "locID": "LOC000024674815", "tech": "FTTN", "upgrade": "FTTP_SA"}}, {"type": "Feature", "geometry": {"type": "Point", "coordinates": [151.65391051, -33.02883093]}, "properties": {"name": "100 HILL STREET BELMONT 2280", "locID": "LOC000088234828", "tech": "FTTN", "upgrade": "FTTP_SA"}}, {"type": "Feature", "geometry": {"type": "Point", "coordinates": [151.64801707, -33.03048352]}, "properties": {"name": "100 ROSS STREET BELMONT 2280", "locID": "LOC000077537938", "tech": "FTTN", "upgrade": "FTTP_SA"}}, {"type": "Feature", "geometry": {"type": "Point", "coordinates": [151.65357653, -33.02943653]}, "properties": {"name": "101 HILL STREET BELMONT 2280", "locID": "LOC000055580848", "tech": "FTTN", "upgrade": "FTTP_SA"}}, {"type": "Feature", "geometry": {"type": "Point", "coordinates": [151.65349596, -33.02927547]}, "properties": {"name": "101A HILL STREET BELMONT 2280", "locID": "LOC000056130303", "tech": "FTTN", "upgrade": "FTTP_SA"}}, {"type": "Feature", "geometry": {"type": "Point", "coordinates": [151.65386458, -33.02900992]}, "properties": {"name": "102 HILL STREET BELMONT 2280", "locID": "LOC000062076773", "tech": "FTTN", "upgrade": "FTTP_SA"}}, {"type": "Feature", "geometry": {"type": "Point", "coordinates": [151.64805124, -33.03004339]}, "properties": {"name": "102 ROSS STREET BELMONT 2280", "locID": "LOC100034708274", "tech": "FTTN", "upgrade": "FTTP_SA"}}, {"type": "Feature", "geometry": {"type": "Point", "coordinates": [151.64472107, -33.02991953]}, "properties": {"name": "103 ROSS STREET BELMONT 2280", "locID": "LOC000007416952", "tech": "FTTN", "upgrade": "FTTP_SA"}}, {"type": "Feature", "geometry": {"type": "Point", "coordinates": [151.64448527, -33.029914]}, "properties": {"name": "105 ROSS STREET BELMONT 2280", "locID": "LOC000068411872", "tech": "FTTN", "upgrade": "FTTP_SA"}}, {"type": "Feature", "geometry": {"type": "Point", "coordinates": [151.6478602, -33.03034628]}, "properties": {"name": "106 ROSS STREET BELMONT 2280", "locID": "LOC000006407034", "tech": "FTTN", "upgrade": "FTTP_SA"}}, {"type": "Feature", "geometry": {"type": "Point", "coordinates": [151.64424387, -33.0299159]}, "properties": {"name": "107 ROSS STREET BELMONT 2280", "locID": "LOC000043278747", "tech": "FTTP", "upgrade": "FTTN_CT"}}, {"type": "Feature", "geometry": {"type": "Point", "coordinates": [151.64770393, -33.03061553]}, "properties": {"name": "108 ROSS STREET BELMONT 2280", "locID": "LOC000076389554", "tech": "FTTN", "upgrade": "FTTP_SA"}}, {"type": "Feature", "geometry": {"type": "Point", "coordinates": [151.64401241, -33.02992521]}, "properties": {"name": "109 ROSS STREET BELMONT 2280", "locID": "LOC000093972481", "tech": "FTTN", "upgrade": "FTTP_SA"}}, {"type": "Feature", "geometry": {"type": "Point", "coordinates": [151.65617785, -33.03303429]}, "properties": {"name": "10A BROOKS PARADE BELMONT 2280", "locID": "LOC000112776140", "tech": "FTTN", "upgrade": "NULL_NA"}}, {"type": "Feature", "geometry": {"type": "Point", "coordinates": [151.65804971, -33.02981256]}, "properties": {"name": "11 ALBERT STREET BELMONT 2280", "locID": "LOC000070726595", "tech": "FTTN", "upgrade": "NULL_NA"}}, {"type": "Feature", "geometry": {"type": "Point", "coordinates": [151.65239891, -33.02159307]}, "properties": {"name": "11 ANCHOR CLOSE BELMONT 2280", "locID": "LOC000079850414", "tech": "FTTN", "upgrade": "FTTP_SA"}}, {"type": "Feature", "geometry": {"type": "Point", "coordinates": [151.65375044, -33.02481388]}, "properties": {"name": "11 AYLWARD STREET BELMONT 2280", "locID": "LOC000008334746", "tech": "FTTN", "upgrade": "FTTP_SA"}}, {"type": "Feature", "geometry": {"type": "Point", "coordinates": [151.65630361, -33.0435056]}, "properties": {"name": "11 BELLEVUE ROAD BELMONT 2280", "locID": "LOC000003182896", "tech": "FTTN", "upgrade": "NULL_NA"}}, {"type": "Feature", "geometry": {"type": "Point", "coordinates": [151.64945293, -33.02596786]}, "properties": {"name": "11 BELMONT CRESCENT BELMONT 2280", "locID": "LOC000063161261", "tech": "FTTN", "upgrade": "NULL_NA"}}, {"type": "Feature", "geometry": {"type": "Point", "coordinates": [151.64573202, -33.02490371]}, "properties": {"name": "11 BRUSHTAIL PLACE BELMONT 2280", "locID": "LOC000107368587", "tech": "FTTN", "upgrade": "FTTP_SA"}}, {"type": "Feature", "geometry": {"type": "Point", "coordinates": [151.66385026, -33.02579299]}, "properties": {"name": "11 COBBIN PARADE BELMONT 2280", "locID": "LOC000063945050", "tech": "FTTN", "upgrade": "NULL_NA"}}, {"type": "Feature", "geometry": {"type": "Point", "coordinates": [151.64968845, -33.02828429]}, "properties": {"name": "11 CROWN STREET BELMONT 2280", "locID": "LOC000107334704", "tech": "FTTN", "upgrade": "FTTP_SA"}}, {"type": "Feature", "geometry": {"type": "Point", "coordinates": [151.64627262, -33.02900836]}, "properties": {"name": "11 DANIEL STREET BELMONT 2280", "locID": "LOC000025493774", "tech": "FTTN", "upgrade": "FTTP_SA"}}, {"type": "Feature", "geometry": {"type": "Point", "coordinates": [151.66569543, -33.02801108]}, "properties": {"name": "11 DEANE STREET BELMONT 2280", "locID": "LOC000105570938", "tech": "FTTN", "upgrade": "FTTP_SA"}}, {"type": "Feature", "geometry": {"type": "Point", "coordinates": [151.65794843, -33.03427893]}, "properties": {"name": "11 EDGAR STREET BELMONT 2280", "locID": "LOC000098797846", "tech": "FTTN", "upgrade": "NULL_NA"}}, {"type": "Feature", "geometry": {"type": "Point", "coordinates": [151.66121535, -33.03579093]}, "properties": {"name": "11 ERNEST STREET BELMONT 2280", "locID": "LOC000151194017", "tech": "FTTP", "upgrade": "NULL_NA"}}, {"type": "Feature", "geometry": {"type": "Point", "coordinates": [151.65980747, -33.02864853]}, "properties": {"name": "11 EVANS STREET BELMONT 2280", "locID": "LOC000046022027", "tech": "FTTN", "upgrade": "FTTP_SA"}}, {"type": "Feature", "geometry": {"type": "Point", "coordinates": [151.65999821, -33.03826882]}, "properties": {"name": "11 GEN STREET BELMONT 2280", "locID": "LOC000059175827", "tech": "FTTN", "upgrade": "NULL_NA"}}, {"type": "Feature", "geometry": {"type": "Point", "coordinates": [151.66392299, -33.03787588]}, "properties": {"name": "11 GEORGE STREET BELMONT 2280", "locID": "LOC000057370314", "tech": "FTTN", "upgrade": "NULL_NA"}}, {"type": "Feature", "geometry": {"type": "Point", "coordinates": [151.65271409, -33.02402671]}, "properties": {"name": "11 GREENWOOD AVENUE BELMONT 2280", "locID": "LOC000095440585", "tech": "FTTN", "upgrade": "FTTP_SA"}}, {"type": "Feature", "geometry": {"type": "Point", "coordinates": [151.65561684, -33.02467454]}, "properties": {"name": "11 HAIG STREET BELMONT 2280", "locID": "LOC000031308046", "tech": "FTTN", "upgrade": "FTTP_SA"}}, {"type": "Feature", "geometry": {"type": "Point", "coordinates": [151.65057052, -33.02091534]}, "properties": {"name": "11 HALYARD WAY BELMONT 2280", "locID": "LOC000009020848", "tech": "FTTN", "upgrade": "FTTP_SA"}}, {"type": "Feature", "geometry": {"type": "Point", "coordinates": [151.65937225, -33.02972965]}, "properties": {"name": "11 HENRY STREET BELMONT 2280", "locID": "LOC000037094591", "tech": "FTTN", "upgrade": "FTTP_SA"}}, {"type": "Feature", "geometry": {"type": "Point", "coordinates": [151.65995179, -33.03402053]}, "properties": {"name": "11 HERBERT STREET BELMONT 2280", "locID": "LOC000100884677", "tech": "FTTN", "upgrade": "NULL_NA"}}, {"type": "Feature", "geometry": {"type": "Point", "coordinates": [151.64373648, -33.02220214]}, "properties": {"name": "11 HERON PLACE BELMONT 2280", "locID": "LOC000072618488", "tech": "FTTN", "upgrade": "FTTP_SA"}}, {"type": "Feature", "geometry": {"type": "Point", "coordinates": [151.65490521, -33.02266329]}, "properties": {"name": "11 HILL STREET BELMONT 2280", "locID": "LOC000064910958", "tech": "FTTN", "upgrade": "FTTP_SA"}}, {"type": "Feature", "geometry": {"type": "Point", "coordinates": [151.66335795, -33.03107109]}, "properties": {"name": "11 HITCHCOCK AVENUE BELMONT 2280", "locID": "LOC000087324849", "tech": "FTTN", "upgrade": "FTTP_SA"}}, {"type": "Feature", "geometry": {"type": "Point", "coordinates": [151.64294589, -33.0237928]}, "properties": {"name": "11 JACKY CLOSE BELMONT 2280", "locID": "LOC000005113456", "tech": "FTTN", "upgrade": "FTTP_SA"}}, {"type": "Feature", "geometry": {"type": "Point", "coordinates": [151.64578278, -33.02669567]}, "properties": {"name": "11 JEAN STREET BELMONT 2280", "locID": "LOC000018806173", "tech": "FTTN", "upgrade": "FTTP_SA"}}, {"type": "Feature", "geometry": {"type": "Point", "coordinates": [151.66287621, -33.03272406]}, "properties": {"name": "11 KYNETON STREET BELMONT 2280", "locID": "LOC000091816022", "tech": "FTTN", "upgrade": "NULL_NA"}}, {"type": "Feature", "geometry": {"type": "Point", "coordinates": [151.65701899, -33.0227612]}, "properties": {"name": "11 LEE ANN CRESCENT BELMONT 2280", "locID": "LOC000020524704", "tech": "FTTN", "upgrade": "FTTP_SA"}}, {"type": "Feature", "geometry": {"type": "Point", "coordinates": [151.65103917, -33.02854104]}, "properties": {"name": "11 LEWERS STREET BELMONT 2280", "locID": "LOC000026313437", "tech": "FTTN", "upgrade": "FTTP_SA"}}, {"type": "Feature", "geometry": {"type": "Point", "coordinates": [151.66526803, -33.02981199]}, "properties": {"name": "11 LIVINGSTONE STREET BELMONT 2280", "locID": "LOC000100104581", "tech": "FTTN", "upgrade": "FTTP_SA"}}, {"type": "Feature", "geometry": {"type": "Point", "coordinates": [151.65842166, -33.02538703]}, "properties": {"name": "11 MACQUARIE DRIVE BELMONT 2280", "locID": "LOC000080548970", "tech": "FTTN", "upgrade": "FTTP_SA"}}, {"type": "Feature", "geometry": {"type": "Point", "coordinates": [151.66413997, -33.03614888]}, "properties": {"name": "11 MACQUARIE STREET BELMONT 2280", "locID": "LOC000080534498", "tech": "FTTN", "upgrade": "NULL_NA"}}, {"type": "Feature", "geometry": {"type": "Point", "coordinates": [151.65852687, -33.03085762]}, "properties": {"name": "11 MARKS STREET BELMONT 2280", "locID": "LOC000046808377", "tech": "FTTN", "upgrade": "NULL_NA"}}, {"type": "Feature", "geometry": {"type": "Point", "coordinates": [151.65384122, -33.02395572]}, "properties": {"name": "11 MARY AVENUE BELMONT 2280", "locID": "LOC000078659312", "tech": "FTTN", "upgrade": "FTTP_SA"}}, {"type": "Feature", "geometry": {"type": "Point", "coordinates": [151.64735589, -33.02184131]}, "properties": {"name": "11 MATELOT PLACE BELMONT 2280", "locID": "LOC000085031755", "tech": "FTTN", "upgrade": "FTTP_SA"}}, {"type": "Feature", "geometry": {"type": "Point", "coordinates": [151.66285942, -33.03354002]}, "properties": {"name": "11 MAUDE STREET BELMONT 2280", "locID": "LOC000030444479", "tech": "FTTN", "upgrade": "NULL_NA"}}, {"type": "Feature", "geometry": {"type": "Point", "coordinates": [151.66409855, -33.03748901]}, "properties": {"name": "11 MAY STREET BELMONT 2280", "locID": "LOC000078613173", "tech": "FTTN", "upgrade": "NULL_NA"}}, {"type": "Feature", "geometry": {"type": "Point", "coordinates": [151.64501108, -33.02799481]}, "properties": {"name": "11 MERIDIAN CLOSE BELMONT 2280", "locID": "LOC000001347062", "tech": "FTTN", "upgrade": "FTTP_SA"}}, {"type": "Feature", "geometry": {"type": "Point", "coordinates": [151.66316134, -33.0319472]}, "properties": {"name": "11 MERLEVIEW STREET BELMONT 2280", "locID": "LOC000035825020", "tech": "FTTN", "upgrade": "NULL_NA"}}, {"type": "Feature", "geometry": {"type": "Point", "coordinates": [151.65204713, -33.02242426]}, "properties": {"name": "11 NERANG PLACE BELMONT 2280", "locID": "LOC000009574295", "tech": "FTTN", "upgrade": "FTTP_SA"}}, {"type": "Feature", "geometry": {"type": "Point", "coordinates": [151.65749993, -33.0267087]}, "properties": {"name": "11 PEARCE AVENUE BELMONT 2280", "locID": "LOC000065260778", "tech": "FTTN", "upgrade": "FTTP_SA"}}, {"type": "Feature", "geometry": {"type": "Point", "coordinates": [151.6422741, -33.02530681]}, "properties": {"name": "11 PEBBLE BEACH COURT BELMONT 2280", "locID": "LOC000089441650", "tech": "FTTN", "upgrade": "FTTP_SA"}}, {"type": "Feature", "geometry": {"type": "Point", "coordinates": [151.66334767, -33.03872112]}, "properties": {"name": "11 RAILWAY PARADE BELMONT 2280", "locID": "LOC000092490228", "tech": "FTTN", "upgrade": "NULL_NA"}}, {"type": "Feature", "geometry": {"type": "Point", "coordinates": [151.66389034, -33.02659194]}, "properties": {"name": "11 REDROSE AVENUE BELMONT 2280", "locID": "LOC000102056554", "tech": "FTTN", "upgrade": "NULL_NA"}}, {"type": "Feature", "geometry": {"type": "Point", "coordinates": [151.65675045, -33.02964365]}, "properties": {"name": "11 ROBB STREET BELMONT 2280", "locID": "LOC000081904615", "tech": "FTTN", "upgrade": "FTTP_SA"}}, {"type": "Feature", "geometry": {"type": "Point", "coordinates": [151.65460819, -33.03118874]}, "properties": {"name": "11 ROSS STREET BELMONT 2280", "locID": "LOC000029077489", "tech": "FTTN", "upgrade": "NULL_NA"}}, {"type": "Feature", "geometry": {"type": "Point", "coordinates": [151.64869313, -33.02236774]}, "properties": {"name": "11 SEAFARER CLOSE BELMONT 2280", "locID": "LOC000045564808", "tech": "FTTN", "upgrade": "FTTP_SA"}}, {"type": "Feature", "geometry": {"type": "Point", "coordinates": [151.66550399, -33.02889645]}, "properties": {"name": "11 STANLEY STREET BELMONT 2280", "locID": "LOC000005452209", "tech": "FTTN", "upgrade": "FTTP_SA"}}, {"type": "Feature", "geometry": {"type": "Point", "coordinates": [151.64470072, -33.02256738]}, "properties": {"name": "11 SUGARGLIDER COURT BELMONT 2280", "locID": "LOC000091372764", "tech": "FTTN", "upgrade": "FTTP_SA"}}, {"type": "Feature", "geometry": {"type": "Point", "coordinates": [151.64214783, -33.02799177]}, "properties": {"name": "11 THE CAPSTAN BELMONT 2280", "locID": "LOC000063205993", "tech": "FTTN", "upgrade": "FTTP_SA"}}, {"type": "Feature", "geometry": {"type": "Point", "coordinates": [151.65156315, -33.0190301]}, "properties": {"name": "11 THE MAINDECK BELMONT 2280", "locID": "LOC000004743279", "tech": "FTTN", "upgrade": "FTTP_SA"}}, {"type": "Feature", "geometry": {"type": "Point", "coordinates": [151.64432923, -33.02862144]}, "properties": {"name": "11 THE MAINSAIL BELMONT 2280", "locID": "LOC000065548277", "tech": "FTTN", "upgrade": "FTTP_SA"}}, {"type": "Feature", "geometry": {"type": "Point", "coordinates": [151.6510061, -33.03026473]}, "properties": {"name": "11 THE PARADE BELMONT 2280", "locID": "LOC000009666606", "tech": "FTTN", "upgrade": "FTTP_SA"}}, {"type": "Feature", "geometry": {"type": "Point", "coordinates": [151.64337772, -33.02909487]}, "properties": {"name": "11 THE SHORES WAY BELMONT 2280", "locID": "LOC000039699908", "tech": "FTTN", "upgrade": "FTTP_SA"}}, {"type": "Feature", "geometry": {"type": "Point", "coordinates": [151.64488349, -33.025845]}, "properties": {"name": "11 TOPGALLANT WAY BELMONT 2280", "locID": "LOC000101935893", "tech": "FTTN", "upgrade": "FTTP_SA"}}, {"type": "Feature", "geometry": {"type": "Point", "coordinates": [151.65247915, -33.0252565]}, "properties": {"name": "11 TUDOR STREET BELMONT 2280", "locID": "LOC000092407460", "tech": "FTTN", "upgrade": "FTTP_SA"}}, {"type": "Feature", "geometry": {"type": "Point", "coordinates": [151.65677123, -33.03218522]}, "properties": {"name": "11 TURNER STREET BELMONT 2280", "locID": "LOC000080834880", "tech": "FTTN", "upgrade": "NULL_NA"}}, {"type": "Feature", "geometry": {"type": "Point", "coordinates": [151.64524637, -33.02898977]}, "properties": {"name": "11 VIEW STREET BELMONT 2280", "locID": "LOC000068569930", "tech": "FTTN", "upgrade": "FTTP_SA"}}, {"type": "Feature", "geometry": {"type": "Point", "coordinates": [151.65678923, -33.02632823]}, "properties": {"name": "11 VISTA PARADE BELMONT 2280", "locID": "LOC000007260899", "tech": "FTTN", "upgrade": "FTTP_SA"}}, {"type": "Feature", "geometry": {"type": "Point", "coordinates": [151.64207847, -33.0236628]}, "properties": {"name": "11 WHIPBIRD WAY BELMONT 2280", "locID": "LOC000010411842", "tech": "FTTN", "upgrade": "FTTP_SA"}}, {"type": "Feature", "geometry": {"type": "Point", "coordinates": [151.6477202, -33.03020894]}, "properties": {"name": "110 ROSS STREET BELMONT 2280", "locID": "LOC000041596644", "tech": "FTTN", "upgrade": "FTTP_SA"}}, {"type": "Feature", "geometry": {"type": "Point", "coordinates": [151.64375675, -33.02992344]}, "properties": {"name": "111 ROSS STREET BELMONT 2280", "locID": "LOC000077699221", "tech": "FTTN", "upgrade": "FTTP_SA"}}, {"type": "Feature", "geometry": {"type": "Point", "coordinates": [151.64752478, -33.03050823]}, "properties": {"name": "112 ROSS STREET BELMONT 2280", "locID": "LOC000029961592", "tech": "FTTN", "upgrade": "FTTP_SA"}}, {"type": "Feature", "geometry": {"type": "Point", "coordinates": [151.64350143, -33.02984551]}, "properties": {"name": "113 ROSS STREET BELMONT 2280", "locID": "LOC000007161133", "tech": "FTTN", "upgrade": "FTTP_SA"}}, {"type": "Feature", "geometry": {"type": "Point", "coordinates": [151.64734022, -33.03056345]}, "properties": {"name": "114 ROSS STREET BELMONT 2280", "locID": "LOC000008113602", "tech": "FTTN", "upgrade": "FTTP_SA"}}, {"type": "Feature", "geometry": {"type": "Point", "coordinates": [151.64717073, -33.03056972]}, "properties": {"name": "114A ROSS STREET BELMONT 2280", "locID": "LOC000008137878", "tech": "FTTN", "upgrade": "FTTP_SA"}}, {"type": "Feature", "geometry": {"type": "Point", "coordinates": [151.643234, -33.0298798]}, "properties": {"name": "115 ROSS STREET BELMONT 2280", "locID": "LOC000098583013", "tech": "FTTN", "upgrade": "FTTP_SA"}}, {"type": "Feature", "geometry": {"type": "Point", "coordinates": [151.64700069, -33.03058761]}, "properties": {"name": "116 ROSS STREET BELMONT 2280", "locID": "LOC000097004737", "tech": "FTTN", "upgrade": "FTTP_SA"}}, {"type": "Feature", "geometry": {"type": "Point", "coordinates": [151.64295518, -33.02989027]}, "properties": {"name": "117 ROSS STREET BELMONT 2280", "locID": "LOC000053447326", "tech": "FTTN", "upgrade": "FTTP_SA"}}, {"type": "Feature", "geometry": {"type": "Point", "coordinates": [151.646829, -33.03061974]}, "properties": {"name": "118 ROSS STREET BELMONT 2280", "locID": "LOC000109959688", "tech": "FTTP", "upgrade": "FTTN_CT"}}, {"type": "Feature", "geometry": {"type": "Point", "coordinates": [151.64941854, -33.02575115]}, "properties": {"name": "11A BELMONT CRESCENT BELMONT 2280", "locID": "LOC000187174962", "tech": "FTTN", "upgrade": "NULL_NA"}}, {"type": "Feature", "geometry": {"type": "Point", "coordinates": [151.64517787, -33.02797755]}, "properties": {"name": "11A MERIDIAN CLOSE BELMONT 2280", "locID": "LOC000160901050", "tech": "FTTN", "upgrade": "FTTP_SA"}}, {"type": "Feature", "geometry": {"type": "Point", "coordinates": [151.65675045, -33.02964365]}, "properties": {"name": "11A ROBB STREET BELMONT 2280", "locID": "LOC000142061008", "tech": "FTTN", "upgrade": "FTTP_SA"}}, {"type": "Feature", "geometry": {"type": "Point", "coordinates": [151.65884237, -33.02965172]}, "properties": {"name": "12 ALBERT STREET BELMONT 2280", "locID": "LOC000031327186", "tech": "FTTN", "upgrade": "FTTP_SA"}}, {"type": "Feature", "geometry": {"type": "Point", "coordinates": [151.65201804, -33.02213754]}, "properties": {"name": "12 ANCHOR CLOSE BELMONT 2280", "locID": "LOC000044349413", "tech": "FTTN", "upgrade": "FTTP_SA"}}, {"type": "Feature", "geometry": {"type": "Point", "coordinates": [151.65273439, -33.02520844]}, "properties": {"name": "12 AYLWARD STREET BELMONT 2280", "locID": "LOC000088414199", "tech": "FTTN", "upgrade": "FTTP_SA"}}, {"type": "Feature", "geometry": {"type": "Point", "coordinates": [151.65488243, -33.04400567]}, "properties": {"name": "12 BELLEVUE ROAD BELMONT 2280", "locID": "LOC000066380198", "tech": "FTTN", "upgrade": "NULL_NA"}}, {"type": "Feature", "geometry": {"type": "Point", "coordinates": [151.6491078, -33.02663243]}, "properties": {"name": "12 BELMONT CRESCENT BELMONT 2280", "locID": "LOC000109667699", "tech": "FTTN", "upgrade": "NULL_NA"}}, {"type": "Feature", "geometry": {"type": "Point", "coordinates": [151.66520351, -33.026967]}, "properties": {"name": "12 BLUEBELL STREET BELMONT 2280", "locID": "LOC000038275435", "tech": "FTTN", "upgrade": "NULL_NA"}}, {"type": "Feature", "geometry": {"type": "Point", "coordinates": [151.65637907, -33.03302889]}, "properties": {"name": "12 BROOKS PARADE BELMONT 2280", "locID": "LOC000008014450", "tech": "FTTN", "upgrade": "NULL_NA"}}, {"type": "Feature", "geometry": {"type": "Point", "coordinates": [151.64521153, -33.02470048]}, "properties": {"name": "12 BRUSHTAIL PLACE BELMONT 2280", "locID": "LOC000071636515", "tech": "FTTN", "upgrade": "FTTP_SA"}}, {"type": "Feature", "geometry": {"type": "Point", "coordinates": [151.66259588, -33.03575883]}, "properties": {"name": "12 CHURCH STREET BELMONT 2280", "locID": "LOC000062119800", "tech": "FTTN", "upgrade": "NULL_NA"}}, {"type": "Feature", "geometry": {"type": "Point", "coordinates": [151.66377017, -33.02617927]}, "properties": {"name": "12 COBBIN PARADE BELMONT 2280", "locID": "LOC000004716860", "tech": "FTTN", "upgrade": "NULL_NA"}}, {"type": "Feature", "geometry": {"type": "Point", "coordinates": [151.65003877, -33.02566599]}, "properties": {"name": "12 CROUDACE BAY ROAD BELMONT 2280", "locID": "LOC000037495872", "tech": "FTTN", "upgrade": "NULL_NA"}}, {"type": "Feature", "geometry": {"type": "Point", "coordinates": [151.64919918, -33.02885248]}, "properties": {"name": "12 CROWN STREET BELMONT 2280", "locID": "LOC000013935476", "tech": "FTTN", "upgrade": "FTTP_SA"}}, {"type": "Feature", "geometry": {"type": "Point", "coordinates": [151.64678898, -33.02924563]}, "properties": {"name": "12 DANIEL STREET BELMONT 2280", "locID": "LOC000062063062", "tech": "FTTN", "upgrade": "FTTP_SA"}}, {"type": "Feature", "geometry": {"type": "Point", "coordinates": [151.66557433, -33.02854486]}, "properties": {"name": "12 DEANE STREET BELMONT 2280", "locID": "LOC000056060586", "tech": "FTTN", "upgrade": "FTTP_SA"}}, {"type": "Feature", "geometry": {"type": "Point", "coordinates": [151.66230645, -33.0344996]}, "properties": {"name": "12 ERNEST STREET BELMONT 2280", "locID": "LOC000029147430", "tech": "FTTN", "upgrade": "NULL_NA"}}, {"type": "Feature", "geometry": {"type": "Point", "coordinates": [151.65969125, -33.02918655]}, "properties": {"name": "12 EVANS STREET BELMONT 2280", "locID": "LOC000079960474", "tech": "FTTN", "upgrade": "FTTP_SA"}}, {"type": "Feature", "geometry": {"type": "Point", "coordinates": [151.66324812, -33.03836406]}, "properties": {"name": "12 GEORGE STREET BELMONT 2280", "locID": "LOC000084902966", "tech": "FTTN", "upgrade": "NULL_NA"}}, {"type": "Feature", "geometry": {"type": "Point", "coordinates": [151.65620865, -33.02957266]}, "properties": {"name": "12 GERALD STREET BELMONT 2280", "locID": "LOC000042725735", "tech": "FTTN", "upgrade": "FTTP_SA"}}, {"type": "Feature", "geometry": {"type": "Point", "coordinates": [151.65245215, -33.02451817]}, "properties": {"name": "12 GREENWOOD AVENUE BELMONT 2280", "locID": "LOC000070905348", "tech": "FTTN", "upgrade": "FTTP_SA"}}, {"type": "Feature", "geometry": {"type": "Point", "coordinates": [151.65620099, -33.02491006]}, "properties": {"name": "12 HAIG STREET BELMONT 2280", "locID": "LOC000041076618", "tech": "FTTN", "upgrade": "FTTP_SA"}}, {"type": "Feature", "geometry": {"type": "Point", "coordinates": [151.66356495, -33.03726457]}, "properties": {"name": "12 HALL STREET BELMONT 2280", "locID": "LOC000035536803", "tech": "FTTN", "upgrade": "NULL_NA"}}, {"type": "Feature", "geometry": {"type": "Point", "coordinates": [151.66008454, -33.02998571]}, "properties": {"name": "12 HENRY STREET BELMONT 2280", "locID": "LOC000109069271", "tech": "FTTN", "upgrade": "FTTP_SA"}}, {"type": "Feature", "geometry": {"type": "Point", "coordinates": [151.64426984, -33.02274081]}, "properties": {"name": "12 HERON PLACE BELMONT 2280", "locID": "LOC000036176298", "tech": "FTTN", "upgrade": "FTTP_SA"}}, {"type": "Feature", "geometry": {"type": "Point", "coordinates": [151.65930135, -33.03758751]}, "properties": {"name": "12 HIGH STREET BELMONT 2280", "locID": "LOC000043762281", "tech": "FTTN", "upgrade": "NULL_NA"}}, {"type": "Feature", "geometry": {"type": "Point", "coordinates": [151.65565264, -33.02244585]}, "properties": {"name": "12 HILL STREET BELMONT 2280", "locID": "LOC000094844112", "tech": "FTTN", "upgrade": "FTTP_SA"}}, {"type": "Feature", "geometry": {"type": "Point", "coordinates": [151.66325536, -33.03161555]}, "properties": {"name": "12 HITCHCOCK AVENUE BELMONT 2280", "locID": "LOC000017162379", "tech": "FTTN", "upgrade": "FTTP_SA"}}, {"type": "Feature", "geometry": {"type": "Point", "coordinates": [151.64637276, -33.02764075]}, "properties": {"name": "12 JEAN STREET BELMONT 2280", "locID": "LOC000028789884", "tech": "FTTN", "upgrade": "FTTP_SA"}}, {"type": "Feature", "geometry": {"type": "Point", "coordinates": [151.66291941, -33.0332309]}, "properties": {"name": "12 KYNETON STREET BELMONT 2280", "locID": "LOC000046891220", "tech": "FTTN", "upgrade": "NULL_NA"}}, {"type": "Feature", "geometry": {"type": "Point", "coordinates": [151.65031859, -33.02838004]}, "properties": {"name": "12 LEWERS STREET BELMONT 2280", "locID": "LOC000027248617", "tech": "FTTN", "upgrade": "FTTP_SA"}}, {"type": "Feature", "geometry": {"type": "Point", "coordinates": [151.66767981, -33.03146585]}, "properties": {"name": "12 LIVINGSTONE STREET BELMONT 2280", "locID": "LOC000055840555", "tech": "FTTN", "upgrade": "NULL_NA"}}, {"type": "Feature", "geometry": {"type": "Point", "coordinates": [151.66282107, -33.03651919]}, "properties": {"name": "12 MACQUARIE STREET BELMONT 2280", "locID": "LOC000085761772", "tech": "FTTN", "upgrade": "NULL_NA"}}, {"type": "Feature", "geometry": {"type": "Point", "coordinates": [151.65829038, -33.03135705]}, "properties": {"name": "12 MARKS STREET BELMONT 2280", "locID": "LOC000013204506", "tech": "FTTN", "upgrade": "NULL_NA"}}, {"type": "Feature", "geometry": {"type": "Point", "coordinates": [151.64835215, -33.02153005]}, "properties": {"name": "12 MATELOT PLACE BELMONT 2280", "locID": "LOC000102629785", "tech": "FTTN", "upgrade": "FTTP_SA"}}, {"type": "Feature", "geometry": {"type": "Point", "coordinates": [151.66463083, -33.03756566]}, "properties": {"name": "12 MAY STREET BELMONT 2280", "locID": "LOC000078595640", "tech": "FTTN", "upgrade": "NULL_NA"}}, {"type": "Feature", "geometry": {"type": "Point", "coordinates": [151.64436083, -33.02753718]}, "properties": {"name": "12 MERIDIAN CLOSE BELMONT 2280", "locID": "LOC000065265291", "tech": "FTTN", "upgrade": "FTTP_SA"}}, {"type": "Feature", "geometry": {"type": "Point", "coordinates": [151.66293792, -33.0324157]}, "properties": {"name": "12 MERLEVIEW STREET BELMONT 2280", "locID": "LOC000096787365", "tech": "FTTN", "upgrade": "NULL_NA"}}, {"type": "Feature", "geometry": {"type": "Point", "coordinates": [151.65259675, -33.02272501]}, "properties": {"name": "12 NERANG PLACE BELMONT 2280", "locID": "LOC000017511343", "tech": "FTTN", "upgrade": "FTTP_SA"}}, {"type": "Feature", "geometry": {"type": "Point", "coordinates": [151.65732074, -33.02764583]}, "properties": {"name": "12 PEARCE AVENUE BELMONT 2280", "locID": "LOC000080909966", "tech": "FTTN", "upgrade": "FTTP_SA"}}, {"type": "Feature", "geometry": {"type": "Point", "coordinates": [151.64268048, -33.02575473]}, "properties": {"name": "12 PEBBLE BEACH COURT BELMONT 2280", "locID": "LOC000058779269", "tech": "FTTN", "upgrade": "FTTP_SA"}}, {"type": "Feature", "geometry": {"type": "Point", "coordinates": [151.66373951, -33.02717648]}, "properties": {"name": "12 REDROSE AVENUE BELMONT 2280", "locID": "LOC000102252073", "tech": "FTTN", "upgrade": "NULL_NA"}}, {"type": "Feature", "geometry": {"type": "Point", "coordinates": [151.65459147, -33.03193111]}, "properties": {"name": "12 ROSS STREET BELMONT 2280", "locID": "LOC000041913245", "tech": "FTTN", "upgrade": "FTTP_SA"}}, {"type": "Feature", "geometry": {"type": "Point", "coordinates": [151.64861, -33.022059]}, "properties": {"name": "12 SEAFARER CLOSE BELMONT 2280", "locID": "LOC000052094415", "tech": "FTTN", "upgrade": "FTTP_SA"}}, {"type": "Feature", "geometry": {"type": "Point", "coordinates": [151.65369664, -33.02282724]}, "properties": {"name": "12 SPINNAKER RIDGE WAY BELMONT 2280", "locID": "LOC000036361246", "tech": "FTTN", "upgrade": "FTTP_SA"}}, {"type": "Feature", "geometry": {"type": "Point", "coordinates": [151.66533831, -33.02942031]}, "properties": {"name": "12 STANLEY STREET BELMONT 2280", "locID": "LOC000042532063", "tech": "FTTN", "upgrade": "FTTP_SA"}}, {"type": "Feature", "geometry": {"type": "Point", "coordinates": [151.65169385, -33.01989925]}, "properties": {"name": "12 THE MAINDECK BELMONT 2280", "locID": "LOC000046031487", "tech": "FTTN", "upgrade": "FTTP_SA"}}, {"type": "Feature", "geometry": {"type": "Point", "coordinates": [151.64431587, -33.02953822]}, "properties": {"name": "12 THE MAINSAIL BELMONT 2280", "locID": "LOC000029599380", "tech": "FTTN", "upgrade": "FTTP_SA"}}, {"type": "Feature", "geometry": {"type": "Point", "coordinates": [151.64290797, -33.02893097]}, "properties": {"name": "12 THE SHORES WAY BELMONT 2280", "locID": "LOC000184314691", "tech": "FTTN", "upgrade": "FTTP_SA"}}, {"type": "Feature", "geometry": {"type": "Point", "coordinates": [151.65960548, -33.0348707]}, "properties": {"name": "12 THOMAS STREET BELMONT 2280", "locID": "LOC000075739698", "tech": "FTTN", "upgrade": "NULL_NA"}}, {"type": "Feature", "geometry": {"type": "Point", "coordinates": [151.64545462, -33.02621955]}, "properties": {"name": "12 TOPGALLANT WAY BELMONT 2280", "locID": "LOC000010468790", "tech": "FTTN", "upgrade": "FTTP_SA"}}, {"type": "Feature", "geometry": {"type": "Point", "coordinates": [151.65267071, -33.02588844]}, "properties": {"name": "12 TUDOR STREET BELMONT 2280", "locID": "LOC000036267310", "tech": "FTTN", "upgrade": "FTTP_SA"}}, {"type": "Feature", "geometry": {"type": "Point", "coordinates": [151.65704326, -33.03273977]}, "properties": {"name": "12 TURNER STREET BELMONT 2280", "locID": "LOC000066639856", "tech": "FTTN", "upgrade": "NULL_NA"}}, {"type": "Feature", "geometry": {"type": "Point", "coordinates": [151.64510066, -33.02955982]}, "properties": {"name": "12 VIEW STREET BELMONT 2280", "locID": "LOC000034887052", "tech": "FTTN", "upgrade": "FTTP_SA"}}, {"type": "Feature", "geometry": {"type": "Point", "coordinates": [151.65806747, -33.02590572]}, "properties": {"name": "12 VISTA PARADE BELMONT 2280", "locID": "LOC000054087401", "tech": "FTTN", "upgrade": "FTTP_SA"}}, {"type": "Feature", "geometry": {"type": "Point", "coordinates": [151.65846067, -33.03692045]}, "properties": {"name": "12 WALTER STREET BELMONT 2280", "locID": "LOC000033017613", "tech": "FTTN", "upgrade": "NULL_NA"}}, {"type": "Feature", "geometry": {"type": "Point", "coordinates": [151.64256858, -33.02418471]}, "properties": {"name": "12 WHIPBIRD WAY BELMONT 2280", "locID": "LOC000044429638", "tech": "FTTN", "upgrade": "FTTP_SA"}}, {"type": "Feature", "geometry": {"type": "Point", "coordinates": [151.66416895, -33.0356454]}, "properties": {"name": "12-14 GLOVER STREET BELMONT 2280", "locID": "LOC000032400720", "tech": "FTTN", "upgrade": "NULL_NA"}}, {"type": "Feature", "geometry": {"type": "Point", "coordinates": [151.6466526, -33.03067489]}, "properties": {"name": "120 ROSS STREET BELMONT 2280", "locID": "LOC000018405608", "tech": "FTTN", "upgrade": "FTTP_SA"}}, {"type": "Feature", "geometry": {"type": "Point", "coordinates": [151.64647908, -33.03072357]}, "properties": {"name": "122 ROSS STREET BELMONT 2280", "locID": "LOC000017998971", "tech": "FTTN", "upgrade": "FTTP_SA"}}, {"type": "Feature", "geometry": {"type": "Point", "coordinates": [151.6463046, -33.03077185]}, "properties": {"name": "124 ROSS STREET BELMONT 2280", "locID": "LOC000097837386", "tech": "FTTN", "upgrade": "FTTP_SA"}}, {"type": "Feature", "geometry": {"type": "Point", "coordinates": [151.64613805, -33.03081461]}, "properties": {"name": "126 ROSS STREET BELMONT 2280", "locID": "LOC000045950392", "tech": "FTTN", "upgrade": "FTTP_SA"}}, {"type": "Feature", "geometry": {"type": "Point", "coordinates": [151.64597775, -33.03079534]}, "properties": {"name": "128 ROSS STREET BELMONT 2280", "locID": "LOC000005972601", "tech": "FTTN", "upgrade": "FTTP_SA"}}, {"type": "Feature", "geometry": {"type": "Point", "coordinates": [151.64994248, -33.02579058]}, "properties": {"name": "12A CROUDACE BAY ROAD BELMONT 2280", "locID": "LOC000037068007", "tech": "FTTN", "upgrade": "NULL_NA"}}, {"type": "Feature", "geometry": {"type": "Point", "coordinates": [151.65620865, -33.02957266]}, "properties": {"name": "12A GERALD STREET BELMONT 2280", "locID": "LOC000157371028", "tech": "FTTN", "upgrade": "FTTP_SA"}}, {"type": "Feature", "geometry": {"type": "Point", "coordinates": [151.66250043, -33.03639833]}, "properties": {"name": "12A MACQUARIE STREET BELMONT 2280", "locID": "LOC000087339750", "tech": "FTTN", "upgrade": "NULL_NA"}}, {"type": "Feature", "geometry": {"type": "Point", "coordinates": [151.66373899, -33.02744175]}, "properties": {"name": "12A REDROSE AVENUE BELMONT 2280", "locID": "LOC000103017480", "tech": "FTTN", "upgrade": "NULL_NA"}}, {"type": "Feature", "geometry": {"type": "Point", "coordinates": [151.66250043, -33.03639833]}, "properties": {"name": "12B MACQUARIE STREET BELMONT 2280", "locID": "LOC000087449460", "tech": "FTTN", "upgrade": "NULL_NA"}}, {"type": "Feature", "geometry": {"type": "Point", "coordinates": [151.65802675, -33.02993126]}, "properties": {"name": "13 ALBERT STREET BELMONT 2280", "locID": "LOC000042280185", "tech": "FTTN", "upgrade": "NULL_NA"}}, {"type": "Feature", "geometry": {"type": "Point", "coordinates": [151.6523478, -33.02129003]}, "properties": {"name": "13 ANCHOR CLOSE BELMONT 2280", "locID": "LOC000066610054", "tech": "FTTN", "upgrade": "FTTP_SA"}}, {"type": "Feature", "geometry": {"type": "Point", "coordinates": [151.65360867, -33.02495802]}, "properties": {"name": "13 AYLWARD STREET BELMONT 2280", "locID": "LOC000092928908", "tech": "FTTN", "upgrade": "FTTP_SA"}}, {"type": "Feature", "geometry": {"type": "Point", "coordinates": [151.65635185, -33.04337633]}, "properties": {"name": "13 BELLEVUE ROAD BELMONT 2280", "locID": "LOC000099280212", "tech": "FTTN", "upgrade": "NULL_NA"}}, {"type": "Feature", "geometry": {"type": "Point", "coordinates": [151.64920858, -33.02593319]}, "properties": {"name": "13 BELMONT CRESCENT BELMONT 2280", "locID": "LOC000102107940", "tech": "FTTN", "upgrade": "NULL_NA"}}, {"type": "Feature", "geometry": {"type": "Point", "coordinates": [151.65671697, -33.04513492]}, "properties": {"name": "13 CAPRI CLOSE BELMONT 2280", "locID": "LOC000047187629", "tech": "FTTN", "upgrade": "NULL_NA"}}, {"type": "Feature", "geometry": {"type": "Point", "coordinates": [151.66366764, -33.0257681]}, "properties": {"name": "13 COBBIN PARADE BELMONT 2280", "locID": "LOC000099929973", "tech": "FTTN", "upgrade": "NULL_NA"}}, {"type": "Feature", "geometry": {"type": "Point", "coordinates": [151.6494813, -33.02827397]}, "properties": {"name": "13 CROWN STREET BELMONT 2280", "locID": "LOC000097041447", "tech": "FTTN", "upgrade": "FTTP_SA"}}, {"type": "Feature", "geometry": {"type": "Point", "coordinates": [151.6655333, -33.02798884]}, "properties": {"name": "13 DEANE STREET BELMONT 2280", "locID": "LOC000041196240", "tech": "FTTN", "upgrade": "FTTP_SA"}}, {"type": "Feature", "geometry": {"type": "Point", "coordinates": [151.65829697, -33.03511996]}, "properties": {"name": "13 EDGAR STREET BELMONT 2280", "locID": "LOC000166690511", "tech": "FTTN", "upgrade": "NULL_NA"}}, {"type": "Feature", "geometry": {"type": "Point", "coordinates": [151.65967832, -33.02863086]}, "properties": {"name": "13 EVANS STREET BELMONT 2280", "locID": "LOC000057489439", "tech": "FTTN", "upgrade": "FTTP_SA"}}, {"type": "Feature", "geometry": {"type": "Point", "coordinates": [151.66378347, -33.03785373]}, "properties": {"name": "13 GEORGE STREET BELMONT 2280", "locID": "LOC000005463117", "tech": "FTTN", "upgrade": "NULL_NA"}}, {"type": "Feature", "geometry": {"type": "Point", "coordinates": [151.65254561, -33.02399959]}, "properties": {"name": "13 GREENWOOD AVENUE BELMONT 2280", "locID": "LOC000036337495", "tech": "FTTN", "upgrade": "FTTP_SA"}}, {"type": "Feature", "geometry": {"type": "Point", "coordinates": [151.6555868, -33.0248105]}, "properties": {"name": "13 HAIG STREET BELMONT 2280", "locID": "LOC000007258221", "tech": "FTTN", "upgrade": "FTTP_SA"}}, {"type": "Feature", "geometry": {"type": "Point", "coordinates": [151.65934901, -33.02984173]}, "properties": {"name": "13 HENRY STREET BELMONT 2280", "locID": "LOC000087494469", "tech": "FTTN", "upgrade": "FTTP_SA"}}, {"type": "Feature", "geometry": {"type": "Point", "coordinates": [151.6598471, -33.03400402]}, "properties": {"name": "13 HERBERT STREET BELMONT 2280", "locID": "LOC000034048198", "tech": "FTTN", "upgrade": "NULL_NA"}}, {"type": "Feature", "geometry": {"type": "Point", "coordinates": [151.6549941, -33.02285321]}, "properties": {"name": "13 HILL STREET BELMONT 2280", "locID": "LOC000090402544", "tech": "FTTN", "upgrade": "FTTP_SA"}}, {"type": "Feature", "geometry": {"type": "Point", "coordinates": [151.66318141, -33.03104664]}, "properties": {"name": "13 HITCHCOCK AVENUE BELMONT 2280", "locID": "LOC000048131649", "tech": "FTTN", "upgrade": "FTTP_SA"}}, {"type": "Feature", "geometry": {"type": "Point", "coordinates": [151.64575783, -33.02682464]}, "properties": {"name": "13 JEAN STREET BELMONT 2280", "locID": "LOC000052208224", "tech": "FTTN", "upgrade": "FTTP_SA"}}, {"type": "Feature", "geometry": {"type": "Point", "coordinates": [151.66271608, -33.03270204]}, "properties": {"name": "13 KYNETON STREET BELMONT 2280", "locID": "LOC000012229183", "tech": "FTTN", "upgrade": "NULL_NA"}}, {"type": "Feature", "geometry": {"type": "Point", "coordinates": [151.65098698, -33.02842531]}, "properties": {"name": "13 LEWERS STREET BELMONT 2280", "locID": "LOC000081826540", "tech": "FTTN", "upgrade": "FTTP_SA"}}, {"type": "Feature", "geometry": {"type": "Point", "coordinates": [151.66493297, -33.02976564]}, "properties": {"name": "13 LIVINGSTONE STREET BELMONT 2280", "locID": "LOC000022199837", "tech": "FTTN", "upgrade": "FTTP_SA"}}, {"type": "Feature", "geometry": {"type": "Point", "coordinates": [151.65826843, -33.02536594]}, "properties": {"name": "13 MACQUARIE DRIVE BELMONT 2280", "locID": "LOC000065203157", "tech": "FTTN", "upgrade": "FTTP_SA"}}, {"type": "Feature", "geometry": {"type": "Point", "coordinates": [151.6639799, -33.03612378]}, "properties": {"name": "13 MACQUARIE STREET BELMONT 2280", "locID": "LOC000064813985", "tech": "FTTN", "upgrade": "NULL_NA"}}, {"type": "Feature", "geometry": {"type": "Point", "coordinates": [151.65839447, -33.0308381]}, "properties": {"name": "13 MARKS STREET BELMONT 2280", "locID": "LOC000062845529", "tech": "FTTN", "upgrade": "NULL_NA"}}, {"type": "Feature", "geometry": {"type": "Point", "coordinates": [151.66270425, -33.03351864]}, "properties": {"name": "13 MAUDE STREET BELMONT 2280", "locID": "LOC000023812888", "tech": "FTTN", "upgrade": "NULL_NA"}}, {"type": "Feature", "geometry": {"type": "Point", "coordinates": [151.66423982, -33.03752346]}, "properties": {"name": "13 MAY STREET BELMONT 2280", "locID": "LOC000092016169", "tech": "FTTN", "upgrade": "NULL_NA"}}, {"type": "Feature", "geometry": {"type": "Point", "coordinates": [151.66300034, -33.03192502]}, "properties": {"name": "13 MERLEVIEW STREET BELMONT 2280", "locID": "LOC000075800597", "tech": "FTTN", "upgrade": "NULL_NA"}}, {"type": "Feature", "geometry": {"type": "Point", "coordinates": [151.6522538, -33.02237927]}, "properties": {"name": "13 NERANG PLACE BELMONT 2280", "locID": "LOC000025967069", "tech": "FTTN", "upgrade": "FTTP_SA"}}, {"type": "Feature", "geometry": {"type": "Point", "coordinates": [151.65733502, -33.02668445]}, "properties": {"name": "13 PEARCE AVENUE BELMONT 2280", "locID": "LOC000077073303", "tech": "FTTN", "upgrade": "FTTP_SA"}}, {"type": "Feature", "geometry": {"type": "Point", "coordinates": [151.6631628, -33.03874405]}, "properties": {"name": "13 RAILWAY PARADE BELMONT 2280", "locID": "LOC000097640651", "tech": "FTTN", "upgrade": "NULL_NA"}}, {"type": "Feature", "geometry": {"type": "Point", "coordinates": [151.66371953, -33.02656877]}, "properties": {"name": "13 REDROSE AVENUE BELMONT 2280", "locID": "LOC000046477494", "tech": "FTTN", "upgrade": "NULL_NA"}}, {"type": "Feature", "geometry": {"type": "Point", "coordinates": [151.65672861, -33.02976371]}, "properties": {"name": "13 ROBB STREET BELMONT 2280", "locID": "LOC000082455895", "tech": "FTTN", "upgrade": "FTTP_SA"}}, {"type": "Feature", "geometry": {"type": "Point", "coordinates": [151.65444675, -33.03109568]}, "properties": {"name": "13 ROSS STREET BELMONT 2280", "locID": "LOC000028861201", "tech": "FTTN", "upgrade": "FTTP_SA"}}, {"type": "Feature", "geometry": {"type": "Point", "coordinates": [151.64869313, -33.02236774]}, "properties": {"name": "13 SEAFARER CLOSE BELMONT 2280", "locID": "LOC000084801326", "tech": "FTTN", "upgrade": "FTTP_SA"}}, {"type": "Feature", "geometry": {"type": "Point", "coordinates": [151.65347246, -33.02330351]}, "properties": {"name": "13 SPINNAKER RIDGE WAY BELMONT 2280", "locID": "LOC000038076885", "tech": "FTTN", "upgrade": "FTTP_SA"}}, {"type": "Feature", "geometry": {"type": "Point", "coordinates": [151.66535461, -33.02887583]}, "properties": {"name": "13 STANLEY STREET BELMONT 2280", "locID": "LOC000028844203", "tech": "FTTN", "upgrade": "FTTP_SA"}}, {"type": "Feature", "geometry": {"type": "Point", "coordinates": [151.65090529, -33.03022512]}, "properties": {"name": "13 THE PARADE BELMONT 2280", "locID": "LOC000067346798", "tech": "FTTN", "upgrade": "FTTP_SA"}}, {"type": "Feature", "geometry": {"type": "Point", "coordinates": [151.65219602, -33.02518931]}, "properties": {"name": "13 TUDOR STREET BELMONT 2280", "locID": "LOC000004739311", "tech": "FTTN", "upgrade": "FTTP_SA"}}, {"type": "Feature", "geometry": {"type": "Point", "coordinates": [151.65700565, -33.02638249]}, "properties": {"name": "13 VISTA PARADE BELMONT 2280", "locID": "LOC000099313595", "tech": "FTTN", "upgrade": "FTTP_SA"}}, {"type": "Feature", "geometry": {"type": "Point", "coordinates": [151.65772225, -33.03681988]}, "properties": {"name": "13 WALTER STREET BELMONT 2280", "locID": "LOC000081145421", "tech": "FTTN", "upgrade": "NULL_NA"}}, {"type": "Feature", "geometry": {"type": "Point", "coordinates": [151.64583578, -33.03080051]}, "properties": {"name": "130 ROSS STREET BELMONT 2280", "locID": "LOC000063389027", "tech": "FTTN", "upgrade": "FTTP_SA"}}, {"type": "Feature", "geometry": {"type": "Point", "coordinates": [151.6456866, -33.03074823]}, "properties": {"name": "132 ROSS STREET BELMONT 2280", "locID": "LOC000100911725", "tech": "FTTN", "upgrade": "FTTP_SA"}}, {"type": "Feature", "geometry": {"type": "Point", "coordinates": [151.64552458, -33.03071911]}, "properties": {"name": "134 ROSS STREET BELMONT 2280", "locID": "LOC000079107538", "tech": "FTTN", "upgrade": "FTTP_SA"}}, {"type": "Feature", "geometry": {"type": "Point", "coordinates": [151.64537162, -33.0306922]}, "properties": {"name": "136 ROSS STREET BELMONT 2280", "locID": "LOC000054608022", "tech": "FTTN", "upgrade": "FTTP_SA"}}, {"type": "Feature", "geometry": {"type": "Point", "coordinates": [151.64516389, -33.03060773]}, "properties": {"name": "138 ROSS STREET BELMONT 2280", "locID": "LOC000103028445", "tech": "FTTN", "upgrade": "FTTP_SA"}}, {"type": "Feature", "geometry": {"type": "Point", "coordinates": [151.65881922, -33.02976383]}, "properties": {"name": "14 ALBERT STREET BELMONT 2280", "locID": "LOC000017994431", "tech": "FTTN", "upgrade": "FTTP_SA"}}, {"type": "Feature", "geometry": {"type": "Point", "coordinates": [151.65221483, -33.02209455]}, "properties": {"name": "14 ANCHOR CLOSE BELMONT 2280", "locID": "LOC000013044759", "tech": "FTTN", "upgrade": "FTTP_SA"}}, {"type": "Feature", "geometry": {"type": "Point", "coordinates": [151.65480352, -33.04389481]}, "properties": {"name": "14 BELLEVUE ROAD BELMONT 2280", "locID": "LOC000081149323", "tech": "FTTN", "upgrade": "NULL_NA"}}, {"type": "Feature", "geometry": {"type": "Point", "coordinates": [151.64894331, -33.0264836]}, "properties": {"name": "14 BELMONT CRESCENT BELMONT 2280", "locID": "LOC000086209822", "tech": "FTTN", "upgrade": "NULL_NA"}}, {"type": "Feature", "geometry": {"type": "Point", "coordinates": [151.66522883, -33.02683124]}, "properties": {"name": "14 BLUEBELL STREET BELMONT 2280", "locID": "LOC000063183916", "tech": "FTTN", "upgrade": "NULL_NA"}}, {"type": "Feature", "geometry": {"type": "Point", "coordinates": [151.65651192, -33.03308607]}, "properties": {"name": "14 BROOKS PARADE BELMONT 2280", "locID": "LOC000054623248", "tech": "FTTN", "upgrade": "NULL_NA"}}, {"type": "Feature", "geometry": {"type": "Point", "coordinates": [151.65749176, -33.04483596]}, "properties": {"name": "14 CAPRI CLOSE BELMONT 2280", "locID": "LOC000064896798", "tech": "FTTN", "upgrade": "NULL_NA"}}, {"type": "Feature", "geometry": {"type": "Point", "coordinates": [151.66257074, -33.03587213]}, "properties": {"name": "14 CHURCH STREET BELMONT 2280", "locID": "LOC000012419220", "tech": "FTTN", "upgrade": "NULL_NA"}}, {"type": "Feature", "geometry": {"type": "Point", "coordinates": [151.66357035, -33.02615217]}, "properties": {"name": "14 COBBIN PARADE BELMONT 2280", "locID": "LOC000021198876", "tech": "FTTN", "upgrade": "NULL_NA"}}, {"type": "Feature", "geometry": {"type": "Point", "coordinates": [151.64980233, -33.02560006]}, "properties": {"name": "14 CROUDACE BAY ROAD BELMONT 2280", "locID": "LOC000024517561", "tech": "FTTN", "upgrade": "NULL_NA"}}, {"type": "Feature", "geometry": {"type": "Point", "coordinates": [151.64905262, -33.02884944]}, "properties": {"name": "14 CROWN STREET BELMONT 2280", "locID": "LOC000084925711", "tech": "FTTN", "upgrade": "FTTP_SA"}}, {"type": "Feature", "geometry": {"type": "Point", "coordinates": [151.64668079, -33.02933418]}, "properties": {"name": "14 DANIEL STREET BELMONT 2280", "locID": "LOC000082713857", "tech": "FTTN", "upgrade": "FTTP_SA"}}, {"type": "Feature", "geometry": {"type": "Point", "coordinates": [151.6654229, -33.02852397]}, "properties": {"name": "14 DEANE STREET BELMONT 2280", "locID": "LOC000024654799", "tech": "FTTN", "upgrade": "FTTP_SA"}}, {"type": "Feature", "geometry": {"type": "Point", "coordinates": [151.66228632, -33.03458968]}, "properties": {"name": "14 ERNEST STREET BELMONT 2280", "locID": "LOC000065351696", "tech": "FTTN", "upgrade": "NULL_NA"}}, {"type": "Feature", "geometry": {"type": "Point", "coordinates": [151.65955736, -33.02916818]}, "properties": {"name": "14 EVANS STREET BELMONT 2280", "locID": "LOC000108635784", "tech": "FTTN", "upgrade": "FTTP_SA"}}, {"type": "Feature", "geometry": {"type": "Point", "coordinates": [151.66307933, -33.0383373]}, "properties": {"name": "14 GEORGE STREET BELMONT 2280", "locID": "LOC000037316818", "tech": "FTTN", "upgrade": "NULL_NA"}}, {"type": "Feature", "geometry": {"type": "Point", "coordinates": [151.65214267, -33.02436639]}, "properties": {"name": "14 GREENWOOD AVENUE BELMONT 2280", "locID": "LOC000005454784", "tech": "FTTN", "upgrade": "FTTP_SA"}}, {"type": "Feature", "geometry": {"type": "Point", "coordinates": [151.65632864, -33.02507192]}, "properties": {"name": "14 HAIG STREET BELMONT 2280", "locID": "LOC000020371071", "tech": "FTTN", "upgrade": "FTTP_SA"}}, {"type": "Feature", "geometry": {"type": "Point", "coordinates": [151.66368593, -33.03748846]}, "properties": {"name": "14 HALL STREET BELMONT 2280", "locID": "LOC000013120272", "tech": "FTTN", "upgrade": "NULL_NA"}}, {"type": "Feature", "geometry": {"type": "Point", "coordinates": [151.66006058, -33.0301007]}, "properties": {"name": "14 HENRY STREET BELMONT 2280", "locID": "LOC000007181303", "tech": "FTTN", "upgrade": "FTTP_SA"}}, {"type": "Feature", "geometry": {"type": "Point", "coordinates": [151.64429023, -33.02256146]}, "properties": {"name": "14 HERON PLACE BELMONT 2280", "locID": "LOC000056866696", "tech": "FTTN", "upgrade": "FTTP_SA"}}, {"type": "Feature", "geometry": {"type": "Point", "coordinates": [151.65893923, -33.037653]}, "properties": {"name": "14 HIGH STREET BELMONT 2280", "locID": "LOC000095683769", "tech": "FTTN", "upgrade": "NULL_NA"}}, {"type": "Feature", "geometry": {"type": "Point", "coordinates": [151.65565532, -33.02258681]}, "properties": {"name": "14 HILL STREET BELMONT 2280", "locID": "LOC000099032270", "tech": "FTTN", "upgrade": "FTTP_SA"}}, {"type": "Feature", "geometry": {"type": "Point", "coordinates": [151.66309299, -33.03159131]}, "properties": {"name": "14 HITCHCOCK AVENUE BELMONT 2280", "locID": "LOC000007921356", "tech": "FTTN", "upgrade": "FTTP_SA"}}, {"type": "Feature", "geometry": {"type": "Point", "coordinates": [151.64633247, -33.02776282]}, "properties": {"name": "14 JEAN STREET BELMONT 2280", "locID": "LOC000018055634", "tech": "FTTN", "upgrade": "FTTP_SA"}}, {"type": "Feature", "geometry": {"type": "Point", "coordinates": [151.66276426, -33.03320945]}, "properties": {"name": "14 KYNETON STREET BELMONT 2280", "locID": "LOC000015925705", "tech": "FTTN", "upgrade": "NULL_NA"}}, {"type": "Feature", "geometry": {"type": "Point", "coordinates": [151.65024735, -33.02828797]}, "properties": {"name": "14 LEWERS STREET BELMONT 2280", "locID": "LOC000082235823", "tech": "FTTN", "upgrade": "FTTP_SA"}}, {"type": "Feature", "geometry": {"type": "Point", "coordinates": [151.66134273, -33.03639308]}, "properties": {"name": "14 MACQUARIE STREET BELMONT 2280", "locID": "LOC100041342947", "tech": "FTTN", "upgrade": "NULL_NA"}}, {"type": "Feature", "geometry": {"type": "Point", "coordinates": [151.65790633, -33.03145363]}, "properties": {"name": "14 MARKS STREET BELMONT 2280", "locID": "LOC000014770521", "tech": "FTTN", "upgrade": "NULL_NA"}}, {"type": "Feature", "geometry": {"type": "Point", "coordinates": [151.64812684, -33.02145812]}, "properties": {"name": "14 MATELOT PLACE BELMONT 2280", "locID": "LOC000089487588", "tech": "FTTN", "upgrade": "FTTP_SA"}}, {"type": "Feature", "geometry": {"type": "Point", "coordinates": [151.66024121, -33.03369811]}, "properties": {"name": "14 MAUDE STREET BELMONT 2280", "locID": "LOC100038684801", "tech": "FTTN", "upgrade": "NULL_NA"}}, {"type": "Feature", "geometry": {"type": "Point", "coordinates": [151.6645207, -33.0376606]}, "properties": {"name": "14 MAY STREET BELMONT 2280", "locID": "LOC000090061352", "tech": "FTTN", "upgrade": "NULL_NA"}}, {"type": "Feature", "geometry": {"type": "Point", "coordinates": [151.64446367, -33.02775229]}, "properties": {"name": "14 MERIDIAN CLOSE BELMONT 2280", "locID": "LOC000044393855", "tech": "FTTN", "upgrade": "FTTP_SA"}}, {"type": "Feature", "geometry": {"type": "Point", "coordinates": [151.6627782, -33.03239377]}, "properties": {"name": "14 MERLEVIEW STREET BELMONT 2280", "locID": "LOC000056077586", "tech": "FTTN", "upgrade": "NULL_NA"}}, {"type": "Feature", "geometry": {"type": "Point", "coordinates": [151.65280357, -33.02268004]}, "properties": {"name": "14 NERANG PLACE BELMONT 2280", "locID": "LOC000031452119", "tech": "FTTN", "upgrade": "FTTP_SA"}}, {"type": "Feature", "geometry": {"type": "Point", "coordinates": [151.65729774, -33.02775695]}, "properties": {"name": "14 PEARCE AVENUE BELMONT 2280", "locID": "LOC000040217752", "tech": "FTTN", "upgrade": "FTTP_SA"}}, {"type": "Feature", "geometry": {"type": "Point", "coordinates": [151.64293899, -33.02566866]}, "properties": {"name": "14 PEBBLE BEACH COURT BELMONT 2280", "locID": "LOC000037172389", "tech": "FTTN", "upgrade": "FTTP_SA"}}, {"type": "Feature", "geometry": {"type": "Point", "coordinates": [151.66357801, -33.02727332]}, "properties": {"name": "14 REDROSE AVENUE BELMONT 2280", "locID": "LOC000043119575", "tech": "FTTN", "upgrade": "NULL_NA"}}, {"type": "Feature", "geometry": {"type": "Point", "coordinates": [151.65749614, -33.02986306]}, "properties": {"name": "14 ROBB STREET BELMONT 2280", "locID": "LOC000042459579", "tech": "FTTN", "upgrade": "FTTP_SA"}}, {"type": "Feature", "geometry": {"type": "Point", "coordinates": [151.65450251, -33.0318755]}, "properties": {"name": "14 ROSS STREET BELMONT 2280", "locID": "LOC000101803569", "tech": "FTTN", "upgrade": "FTTP_SA"}}, {"type": "Feature", "geometry": {"type": "Point", "coordinates": [151.64850804, -33.02223546]}, "properties": {"name": "14 SEAFARER CLOSE BELMONT 2280", "locID": "LOC000097186787", "tech": "FTTN", "upgrade": "FTTP_SA"}}, {"type": "Feature", "geometry": {"type": "Point", "coordinates": [151.65341569, -33.02284878]}, "properties": {"name": "14 SPINNAKER RIDGE WAY BELMONT 2280", "locID": "LOC000057739630", "tech": "FTTN", "upgrade": "FTTP_SA"}}, {"type": "Feature", "geometry": {"type": "Point", "coordinates": [151.66500855, -33.0293755]}, "properties": {"name": "14 STANLEY STREET BELMONT 2280", "locID": "LOC000064909396", "tech": "FTTN", "upgrade": "FTTP_SA"}}, {"type": "Feature", "geometry": {"type": "Point", "coordinates": [151.65187647, -33.01998721]}, "properties": {"name": "14 THE MAINDECK BELMONT 2280", "locID": "LOC000024691358", "tech": "FTTN", "upgrade": "FTTP_SA"}}, {"type": "Feature", "geometry": {"type": "Point", "coordinates": [151.64449448, -33.02947654]}, "properties": {"name": "14 THE MAINSAIL BELMONT 2280", "locID": "LOC000087833292", "tech": "FTTN", "upgrade": "FTTP_SA"}}, {"type": "Feature", "geometry": {"type": "Point", "coordinates": [151.65246949, -33.0257629]}, "properties": {"name": "14 TUDOR STREET BELMONT 2280", "locID": "LOC000003225076", "tech": "FTTN", "upgrade": "FTTP_SA"}}, {"type": "Feature", "geometry": {"type": "Point", "coordinates": [151.65691508, -33.03271986]}, "properties": {"name": "14 TURNER STREET BELMONT 2280", "locID": "LOC000098906078", "tech": "FTTN", "upgrade": "NULL_NA"}}, {"type": "Feature", "geometry": {"type": "Point", "coordinates": [151.65823035, -33.02592509]}, "properties": {"name": "14 VISTA PARADE BELMONT 2280", "locID": "LOC000107473609", "tech": "FTTN", "upgrade": "FTTP_SA"}}, {"type": "Feature", "geometry": {"type": "Point", "coordinates": [151.65843016, -33.03704881]}, "properties": {"name": "14 WALTER STREET BELMONT 2280", "locID": "LOC000078683607", "tech": "FTTN", "upgrade": "NULL_NA"}}, {"type": "Feature", "geometry": {"type": "Point", "coordinates": [151.64271934, -33.02406877]}, "properties": {"name": "14 WHIPBIRD WAY BELMONT 2280", "locID": "LOC000080968258", "tech": "FTTN", "upgrade": "FTTP_SA"}}, {"type": "Feature", "geometry": {"type": "Point", "coordinates": [151.64500613, -33.03056366]}, "properties": {"name": "140 ROSS STREET BELMONT 2280", "locID": "LOC000092058855", "tech": "FTTN", "upgrade": "FTTP_SA"}}, {"type": "Feature", "geometry": {"type": "Point", "coordinates": [151.64484394, -33.03052779]}, "properties": {"name": "142 ROSS STREET BELMONT 2280", "locID": "LOC000098797268", "tech": "FTTN", "upgrade": "FTTP_SA"}}, {"type": "Feature", "geometry": {"type": "Point", "coordinates": [151.64461512, -33.03047036]}, "properties": {"name": "144 ROSS STREET BELMONT 2280", "locID": "LOC000026389356", "tech": "FTTN", "upgrade": "FTTP_SA"}}, {"type": "Feature", "geometry": {"type": "Point", "coordinates": [151.64438019, -33.03044177]}, "properties": {"name": "146 ROSS STREET BELMONT 2280", "locID": "LOC000059559573", "tech": "FTTN", "upgrade": "FTTP_SA"}}, {"type": "Feature", "geometry": {"type": "Point", "coordinates": [151.64402805, -33.03054042]}, "properties": {"name": "148 ROSS STREET BELMONT 2280", "locID": "LOC000008713727", "tech": "FTTN", "upgrade": "FTTP_SA"}}, {"type": "Feature", "geometry": {"type": "Point", "coordinates": [151.65606077, -33.02966751]}, "properties": {"name": "14A GERALD STREET BELMONT 2280", "locID": "LOC000031384963", "tech": "FTTN", "upgrade": "FTTP_SA"}}, {"type": "Feature", "geometry": {"type": "Point", "coordinates": [151.6561868, -33.02973824]}, "properties": {"name": "14B GERALD STREET BELMONT 2280", "locID": "LOC000031415491", "tech": "FTTN", "upgrade": "FTTP_SA"}}, {"type": "Feature", "geometry": {"type": "Point", "coordinates": [151.65800354, -33.03005088]}, "properties": {"name": "15 ALBERT STREET BELMONT 2280", "locID": "LOC000087304644", "tech": "FTTN", "upgrade": "NULL_NA"}}, {"type": "Feature", "geometry": {"type": "Point", "coordinates": [151.65382816, -33.0250258]}, "properties": {"name": "15 AYLWARD STREET BELMONT 2280", "locID": "LOC000099878348", "tech": "FTTN", "upgrade": "FTTP_SA"}}, {"type": "Feature", "geometry": {"type": "Point", "coordinates": [151.65639863, -33.04325374]}, "properties": {"name": "15 BELLEVUE ROAD BELMONT 2280", "locID": "LOC000086326569", "tech": "FTTN", "upgrade": "NULL_NA"}}, {"type": "Feature", "geometry": {"type": "Point", "coordinates": [151.64896258, -33.0260171]}, "properties": {"name": "15 BELMONT CRESCENT BELMONT 2280", "locID": "LOC000078882674", "tech": "FTTN", "upgrade": "NULL_NA"}}, {"type": "Feature", "geometry": {"type": "Point", "coordinates": [151.64559001, -33.02486936]}, "properties": {"name": "15 BRUSHTAIL PLACE BELMONT 2280", "locID": "LOC000073157662", "tech": "FTTN", "upgrade": "FTTP_SA"}}, {"type": "Feature", "geometry": {"type": "Point", "coordinates": [151.65678104, -33.04497724]}, "properties": {"name": "15 CAPRI CLOSE BELMONT 2280", "locID": "LOC000098150243", "tech": "FTTN", "upgrade": "NULL_NA"}}, {"type": "Feature", "geometry": {"type": "Point", "coordinates": [151.66329693, -33.0257176]}, "properties": {"name": "15 COBBIN PARADE BELMONT 2280", "locID": "LOC000015864783", "tech": "FTTN", "upgrade": "NULL_NA"}}, {"type": "Feature", "geometry": {"type": "Point", "coordinates": [151.64933306, -33.02826661]}, "properties": {"name": "15 CROWN STREET BELMONT 2280", "locID": "LOC000053494627", "tech": "FTTN", "upgrade": "FTTP_SA"}}, {"type": "Feature", "geometry": {"type": "Point", "coordinates": [151.66537547, -33.02796717]}, "properties": {"name": "15 DEANE STREET BELMONT 2280", "locID": "LOC000065126655", "tech": "FTTN", "upgrade": "FTTP_SA"}}, {"type": "Feature", "geometry": {"type": "Point", "coordinates": [151.65954033, -33.02861197]}, "properties": {"name": "15 EVANS STREET BELMONT 2280", "locID": "LOC000013827716", "tech": "FTTN", "upgrade": "FTTP_SA"}}, {"type": "Feature", "geometry": {"type": "Point", "coordinates": [151.66358105, -33.03782161]}, "properties": {"name": "15 GEORGE STREET BELMONT 2280", "locID": "LOC000057924747", "tech": "FTTN", "upgrade": "NULL_NA"}}, {"type": "Feature", "geometry": {"type": "Point", "coordinates": [151.65236892, -33.02397114]}, "properties": {"name": "15 GREENWOOD AVENUE BELMONT 2280", "locID": "LOC000017293078", "tech": "FTTN", "upgrade": "FTTP_SA"}}, {"type": "Feature", "geometry": {"type": "Point", "coordinates": [151.65556575, -33.02494775]}, "properties": {"name": "15 HAIG STREET BELMONT 2280", "locID": "LOC000009900186", "tech": "FTTN", "upgrade": "FTTP_SA"}}, {"type": "Feature", "geometry": {"type": "Point", "coordinates": [151.65042772, -33.0207775]}, "properties": {"name": "15 HALYARD WAY BELMONT 2280", "locID": "LOC000078750844", "tech": "FTTN", "upgrade": "FTTP_SA"}}, {"type": "Feature", "geometry": {"type": "Point", "coordinates": [151.65932591, -33.02995307]}, "properties": {"name": "15 HENRY STREET BELMONT 2280", "locID": "LOC000022247230", "tech": "FTTN", "upgrade": "FTTP_SA"}}, {"type": "Feature", "geometry": {"type": "Point", "coordinates": [151.65974106, -33.0339873]}, "properties": {"name": "15 HERBERT STREET BELMONT 2280", "locID": "LOC000057497505", "tech": "FTTN", "upgrade": "NULL_NA"}}, {"type": "Feature", "geometry": {"type": "Point", "coordinates": [151.6437343, -33.02202191]}, "properties": {"name": "15 HERON PLACE BELMONT 2280", "locID": "LOC000058863596", "tech": "FTTN", "upgrade": "FTTP_SA"}}, {"type": "Feature", "geometry": {"type": "Point", "coordinates": [151.66298864, -33.03101995]}, "properties": {"name": "15 HITCHCOCK AVENUE BELMONT 2280", "locID": "LOC000062898330", "tech": "FTTN", "upgrade": "FTTP_SA"}}, {"type": "Feature", "geometry": {"type": "Point", "coordinates": [151.6457327, -33.02694709]}, "properties": {"name": "15 JEAN STREET BELMONT 2280", "locID": "LOC000068493386", "tech": "FTTN", "upgrade": "FTTP_SA"}}, {"type": "Feature", "geometry": {"type": "Point", "coordinates": [151.66255439, -33.03267979]}, "properties": {"name": "15 KYNETON STREET BELMONT 2280", "locID": "LOC000016204848", "tech": "FTTN", "upgrade": "NULL_NA"}}, {"type": "Feature", "geometry": {"type": "Point", "coordinates": [151.65094679, -33.02830548]}, "properties": {"name": "15 LEWERS STREET BELMONT 2280", "locID": "LOC000013037500", "tech": "FTTN", "upgrade": "FTTP_SA"}}, {"type": "Feature", "geometry": {"type": "Point", "coordinates": [151.6647796, -33.0297397]}, "properties": {"name": "15 LIVINGSTONE STREET BELMONT 2280", "locID": "LOC000042215490", "tech": "FTTN", "upgrade": "FTTP_SA"}}, {"type": "Feature", "geometry": {"type": "Point", "coordinates": [151.65811474, -33.02530904]}, "properties": {"name": "15 MACQUARIE DRIVE BELMONT 2280", "locID": "LOC000101966220", "tech": "FTTN", "upgrade": "FTTP_SA"}}, {"type": "Feature", "geometry": {"type": "Point", "coordinates": [151.66381961, -33.03609866]}, "properties": {"name": "15 MACQUARIE STREET BELMONT 2280", "locID": "LOC000101827196", "tech": "FTTN", "upgrade": "NULL_NA"}}, {"type": "Feature", "geometry": {"type": "Point", "coordinates": [151.65783022, -33.0310181]}, "properties": {"name": "15 MARKS STREET BELMONT 2280", "locID": "LOC000053693401", "tech": "FTTN", "upgrade": "NULL_NA"}}, {"type": "Feature", "geometry": {"type": "Point", "coordinates": [151.64728559, -33.0216592]}, "properties": {"name": "15 MATELOT PLACE BELMONT 2280", "locID": "LOC000102418877", "tech": "FTTN", "upgrade": "FTTP_SA"}}, {"type": "Feature", "geometry": {"type": "Point", "coordinates": [151.66254957, -33.03349734]}, "properties": {"name": "15 MAUDE STREET BELMONT 2280", "locID": "LOC000083270828", "tech": "FTTN", "upgrade": "NULL_NA"}}, {"type": "Feature", "geometry": {"type": "Point", "coordinates": [151.64481823, -33.02795314]}, "properties": {"name": "15 MERIDIAN CLOSE BELMONT 2280", "locID": "LOC000044122880", "tech": "FTTN", "upgrade": "FTTP_SA"}}, {"type": "Feature", "geometry": {"type": "Point", "coordinates": [151.66283919, -33.03190282]}, "properties": {"name": "15 MERLEVIEW STREET BELMONT 2280", "locID": "LOC000096845110", "tech": "FTTN", "upgrade": "NULL_NA"}}, {"type": "Feature", "geometry": {"type": "Point", "coordinates": [151.65246093, -33.0223344]}, "properties": {"name": "15 NERANG PLACE BELMONT 2280", "locID": "LOC000071314941", "tech": "FTTN", "upgrade": "FTTP_SA"}}, {"type": "Feature", "geometry": {"type": "Point", "coordinates": [151.65720087, -33.02666484]}, "properties": {"name": "15 PEARCE AVENUE BELMONT 2280", "locID": "LOC000029596961", "tech": "FTTN", "upgrade": "FTTP_SA"}}, {"type": "Feature", "geometry": {"type": "Point", "coordinates": [151.64250902, -33.02531594]}, "properties": {"name": "15 PEBBLE BEACH COURT BELMONT 2280", "locID": "LOC000042661316", "tech": "FTTN", "upgrade": "FTTP_SA"}}, {"type": "Feature", "geometry": {"type": "Point", "coordinates": [151.66299284, -33.03872218]}, "properties": {"name": "15 RAILWAY PARADE BELMONT 2280", "locID": "LOC000029173173", "tech": "FTTN", "upgrade": "NULL_NA"}}, {"type": "Feature", "geometry": {"type": "Point", "coordinates": [151.66356376, -33.02654765]}, "properties": {"name": "15 REDROSE AVENUE BELMONT 2280", "locID": "LOC000064785967", "tech": "FTTN", "upgrade": "NULL_NA"}}, {"type": "Feature", "geometry": {"type": "Point", "coordinates": [151.65670702, -33.02988251]}, "properties": {"name": "15 ROBB STREET BELMONT 2280", "locID": "LOC000003853403", "tech": "FTTN", "upgrade": "FTTP_SA"}}, {"type": "Feature", "geometry": {"type": "Point", "coordinates": [151.65428635, -33.03100087]}, "properties": {"name": "15 ROSS STREET BELMONT 2280", "locID": "LOC000074444682", "tech": "FTTN", "upgrade": "FTTP_SA"}}, {"type": "Feature", "geometry": {"type": "Point", "coordinates": [151.648883, -33.02239652]}, "properties": {"name": "15 SEAFARER CLOSE BELMONT 2280", "locID": "LOC000041025713", "tech": "FTTN", "upgrade": "FTTP_SA"}}, {"type": "Feature", "geometry": {"type": "Point", "coordinates": [151.65328031, -33.02337632]}, "properties": {"name": "15 SPINNAKER RIDGE WAY BELMONT 2280", "locID": "LOC000058746670", "tech": "FTTN", "upgrade": "FTTP_SA"}}, {"type": "Feature", "geometry": {"type": "Point", "coordinates": [151.66520812, -33.02885563]}, "properties": {"name": "15 STANLEY STREET BELMONT 2280", "locID": "LOC000071180820", "tech": "FTTN", "upgrade": "FTTP_SA"}}, {"type": "Feature", "geometry": {"type": "Point", "coordinates": [151.64472195, -33.0223781]}, "properties": {"name": "15 SUGARGLIDER COURT BELMONT 2280", "locID": "LOC000191581320", "tech": "FTTN", "upgrade": "FTTP_SA"}}, {"type": "Feature", "geometry": {"type": "Point", "coordinates": [151.64452309, -33.02866424]}, "properties": {"name": "15 THE MAINSAIL BELMONT 2280", "locID": "LOC000049404052", "tech": "FTTN", "upgrade": "FTTP_SA"}}, {"type": "Feature", "geometry": {"type": "Point", "coordinates": [151.65080211, -33.03018457]}, "properties": {"name": "15 THE PARADE BELMONT 2280", "locID": "LOC000033147763", "tech": "FTTN", "upgrade": "FTTP_SA"}}, {"type": "Feature", "geometry": {"type": "Point", "coordinates": [151.643055, -33.02942189]}, "properties": {"name": "15 THE SHORES WAY BELMONT 2280", "locID": "LOC000099795643", "tech": "FTTN", "upgrade": "FTTP_SA"}}, {"type": "Feature", "geometry": {"type": "Point", "coordinates": [151.65202697, -33.02525979]}, "properties": {"name": "15 TUDOR STREET BELMONT 2280", "locID": "LOC000029742630", "tech": "FTTN", "upgrade": "FTTP_SA"}}, {"type": "Feature", "geometry": {"type": "Point", "coordinates": [151.65884964, -33.03804991]}, "properties": {"name": "15 VICTORIA STREET BELMONT 2280", "locID": "LOC000088199325", "tech": "FTTN", "upgrade": "NULL_NA"}}, {"type": "Feature", "geometry": {"type": "Point", "coordinates": [151.65727414, -33.02632243]}, "properties": {"name": "15 VISTA PARADE BELMONT 2280", "locID": "LOC000053170794", "tech": "FTTN", "upgrade": "FTTP_SA"}}, {"type": "Feature", "geometry": {"type": "Point", "coordinates": [151.65784949, -33.03693269]}, "properties": {"name": "15 WALTER STREET BELMONT 2280", "locID": "LOC000042520397", "tech": "FTTN", "upgrade": "NULL_NA"}}, {"type": "Feature", "geometry": {"type": "Point", "coordinates": [151.64233221, -33.02361509]}, "properties": {"name": "15 WHIPBIRD WAY BELMONT 2280", "locID": "LOC000073572315", "tech": "FTTN", "upgrade": "FTTP_SA"}}, {"type": "Feature", "geometry": {"type": "Point", "coordinates": [151.64350891, -33.0304718]}, "properties": {"name": "152 ROSS STREET BELMONT 2280", "locID": "LOC000076234680", "tech": "FTTN", "upgrade": "FTTP_SA"}}, {"type": "Feature", "geometry": {"type": "Point", "coordinates": [151.64328945, -33.03041699]}, "properties": {"name": "154 ROSS STREET BELMONT 2280", "locID": "LOC000012224160", "tech": "FTTN", "upgrade": "FTTP_SA"}}, {"type": "Feature", "geometry": {"type": "Point", "coordinates": [151.64302417, -33.03041021]}, "properties": {"name": "156 ROSS STREET BELMONT 2280", "locID": "LOC000105334927", "tech": "FTTN", "upgrade": "FTTP_SA"}}, {"type": "Feature", "geometry": {"type": "Point", "coordinates": [151.65879619, -33.02987527]}, "properties": {"name": "16 ALBERT STREET BELMONT 2280", "locID": "LOC000037057631", "tech": "FTTN", "upgrade": "FTTP_SA"}}, {"type": "Feature", "geometry": {"type": "Point", "coordinates": [151.65478584, -33.04375626]}, "properties": {"name": "16 BELLEVUE ROAD BELMONT 2280", "locID": "LOC000005532731", "tech": "FTTN", "upgrade": "NULL_NA"}}, {"type": "Feature", "geometry": {"type": "Point", "coordinates": [151.64891289, -33.02624386]}, "properties": {"name": "16 BELMONT CRESCENT BELMONT 2280", "locID": "LOC000053488049", "tech": "FTTN", "upgrade": "NULL_NA"}}, {"type": "Feature", "geometry": {"type": "Point", "coordinates": [151.66525374, -33.02669873]}, "properties": {"name": "16 BLUEBELL STREET BELMONT 2280", "locID": "LOC000055989066", "tech": "FTTN", "upgrade": "NULL_NA"}}, {"type": "Feature", "geometry": {"type": "Point", "coordinates": [151.65645466, -33.03330601]}, "properties": {"name": "16 BROOKS PARADE BELMONT 2280", "locID": "LOC000016765142", "tech": "FTTN", "upgrade": "NULL_NA"}}, {"type": "Feature", "geometry": {"type": "Point", "coordinates": [151.65757694, -33.04466725]}, "properties": {"name": "16 CAPRI CLOSE BELMONT 2280", "locID": "LOC000036929083", "tech": "FTTN", "upgrade": "NULL_NA"}}, {"type": "Feature", "geometry": {"type": "Point", "coordinates": [151.66254562, -33.03598531]}, "properties": {"name": "16 CHURCH STREET BELMONT 2280", "locID": "LOC000081679356", "tech": "FTTN", "upgrade": "NULL_NA"}}, {"type": "Feature", "geometry": {"type": "Point", "coordinates": [151.66337391, -33.02612553]}, "properties": {"name": "16 COBBIN PARADE BELMONT 2280", "locID": "LOC000089820388", "tech": "FTTN", "upgrade": "NULL_NA"}}, {"type": "Feature", "geometry": {"type": "Point", "coordinates": [151.64845708, -33.02541784]}, "properties": {"name": "16 CROUDACE BAY ROAD BELMONT 2280", "locID": "LOC000111013900", "tech": "FTTN", "upgrade": "NULL_NA"}}, {"type": "Feature", "geometry": {"type": "Point", "coordinates": [151.64890575, -33.0288464]}, "properties": {"name": "16 CROWN STREET BELMONT 2280", "locID": "LOC000101764915", "tech": "FTTN", "upgrade": "NULL_NA"}}, {"type": "Feature", "geometry": {"type": "Point", "coordinates": [151.64661244, -33.02944393]}, "properties": {"name": "16 DANIEL STREET BELMONT 2280", "locID": "LOC000070330873", "tech": "FTTN", "upgrade": "FTTP_SA"}}, {"type": "Feature", "geometry": {"type": "Point", "coordinates": [151.66226307, -33.03469309]}, "properties": {"name": "16 ERNEST STREET BELMONT 2280", "locID": "LOC000031494618", "tech": "FTTN", "upgrade": "NULL_NA"}}, {"type": "Feature", "geometry": {"type": "Point", "coordinates": [151.65942198, -33.02914924]}, "properties": {"name": "16 EVANS STREET BELMONT 2280", "locID": "LOC000046827225", "tech": "FTTN", "upgrade": "FTTP_SA"}}, {"type": "Feature", "geometry": {"type": "Point", "coordinates": [151.662918, -33.0383117]}, "properties": {"name": "16 GEORGE STREET BELMONT 2280", "locID": "LOC000078941137", "tech": "FTTN", "upgrade": "NULL_NA"}}, {"type": "Feature", "geometry": {"type": "Point", "coordinates": [151.656165, -33.02981177]}, "properties": {"name": "16 GERALD STREET BELMONT 2280", "locID": "LOC000065298249", "tech": "FTTN", "upgrade": "FTTP_SA"}}, {"type": "Feature", "geometry": {"type": "Point", "coordinates": [151.66392903, -33.03560778]}, "properties": {"name": "16 GLOVER STREET BELMONT 2280", "locID": "LOC000088596200", "tech": "FTTN", "upgrade": "NULL_NA"}}, {"type": "Feature", "geometry": {"type": "Point", "coordinates": [151.65199742, -33.02435694]},