{
 "type": "FeatureCollection",
 "generated": "2023-06-03T06:27:55.931491",
 "features": [
  {
   "type": "Feature",
   "geometry": {
    "type": "Point",
    "coordinates": [
     151.27278083,
     -33.7584229
    ]
   },
   "properties": {
    "name": "1 ALFRED ROAD BROOKVALE 2100",
    "locID": "LOC000031249122",
    "tech": "HFC",
    "upgrade": "NULL_NA"
   }
  },
  {
   "type": "Feature",
   "geometry": {
    "type": "Point",
    "coordinates": [
     151.26885433,
     -33.76243336
    ]
   },
   "properties": {
    "name": "1 BEACON HILL ROAD BROOKVALE 2100",
    "locID": "LOC000005545174",
    "tech": "HFC",
    "upgrade": "NULL_NA"
   }
  },
  {
   "type": "Feature",
   "geometry": {
    "type": "Point",
    "coordinates": [
     151.27307791,
     -33.75846719
    ]
   },
   "properties": {
    "name": "1 BINBA PLACE BROOKVALE 2100",
    "locID": "LOC000099912530",
    "tech": "HFC",
    "upgrade": "NULL_NA"
   }
  },
  {
   "type": "Feature",
   "geometry": {
    "type": "Point",
    "coordinates": [
     151.26714816,
     -33.76229798
    ]
   },
   "properties": {
    "name": "1 BROOKVALE AVENUE BROOKVALE 2100",
    "locID": "LOC000024724707",
    "tech": "FTTN",
    "upgrade": "FTTP_SA"
   }
  },
  {
   "type": "Feature",
   "geometry": {
    "type": "Point",
    "coordinates": [
     151.27215688,
     -33.76335848
    ]
   },
   "properties": {
    "name": "1 CHARD ROAD BROOKVALE 2100",
    "locID": "LOC000001541854",
    "tech": "FTTN",
    "upgrade": "NULL_NA"
   }
  },
  {
   "type": "Feature",
   "geometry": {
    "type": "Point",
    "coordinates": [
     151.26955623,
     -33.76172237
    ]
   },
   "properties": {
    "name": "1 CONSUL ROAD BROOKVALE 2100",
    "locID": "LOC000029615951",
    "tech": "HFC",
    "upgrade": "NULL_NA"
   }
  },
  {
   "type": "Feature",
   "geometry": {
    "type": "Point",
    "coordinates": [
     151.26955623,
     -33.76172237
    ]
   },
   "properties": {
    "name": "1 ELIZABETH PLACE BROOKVALE 2100",
    "locID": "LOC000042076231",
    "tech": "HFC",
    "upgrade": "NULL_NA"
   }
  },
  {
   "type": "Feature",
   "geometry": {
    "type": "Point",
    "coordinates": [
     151.27810325,
     -33.76774595
    ]
   },
   "properties": {
    "name": "1 ETHEL AVENUE BROOKVALE 2100",
    "locID": "LOC000072411334",
    "tech": "FTTN",
    "upgrade": "NULL_NA"
   }
  },
  {
   "type": "Feature",
   "geometry": {
    "type": "Point",
    "coordinates": [
     151.26502165,
     -33.76304157
    ]
   },
   "properties": {
    "name": "1 FITZELL PLACE BROOKVALE 2100",
    "locID": "LOC000042098993",
    "tech": "FTTN",
    "upgrade": "NULL_NA"
   }
  },
  {
   "type": "Feature",
   "geometry": {
    "type": "Point",
    "coordinates": [
     151.26697365,
     -33.76346434
    ]
   },
   "properties": {
    "name": "1 GREEN STREET BROOKVALE 2100",
    "locID": "LOC000032290524",
    "tech": "FTTN",
    "upgrade": "NULL_NA"
   }
  },
  {
   "type": "Feature",
   "geometry": {
    "type": "Point",
    "coordinates": [
     151.27086819,
     -33.76831184
    ]
   },
   "properties": {
    "name": "1 GROSVENOR PLACE BROOKVALE 2100",
    "locID": "LOC000169252828",
    "tech": "FTTN",
    "upgrade": "NULL_NA"
   }
  },
  {
   "type": "Feature",
   "geometry": {
    "type": "Point",
    "coordinates": [
     151.27139918,
     -33.76072629
    ]
   },
   "properties": {
    "name": "1 GULLIVER STREET BROOKVALE 2100",
    "locID": "LOC000023068709",
    "tech": "HFC",
    "upgrade": "NULL_NA"
   }
  },
  {
   "type": "Feature",
   "geometry": {
    "type": "Point",
    "coordinates": [
     151.27515151,
     -33.76190027
    ]
   },
   "properties": {
    "name": "1 MITCHELL ROAD BROOKVALE 2100",
    "locID": "LOC000094735426",
    "tech": "FTTN",
    "upgrade": "NULL_NA"
   }
  },
  {
   "type": "Feature",
   "geometry": {
    "type": "Point",
    "coordinates": [
     151.27482472,
     -33.76074039
    ]
   },
   "properties": {
    "name": "1 PINE AVENUE BROOKVALE 2100",
    "locID": "LOC000080293155",
    "tech": "FTTN",
    "upgrade": "NULL_NA"
   }
  },
  {
   "type": "Feature",
   "geometry": {
    "type": "Point",
    "coordinates": [
     151.27349762,
     -33.76691187
    ]
   },
   "properties": {
    "name": "1 POWELLS ROAD BROOKVALE 2100",
    "locID": "LOC000070380896",
    "tech": "FTTN",
    "upgrade": "NULL_NA"
   }
  },
  {
   "type": "Feature",
   "geometry": {
    "type": "Point",
    "coordinates": [
     151.27622094,
     -33.7596759
    ]
   },
   "properties": {
    "name": "1 REGINA AVENUE BROOKVALE 2100",
    "locID": "LOC000039864539",
    "tech": "FTTN",
    "upgrade": "NULL_NA"
   }
  },
  {
   "type": "Feature",
   "geometry": {
    "type": "Point",
    "coordinates": [
     151.2699226,
     -33.76416993
    ]
   },
   "properties": {
    "name": "1 ROGER STREET BROOKVALE 2100",
    "locID": "LOC000179063691",
    "tech": "FTTN",
    "upgrade": "NULL_NA"
   }
  },
  {
   "type": "Feature",
   "geometry": {
    "type": "Point",
    "coordinates": [
     151.27740743,
     -33.75824551
    ]
   },
   "properties": {
    "name": "1 SHACKEL AVENUE BROOKVALE 2100",
    "locID": "LOC000006286324",
    "tech": "FTTN",
    "upgrade": "NULL_NA"
   }
  },
  {
   "type": "Feature",
   "geometry": {
    "type": "Point",
    "coordinates": [
     151.27203293,
     -33.76389425
    ]
   },
   "properties": {
    "name": "1 SYDENHAM ROAD BROOKVALE 2100",
    "locID": "LOC000082040185",
    "tech": "FTTN",
    "upgrade": "NULL_NA"
   }
  },
  {
   "type": "Feature",
   "geometry": {
    "type": "Point",
    "coordinates": [
     151.27729535,
     -33.76735609
    ]
   },
   "properties": {
    "name": "1-11 ADA AVENUE BROOKVALE 2100",
    "locID": "LOC000014015418",
    "tech": "FTTN",
    "upgrade": "NULL_NA"
   }
  },
  {
   "type": "Feature",
   "geometry": {
    "type": "Point",
    "coordinates": [
     151.27677911,
     -33.76165283
    ]
   },
   "properties": {
    "name": "1-15 WEST STREET BROOKVALE 2100",
    "locID": "LOC000169266525",
    "tech": "FTTN",
    "upgrade": "NULL_NA"
   }
  },
  {
   "type": "Feature",
   "geometry": {
    "type": "Point",
    "coordinates": [
     151.26482045,
     -33.76332421
    ]
   },
   "properties": {
    "name": "1-2 FITZELL PLACE BROOKVALE 2100",
    "locID": "LOC000041833880",
    "tech": "FTTN",
    "upgrade": "NULL_NA"
   }
  },
  {
   "type": "Feature",
   "geometry": {
    "type": "Point",
    "coordinates": [
     151.26209121,
     -33.762056
    ]
   },
   "properties": {
    "name": "1-21 CLEARVIEW PLACE BROOKVALE 2100",
    "locID": "LOC000169196932",
    "tech": "FTTN",
    "upgrade": "NULL_NA"
   }
  },
  {
   "type": "Feature",
   "geometry": {
    "type": "Point",
    "coordinates": [
     151.27810325,
     -33.76774595
    ]
   },
   "properties": {
    "name": "1-27 ETHEL AVENUE BROOKVALE 2100",
    "locID": "ChIJEYHCOl-qEmsRZso886ws2qA",
    "tech": "FTTN",
    "upgrade": "UNKNOWN"
   }
  },
  {
   "type": "Feature",
   "geometry": {
    "type": "Point",
    "coordinates": [
     151.27953413,
     -33.75971052
    ]
   },
   "properties": {
    "name": "1-3 CARTER ROAD BROOKVALE 2100",
    "locID": "LOC000119799616",
    "tech": "FTTN",
    "upgrade": "NULL_NA"
   }
  },
  {
   "type": "Feature",
   "geometry": {
    "type": "Point",
    "coordinates": [
     151.27215688,
     -33.76335848
    ]
   },
   "properties": {
    "name": "1-3 CHARD ROAD BROOKVALE 2100",
    "locID": "LOC000091910781",
    "tech": "FTTN",
    "upgrade": "NULL_NA"
   }
  },
  {
   "type": "Feature",
   "geometry": {
    "type": "Point",
    "coordinates": [
     151.26869379,
     -33.76562922
    ]
   },
   "properties": {
    "name": "1-3 DALE STREET BROOKVALE 2100",
    "locID": "LOC000148011009",
    "tech": "FTTN",
    "upgrade": "NULL_NA"
   }
  },
  {
   "type": "Feature",
   "geometry": {
    "type": "Point",
    "coordinates": [
     151.26601865,
     -33.76324564
    ]
   },
   "properties": {
    "name": "1-3 FUNDA PLACE BROOKVALE 2100",
    "locID": "LOC000169231656",
    "tech": "FTTN",
    "upgrade": "NULL_NA"
   }
  },
  {
   "type": "Feature",
   "geometry": {
    "type": "Point",
    "coordinates": [
     151.27515151,
     -33.76190027
    ]
   },
   "properties": {
    "name": "1-3 MITCHELL ROAD BROOKVALE 2100",
    "locID": "LOC000045905759",
    "tech": "FTTN",
    "upgrade": "NULL_NA"
   }
  },
  {
   "type": "Feature",
   "geometry": {
    "type": "Point",
    "coordinates": [
     151.27349762,
     -33.76691187
    ]
   },
   "properties": {
    "name": "1-3 POWELLS ROAD BROOKVALE 2100",
    "locID": "LOC000164440783",
    "tech": "FTTN",
    "upgrade": "NULL_NA"
   }
  },
  {
   "type": "Feature",
   "geometry": {
    "type": "Point",
    "coordinates": [
     151.27729535,
     -33.76735609
    ]
   },
   "properties": {
    "name": "1-7 ADA AVENUE BROOKVALE 2100",
    "locID": "LOC000162035139",
    "tech": "FTTN",
    "upgrade": "NULL_NA"
   }
  },
  {
   "type": "Feature",
   "geometry": {
    "type": "Point",
    "coordinates": [
     151.27741644,
     -33.75915832
    ]
   },
   "properties": {
    "name": "1-7 VICTOR ROAD BROOKVALE 2100",
    "locID": "LOC000041545246",
    "tech": "FTTN",
    "upgrade": "NULL_NA"
   }
  },
  {
   "type": "Feature",
   "geometry": {
    "type": "Point",
    "coordinates": [
     151.27428889,
     -33.75881623
    ]
   },
   "properties": {
    "name": "1-9 FEDERAL PARADE BROOKVALE 2100",
    "locID": "LOC000060271995",
    "tech": "FTTN",
    "upgrade": "NULL_NA"
   }
  },
  {
   "type": "Feature",
   "geometry": {
    "type": "Point",
    "coordinates": [
     151.27349762,
     -33.76691187
    ]
   },
   "properties": {
    "name": "1-9 POWELLS ROAD BROOKVALE 2100",
    "locID": "LOC000042667985",
    "tech": "FTTN",
    "upgrade": "NULL_NA"
   }
  },
  {
   "type": "Feature",
   "geometry": {
    "type": "Point",
    "coordinates": [
     151.27649337,
     -33.76731638
    ]
   },
   "properties": {
    "name": "10 ADA AVENUE BROOKVALE 2100",
    "locID": "LOC000148007396",
    "tech": "FTTN",
    "upgrade": "NULL_NA"
   }
  },
  {
   "type": "Feature",
   "geometry": {
    "type": "Point",
    "coordinates": [
     151.27167982,
     -33.76082898
    ]
   },
   "properties": {
    "name": "10 ALFRED ROAD BROOKVALE 2100",
    "locID": "LOC000081871802",
    "tech": "HFC",
    "upgrade": "NULL_NA"
   }
  },
  {
   "type": "Feature",
   "geometry": {
    "type": "Point",
    "coordinates": [
     151.27354981,
     -33.75854892
    ]
   },
   "properties": {
    "name": "10 BINBA PLACE BROOKVALE 2100",
    "locID": "LOC000001562038",
    "tech": "HFC",
    "upgrade": "NULL_NA"
   }
  },
  {
   "type": "Feature",
   "geometry": {
    "type": "Point",
    "coordinates": [
     151.26732121,
     -33.7617588
    ]
   },
   "properties": {
    "name": "10 BROOKVALE AVENUE BROOKVALE 2100",
    "locID": "LOC000005408288",
    "tech": "FTTN",
    "upgrade": "FTTP_SA"
   }
  },
  {
   "type": "Feature",
   "geometry": {
    "type": "Point",
    "coordinates": [
     151.27281963,
     -33.76285681
    ]
   },
   "properties": {
    "name": "10 CHARD ROAD BROOKVALE 2100",
    "locID": "LOC100025818755",
    "tech": "FTTN",
    "upgrade": "NULL_NA"
   }
  },
  {
   "type": "Feature",
   "geometry": {
    "type": "Point",
    "coordinates": [
     151.2609495,
     -33.76166437
    ]
   },
   "properties": {
    "name": "10 CLEARVIEW PLACE BROOKVALE 2100",
    "locID": "LOC000032965708",
    "tech": "FTTN",
    "upgrade": "NULL_NA"
   }
  },
  {
   "type": "Feature",
   "geometry": {
    "type": "Point",
    "coordinates": [
     151.26880585,
     -33.7605206
    ]
   },
   "properties": {
    "name": "10 CONSUL ROAD BROOKVALE 2100",
    "locID": "LOC000091757451",
    "tech": "HFC",
    "upgrade": "NULL_NA"
   }
  },
  {
   "type": "Feature",
   "geometry": {
    "type": "Point",
    "coordinates": [
     151.26572535,
     -33.76491733
    ]
   },
   "properties": {
    "name": "10 CROSS STREET BROOKVALE 2100",
    "locID": "LOC000119799644",
    "tech": "FTTN",
    "upgrade": "NULL_NA"
   }
  },
  {
   "type": "Feature",
   "geometry": {
    "type": "Point",
    "coordinates": [
     151.26804545,
     -33.7649912
    ]
   },
   "properties": {
    "name": "10 DALE STREET BROOKVALE 2100",
    "locID": "LOC000096154614",
    "tech": "FTTN",
    "upgrade": "NULL_NA"
   }
  },
  {
   "type": "Feature",
   "geometry": {
    "type": "Point",
    "coordinates": [
     151.27729535,
     -33.76735609
    ]
   },
   "properties": {
    "name": "10 ETHEL AVENUE BROOKVALE 2100",
    "locID": "LOC000007285176",
    "tech": "FTTN",
    "upgrade": "NULL_NA"
   }
  },
  {
   "type": "Feature",
   "geometry": {
    "type": "Point",
    "coordinates": [
     151.265426,
     -33.76367713
    ]
   },
   "properties": {
    "name": "10 FUNDA PLACE BROOKVALE 2100",
    "locID": "LOC000148008049",
    "tech": "FTTN",
    "upgrade": "NULL_NA"
   }
  },
  {
   "type": "Feature",
   "geometry": {
    "type": "Point",
    "coordinates": [
     151.27099575,
     -33.7600317
    ]
   },
   "properties": {
    "name": "10 GULLIVER STREET BROOKVALE 2100",
    "locID": "LOC000087842564",
    "tech": "HFC",
    "upgrade": "NULL_NA"
   }
  },
  {
   "type": "Feature",
   "geometry": {
    "type": "Point",
    "coordinates": [
     151.27216064,
     -33.76561561
    ]
   },
   "properties": {
    "name": "10 ORCHARD ROAD BROOKVALE 2100",
    "locID": "LOC000054759369",
    "tech": "FTTN",
    "upgrade": "NULL_NA"
   }
  },
  {
   "type": "Feature",
   "geometry": {
    "type": "Point",
    "coordinates": [
     151.27437993,
     -33.75829799
    ]
   },
   "properties": {
    "name": "10 PINE AVENUE BROOKVALE 2100",
    "locID": "LOC000020622072",
    "tech": "FTTN",
    "upgrade": "NULL_NA"
   }
  },
  {
   "type": "Feature",
   "geometry": {
    "type": "Point",
    "coordinates": [
     151.27282058,
     -33.76616688
    ]
   },
   "properties": {
    "name": "10 POWELLS ROAD BROOKVALE 2100",
    "locID": "LOC000111743732",
    "tech": "FTTN",
    "upgrade": "NULL_NA"
   }
  },
  {
   "type": "Feature",
   "geometry": {
    "type": "Point",
    "coordinates": [
     151.2756038,
     -33.76031076
    ]
   },
   "properties": {
    "name": "10 REGINA AVENUE BROOKVALE 2100",
    "locID": "LOC000013014371",
    "tech": "FTTN",
    "upgrade": "NULL_NA"
   }
  },
  {
   "type": "Feature",
   "geometry": {
    "type": "Point",
    "coordinates": [
     151.27222849,
     -33.76763703
    ]
   },
   "properties": {
    "name": "10 SHORT STREET BROOKVALE 2100",
    "locID": "LOC000177677596",
    "tech": "FTTN",
    "upgrade": "NULL_NA"
   }
  },
  {
   "type": "Feature",
   "geometry": {
    "type": "Point",
    "coordinates": [
     151.27291204,
     -33.76461284
    ]
   },
   "properties": {
    "name": "10 SYDENHAM ROAD BROOKVALE 2100",
    "locID": "LOC000119799663",
    "tech": "FTTN",
    "upgrade": "NULL_NA"
   }
  },
  {
   "type": "Feature",
   "geometry": {
    "type": "Point",
    "coordinates": [
     151.27792664,
     -33.76800075
    ]
   },
   "properties": {
    "name": "10 WATTLE ROAD BROOKVALE 2100",
    "locID": "LOC000089094872",
    "tech": "FTTN",
    "upgrade": "NULL_NA"
   }
  },
  {
   "type": "Feature",
   "geometry": {
    "type": "Point",
    "coordinates": [
     151.27801847,
     -33.76126485
    ]
   },
   "properties": {
    "name": "10 WEST STREET BROOKVALE 2100",
    "locID": "LOC000065152422",
    "tech": "FTTN",
    "upgrade": "NULL_NA"
   }
  },
  {
   "type": "Feature",
   "geometry": {
    "type": "Point",
    "coordinates": [
     151.26946008,
     -33.76798803
    ]
   },
   "properties": {
    "name": "10 WILLIAM STREET BROOKVALE 2100",
    "locID": "LOC000119799685",
    "tech": "FTTN",
    "upgrade": "NULL_NA"
   }
  },
  {
   "type": "Feature",
   "geometry": {
    "type": "Point",
    "coordinates": [
     151.27908344,
     -33.76267322
    ]
   },
   "properties": {
    "name": "10 WINBOURNE ROAD BROOKVALE 2100",
    "locID": "LOC000028215777",
    "tech": "FTTN",
    "upgrade": "NULL_NA"
   }
  },
  {
   "type": "Feature",
   "geometry": {
    "type": "Point",
    "coordinates": [
     151.27291204,
     -33.76461284
    ]
   },
   "properties": {
    "name": "10-14 SYDENHAM ROAD BROOKVALE 2100",
    "locID": "ChIJp4Oqyl2qEmsRTurt4m32tpo",
    "tech": "FTTN",
    "upgrade": "UNKNOWN"
   }
  },
  {
   "type": "Feature",
   "geometry": {
    "type": "Point",
    "coordinates": [
     151.27216064,
     -33.76561561
    ]
   },
   "properties": {
    "name": "10-18 ORCHARD ROAD BROOKVALE 2100",
    "locID": "LOC000054764832",
    "tech": "FTTN",
    "upgrade": "NULL_NA"
   }
  },
  {
   "type": "Feature",
   "geometry": {
    "type": "Point",
    "coordinates": [
     151.26239353,
     -33.76266614
    ]
   },
   "properties": {
    "name": "100 OLD PITTWATER ROAD BROOKVALE 2100",
    "locID": "LOC000169228833",
    "tech": "FTTN",
    "upgrade": "NULL_NA"
   }
  },
  {
   "type": "Feature",
   "geometry": {
    "type": "Point",
    "coordinates": [
     151.26258236,
     -33.76572011
    ]
   },
   "properties": {
    "name": "101 OLD PITTWATER ROAD BROOKVALE 2100",
    "locID": "LOC000119799692",
    "tech": "FTTN",
    "upgrade": "NULL_NA"
   }
  },
  {
   "type": "Feature",
   "geometry": {
    "type": "Point",
    "coordinates": [
     151.26257766,
     -33.76563846
    ]
   },
   "properties": {
    "name": "101-105 OLD PITTWATER ROAD BROOKVALE 2100",
    "locID": "LOC000119799692",
    "tech": "FTTN",
    "upgrade": "NULL_NA"
   }
  },
  {
   "type": "Feature",
   "geometry": {
    "type": "Point",
    "coordinates": [
     151.26259121,
     -33.7634702
    ]
   },
   "properties": {
    "name": "102 OLD PITTWATER ROAD BROOKVALE 2100",
    "locID": "LOC000119799709",
    "tech": "FTTN",
    "upgrade": "NULL_NA"
   }
  },
  {
   "type": "Feature",
   "geometry": {
    "type": "Point",
    "coordinates": [
     151.26259121,
     -33.7634702
    ]
   },
   "properties": {
    "name": "102-104 OLD PITTWATER ROAD BROOKVALE 2100",
    "locID": "ChIJ_68OX0GqEmsRPQ6CX88-21k",
    "tech": "FTTN",
    "upgrade": "UNKNOWN"
   }
  },
  {
   "type": "Feature",
   "geometry": {
    "type": "Point",
    "coordinates": [
     151.26115041,
     -33.76248539
    ]
   },
   "properties": {
    "name": "104 OLD PITTWATER ROAD BROOKVALE 2100",
    "locID": "LOC000101496967",
    "tech": "FTTN",
    "upgrade": "NULL_NA"
   }
  },
  {
   "type": "Feature",
   "geometry": {
    "type": "Point",
    "coordinates": [
     151.26115041,
     -33.76248539
    ]
   },
   "properties": {
    "name": "104-106 OLD PITTWATER ROAD BROOKVALE 2100",
    "locID": "ChIJiZoXE0GqEmsRwHHh80xl92k",
    "tech": "FTTN",
    "upgrade": "UNKNOWN"
   }
  },
  {
   "type": "Feature",
   "geometry": {
    "type": "Point",
    "coordinates": [
     151.26140927,
     -33.76331713
    ]
   },
   "properties": {
    "name": "106 OLD PITTWATER ROAD BROOKVALE 2100",
    "locID": "LOC000165874995",
    "tech": "FTTN",
    "upgrade": "NULL_NA"
   }
  },
  {
   "type": "Feature",
   "geometry": {
    "type": "Point",
    "coordinates": [
     151.26259386,
     -33.76591104
    ]
   },
   "properties": {
    "name": "107 OLD PITTWATER ROAD BROOKVALE 2100",
    "locID": "LOC000022172195",
    "tech": "FTTN",
    "upgrade": "NULL_NA"
   }
  },
  {
   "type": "Feature",
   "geometry": {
    "type": "Point",
    "coordinates": [
     151.26165365,
     -33.76433671
    ]
   },
   "properties": {
    "name": "108 OLD PITTWATER ROAD BROOKVALE 2100",
    "locID": "LOC000086620032",
    "tech": "FTTN",
    "upgrade": "NULL_NA"
   }
  },
  {
   "type": "Feature",
   "geometry": {
    "type": "Point",
    "coordinates": [
     151.26165365,
     -33.76433671
    ]
   },
   "properties": {
    "name": "108-122 OLD PITTWATER ROAD BROOKVALE 2100",
    "locID": "ChIJpetSs0aqEmsRECicIt4PrTs",
    "tech": "FTTN",
    "upgrade": "UNKNOWN"
   }
  },
  {
   "type": "Feature",
   "geometry": {
    "type": "Point",
    "coordinates": [
     151.26255027,
     -33.76603026
    ]
   },
   "properties": {
    "name": "109 OLD PITTWATER ROAD BROOKVALE 2100",
    "locID": "LOC000101610867",
    "tech": "FTTN",
    "upgrade": "NULL_NA"
   }
  },
  {
   "type": "Feature",
   "geometry": {
    "type": "Point",
    "coordinates": [
     151.27354981,
     -33.75854892
    ]
   },
   "properties": {
    "name": "10B BINBA PLACE BROOKVALE 2100",
    "locID": "ChIJCYE1xmaqEmsROgKHq-O0Yhg",
    "tech": "HFC",
    "upgrade": "UNKNOWN"
   }
  },
  {
   "type": "Feature",
   "geometry": {
    "type": "Point",
    "coordinates": [
     151.27437993,
     -33.75829799
    ]
   },
   "properties": {
    "name": "10B PINE AVENUE BROOKVALE 2100",
    "locID": "LOC000020490069",
    "tech": "FTTN",
    "upgrade": "NULL_NA"
   }
  },
  {
   "type": "Feature",
   "geometry": {
    "type": "Point",
    "coordinates": [
     151.27718249,
     -33.76692124
    ]
   },
   "properties": {
    "name": "11 ADA AVENUE BROOKVALE 2100",
    "locID": "LOC000014015418",
    "tech": "FTTN",
    "upgrade": "NULL_NA"
   }
  },
  {
   "type": "Feature",
   "geometry": {
    "type": "Point",
    "coordinates": [
     151.27292721,
     -33.75765667
    ]
   },
   "properties": {
    "name": "11 ALFRED ROAD BROOKVALE 2100",
    "locID": "LOC000071199449",
    "tech": "HFC",
    "upgrade": "NULL_NA"
   }
  },
  {
   "type": "Feature",
   "geometry": {
    "type": "Point",
    "coordinates": [
     151.2682721,
     -33.76166101
    ]
   },
   "properties": {
    "name": "11 BEACON HILL ROAD BROOKVALE 2100",
    "locID": "LOC000031389846",
    "tech": "HFC",
    "upgrade": "NULL_NA"
   }
  },
  {
   "type": "Feature",
   "geometry": {
    "type": "Point",
    "coordinates": [
     151.26626936,
     -33.76221305
    ]
   },
   "properties": {
    "name": "11 BROOKVALE AVENUE BROOKVALE 2100",
    "locID": "LOC000050791405",
    "tech": "FTTN",
    "upgrade": "NULL_NA"
   }
  },
  {
   "type": "Feature",
   "geometry": {
    "type": "Point",
    "coordinates": [
     151.27943432,
     -33.76032465
    ]
   },
   "properties": {
    "name": "11 CARTER ROAD BROOKVALE 2100",
    "locID": "LOC000119799998",
    "tech": "FTTN",
    "upgrade": "NULL_NA"
   }
  },
  {
   "type": "Feature",
   "geometry": {
    "type": "Point",
    "coordinates": [
     151.27307961,
     -33.7635335
    ]
   },
   "properties": {
    "name": "11 CHARD ROAD BROOKVALE 2100",
    "locID": "LOC000099953461",
    "tech": "FTTN",
    "upgrade": "NULL_NA"
   }
  },
  {
   "type": "Feature",
   "geometry": {
    "type": "Point",
    "coordinates": [
     151.26050629,
     -33.7617375
    ]
   },
   "properties": {
    "name": "11 CLEARVIEW PLACE BROOKVALE 2100",
    "locID": "LOC000091359737",
    "tech": "FTTN",
    "upgrade": "NULL_NA"
   }
  },
  {
   "type": "Feature",
   "geometry": {
    "type": "Point",
    "coordinates": [
     151.26954883,
     -33.76091368
    ]
   },
   "properties": {
    "name": "11 CONSUL ROAD BROOKVALE 2100",
    "locID": "LOC000081375451",
    "tech": "HFC",
    "upgrade": "NULL_NA"
   }
  },
  {
   "type": "Feature",
   "geometry": {
    "type": "Point",
    "coordinates": [
     151.26885539,
     -33.76482432
    ]
   },
   "properties": {
    "name": "11 DALE STREET BROOKVALE 2100",
    "locID": "LOC000108216887",
    "tech": "FTTN",
    "upgrade": "NULL_NA"
   }
  },
  {
   "type": "Feature",
   "geometry": {
    "type": "Point",
    "coordinates": [
     151.26988454,
     -33.76096858
    ]
   },
   "properties": {
    "name": "11 ELIZABETH PLACE BROOKVALE 2100",
    "locID": "LOC000050425646",
    "tech": "HFC",
    "upgrade": "NULL_NA"
   }
  },
  {
   "type": "Feature",
   "geometry": {
    "type": "Point",
    "coordinates": [
     151.27657724,
     -33.75984909
    ]
   },
   "properties": {
    "name": "11 FEDERAL PARADE BROOKVALE 2100",
    "locID": "LOC000030350542",
    "tech": "FTTN",
    "upgrade": "NULL_NA"
   }
  },
  {
   "type": "Feature",
   "geometry": {
    "type": "Point",
    "coordinates": [
     151.26679641,
     -33.76435774
    ]
   },
   "properties": {
    "name": "11 GREEN STREET BROOKVALE 2100",
    "locID": "LOC000023054199",
    "tech": "FTTN",
    "upgrade": "NULL_NA"
   }
  },
  {
   "type": "Feature",
   "geometry": {
    "type": "Point",
    "coordinates": [
     151.27064964,
     -33.76061051
    ]
   },
   "properties": {
    "name": "11 GULLIVER STREET BROOKVALE 2100",
    "locID": "LOC000038100170",
    "tech": "HFC",
    "upgrade": "NULL_NA"
   }
  },
  {
   "type": "Feature",
   "geometry": {
    "type": "Point",
    "coordinates": [
     151.27491647,
     -33.76308708
    ]
   },
   "properties": {
    "name": "11 MITCHELL ROAD BROOKVALE 2100",
    "locID": "LOC000039803482",
    "tech": "FTTN",
    "upgrade": "NULL_NA"
   }
  },
  {
   "type": "Feature",
   "geometry": {
    "type": "Point",
    "coordinates": [
     151.26916716,
     -33.76313615
    ]
   },
   "properties": {
    "name": "11 OLD PITTWATER ROAD BROOKVALE 2100",
    "locID": "LOC000058416996",
    "tech": "HFC",
    "upgrade": "NULL_NA"
   }
  },
  {
   "type": "Feature",
   "geometry": {
    "type": "Point",
    "coordinates": [
     151.2723935,
     -33.76500007
    ]
   },
   "properties": {
    "name": "11 ORCHARD ROAD BROOKVALE 2100",
    "locID": "LOC000092304903",
    "tech": "FTTN",
    "upgrade": "NULL_NA"
   }
  },
  {
   "type": "Feature",
   "geometry": {
    "type": "Point",
    "coordinates": [
     151.27510341,
     -33.76006893
    ]
   },
   "properties": {
    "name": "11 PINE AVENUE BROOKVALE 2100",
    "locID": "LOC000103652795",
    "tech": "FTTN",
    "upgrade": "NULL_NA"
   }
  },
  {
   "type": "Feature",
   "geometry": {
    "type": "Point",
    "coordinates": [
     151.27645537,
     -33.75812224
    ]
   },
   "properties": {
    "name": "11 SHACKEL AVENUE BROOKVALE 2100",
    "locID": "LOC000075431240",
    "tech": "FTTN",
    "upgrade": "NULL_NA"
   }
  },
  {
   "type": "Feature",
   "geometry": {
    "type": "Point",
    "coordinates": [
     151.2730317,
     -33.7639868
    ]
   },
   "properties": {
    "name": "11 SYDENHAM ROAD BROOKVALE 2100",
    "locID": "LOC000088771568",
    "tech": "FTTN",
    "upgrade": "NULL_NA"
   }
  },
  {
   "type": "Feature",
   "geometry": {
    "type": "Point",
    "coordinates": [
     151.2776972,
     -33.75923225
    ]
   },
   "properties": {
    "name": "11 VICTOR ROAD BROOKVALE 2100",
    "locID": "LOC000095777887",
    "tech": "FTTN",
    "upgrade": "NULL_NA"
   }
  },
  {
   "type": "Feature",
   "geometry": {
    "type": "Point",
    "coordinates": [
     151.27730851,
     -33.757407
    ]
   },
   "properties": {
    "name": "11 WARRINGAH ROAD BROOKVALE 2100",
    "locID": "LOC000091840947",
    "tech": "FTTN",
    "upgrade": "NULL_NA"
   }
  },
  {
   "type": "Feature",
   "geometry": {
    "type": "Point",
    "coordinates": [
     151.277537,
     -33.76185225
    ]
   },
   "properties": {
    "name": "11 WEST STREET BROOKVALE 2100",
    "locID": "LOC000072664938",
    "tech": "FTTN",
    "upgrade": "NULL_NA"
   }
  },
  {
   "type": "Feature",
   "geometry": {
    "type": "Point",
    "coordinates": [
     151.27645537,
     -33.75812224
    ]
   },
   "properties": {
    "name": "11-13 SHACKEL AVENUE BROOKVALE 2100",
    "locID": "LOC000075431240",
    "tech": "FTTN",
    "upgrade": "NULL_NA"
   }
  },
  {
   "type": "Feature",
   "geometry": {
    "type": "Point",
    "coordinates": [
     151.27943432,
     -33.76032465
    ]
   },
   "properties": {
    "name": "11-25 CARTER ROAD BROOKVALE 2100",
    "locID": "ChIJfdvQxGGqEmsRLrvIjEUMdqc",
    "tech": "FTTN",
    "upgrade": "UNKNOWN"
   }
  },
  {
   "type": "Feature",
   "geometry": {
    "type": "Point",
    "coordinates": [
     151.26250667,
     -33.76614948
    ]
   },
   "properties": {
    "name": "111 OLD PITTWATER ROAD BROOKVALE 2100",
    "locID": "LOC000008336643",
    "tech": "FTTN",
    "upgrade": "NULL_NA"
   }
  },
  {
   "type": "Feature",
   "geometry": {
    "type": "Point",
    "coordinates": [
     151.26077128,
     -33.76440576
    ]
   },
   "properties": {
    "name": "114 OLD PITTWATER ROAD BROOKVALE 2100",
    "locID": "LOC000165877623",
    "tech": "FTTN",
    "upgrade": "NULL_NA"
   }
  },
  {
   "type": "Feature",
   "geometry": {
    "type": "Point",
    "coordinates": [
     151.2627764,
     -33.76677104
    ]
   },
   "properties": {
    "name": "117 OLD PITTWATER ROAD BROOKVALE 2100",
    "locID": "LOC000169205488",
    "tech": "FTTB",
    "upgrade": "NULL_NA"
   }
  },
  {
   "type": "Feature",
   "geometry": {
    "type": "Point",
    "coordinates": [
     151.27510341,
     -33.76006893
    ]
   },
   "properties": {
    "name": "11A PINE AVENUE BROOKVALE 2100",
    "locID": "LOC000148007723",
    "tech": "FTTN",
    "upgrade": "NULL_NA"
   }
  },
  {
   "type": "Feature",
   "geometry": {
    "type": "Point",
    "coordinates": [
     151.27730851,
     -33.757407
    ]
   },
   "properties": {
    "name": "11A WARRINGAH ROAD BROOKVALE 2100",
    "locID": "LOC000091648099",
    "tech": "FTTN",
    "upgrade": "NULL_NA"
   }
  },
  {
   "type": "Feature",
   "geometry": {
    "type": "Point",
    "coordinates": [
     151.27170211,
     -33.76072146
    ]
   },
   "properties": {
    "name": "12 ALFRED ROAD BROOKVALE 2100",
    "locID": "LOC000005518087",
    "tech": "HFC",
    "upgrade": "NULL_NA"
   }
  },
  {
   "type": "Feature",
   "geometry": {
    "type": "Point",
    "coordinates": [
     151.26715636,
     -33.76170219
    ]
   },
   "properties": {
    "name": "12 BROOKVALE AVENUE BROOKVALE 2100",
    "locID": "LOC000081640254",
    "tech": "FTTN",
    "upgrade": "FTTP_SA"
   }
  },
  {
   "type": "Feature",
   "geometry": {
    "type": "Point",
    "coordinates": [
     151.26052762,
     -33.76142044
    ]
   },
   "properties": {
    "name": "12 CLEARVIEW PLACE BROOKVALE 2100",
    "locID": "LOC000045989027",
    "tech": "FTTN",
    "upgrade": "NULL_NA"
   }
  },
  {
   "type": "Feature",
   "geometry": {
    "type": "Point",
    "coordinates": [
     151.2690099,
     -33.76041922
    ]
   },
   "properties": {
    "name": "12 CONSUL ROAD BROOKVALE 2100",
    "locID": "LOC000049328944",
    "tech": "FTTB",
    "upgrade": "NULL_NA"
   }
  },
  {
   "type": "Feature",
   "geometry": {
    "type": "Point",
    "coordinates": [
     151.26575227,
     -33.76478306
    ]
   },
   "properties": {
    "name": "12 CROSS STREET BROOKVALE 2100",
    "locID": "LOC000119800056",
    "tech": "FTTN",
    "upgrade": "NULL_NA"
   }
  },
  {
   "type": "Feature",
   "geometry": {
    "type": "Point",
    "coordinates": [
     151.26804545,
     -33.7649912
    ]
   },
   "properties": {
    "name": "12 DALE STREET BROOKVALE 2100",
    "locID": "LOC000017227907",
    "tech": "HFC",
    "upgrade": "NULL_NA"
   }
  },
  {
   "type": "Feature",
   "geometry": {
    "type": "Point",
    "coordinates": [
     151.27759782,
     -33.76697876
    ]
   },
   "properties": {
    "name": "12 ETHEL AVENUE BROOKVALE 2100",
    "locID": "LOC000011497905",
    "tech": "FTTN",
    "upgrade": "NULL_NA"
   }
  },
  {
   "type": "Feature",
   "geometry": {
    "type": "Point",
    "coordinates": [
     151.27714581,
     -33.7594147
    ]
   },
   "properties": {
    "name": "12 FEDERAL PARADE BROOKVALE 2100",
    "locID": "LOC000055608254",
    "tech": "FTTN",
    "upgrade": "NULL_NA"
   }
  },
  {
   "type": "Feature",
   "geometry": {
    "type": "Point",
    "coordinates": [
     151.26511034,
     -33.76359219
    ]
   },
   "properties": {
    "name": "12 FUNDA PLACE BROOKVALE 2100",
    "locID": "LOC000054973380",
    "tech": "FTTN",
    "upgrade": "NULL_NA"
   }
  },
  {
   "type": "Feature",
   "geometry": {
    "type": "Point",
    "coordinates": [
     151.26769492,
     -33.76399321
    ]
   },
   "properties": {
    "name": "12 GREEN STREET BROOKVALE 2100",
    "locID": "LOC000032290524",
    "tech": "FTTN",
    "upgrade": "NULL_NA"
   }
  },
  {
   "type": "Feature",
   "geometry": {
    "type": "Point",
    "coordinates": [
     151.27435749,
     -33.75811183
    ]
   },
   "properties": {
    "name": "12 PINE AVENUE BROOKVALE 2100",
    "locID": "LOC000067654583",
    "tech": "FTTN",
    "upgrade": "NULL_NA"
   }
  },
  {
   "type": "Feature",
   "geometry": {
    "type": "Point",
    "coordinates": [
     151.2726072,
     -33.76613718
    ]
   },
   "properties": {
    "name": "12 POWELLS ROAD BROOKVALE 2100",
    "locID": "LOC000113431800",
    "tech": "FTTN",
    "upgrade": "NULL_NA"
   }
  },
  {
   "type": "Feature",
   "geometry": {
    "type": "Point",
    "coordinates": [
     151.27566118,
     -33.76054072
    ]
   },
   "properties": {
    "name": "12 REGINA AVENUE BROOKVALE 2100",
    "locID": "LOC000050475184",
    "tech": "FTTN",
    "upgrade": "NULL_NA"
   }
  },
  {
   "type": "Feature",
   "geometry": {
    "type": "Point",
    "coordinates": [
     151.26935056,
     -33.76509828
    ]
   },
   "properties": {
    "name": "12 ROGER STREET BROOKVALE 2100",
    "locID": "LOC000180970848",
    "tech": "FTTP",
    "upgrade": "NULL_NA"
   }
  },
  {
   "type": "Feature",
   "geometry": {
    "type": "Point",
    "coordinates": [
     151.27312517,
     -33.7646424
    ]
   },
   "properties": {
    "name": "12 SYDENHAM ROAD BROOKVALE 2100",
    "locID": "LOC000053735556",
    "tech": "FTTN",
    "upgrade": "NULL_NA"
   }
  },
  {
   "type": "Feature",
   "geometry": {
    "type": "Point",
    "coordinates": [
     151.27710849,
     -33.75920834
    ]
   },
   "properties": {
    "name": "12 VICTOR ROAD BROOKVALE 2100",
    "locID": "LOC000041603020",
    "tech": "FTTN",
    "upgrade": "NULL_NA"
   }
  },
  {
   "type": "Feature",
   "geometry": {
    "type": "Point",
    "coordinates": [
     151.27752816,
     -33.76794481
    ]
   },
   "properties": {
    "name": "12 WATTLE ROAD BROOKVALE 2100",
    "locID": "LOC000088519663",
    "tech": "FTTN",
    "upgrade": "NULL_NA"
   }
  },
  {
   "type": "Feature",
   "geometry": {
    "type": "Point",
    "coordinates": [
     151.2781476,
     -33.76128305
    ]
   },
   "properties": {
    "name": "12 WEST STREET BROOKVALE 2100",
    "locID": "LOC000036103791",
    "tech": "FTTN",
    "upgrade": "NULL_NA"
   }
  },
  {
   "type": "Feature",
   "geometry": {
    "type": "Point",
    "coordinates": [
     151.26958932,
     -33.76801188
    ]
   },
   "properties": {
    "name": "12 WILLIAM STREET BROOKVALE 2100",
    "locID": "LOC000119799685",
    "tech": "FTTN",
    "upgrade": "NULL_NA"
   }
  },
  {
   "type": "Feature",
   "geometry": {
    "type": "Point",
    "coordinates": [
     151.27892995,
     -33.7626519
    ]
   },
   "properties": {
    "name": "12 WINBOURNE ROAD BROOKVALE 2100",
    "locID": "LOC000064533868",
    "tech": "FTTN",
    "upgrade": "NULL_NA"
   }
  },
  {
   "type": "Feature",
   "geometry": {
    "type": "Point",
    "coordinates": [
     151.27303163,
     -33.762886
    ]
   },
   "properties": {
    "name": "12-14 CHARD ROAD BROOKVALE 2100",
    "locID": "LOC000004593086",
    "tech": "FTTN",
    "upgrade": "NULL_NA"
   }
  },
  {
   "type": "Feature",
   "geometry": {
    "type": "Point",
    "coordinates": [
     151.27655441,
     -33.75746966
    ]
   },
   "properties": {
    "name": "12-16 SHACKEL AVENUE BROOKVALE 2100",
    "locID": "LOC000169231562",
    "tech": "FTTN",
    "upgrade": "NULL_NA"
   }
  },
  {
   "type": "Feature",
   "geometry": {
    "type": "Point",
    "coordinates": [
     151.27892995,
     -33.7626519
    ]
   },
   "properties": {
    "name": "12-38 WINBOURNE ROAD BROOKVALE 2100",
    "locID": "ChIJz1-CE2CqEmsRvNE1DN2hx7o",
    "tech": "FTTN",
    "upgrade": "UNKNOWN"
   }
  },
  {
   "type": "Feature",
   "geometry": {
    "type": "Point",
    "coordinates": [
     151.26175949,
     -33.76520078
    ]
   },
   "properties": {
    "name": "120 OLD PITTWATER ROAD BROOKVALE 2100",
    "locID": "LOC000191660291",
    "tech": "FTTN",
    "upgrade": "NULL_NA"
   }
  },
  {
   "type": "Feature",
   "geometry": {
    "type": "Point",
    "coordinates": [
     151.26250676,
     -33.76736182
    ]
   },
   "properties": {
    "name": "121 OLD PITTWATER ROAD BROOKVALE 2100",
    "locID": "LOC000080543058",
    "tech": "FTTN",
    "upgrade": "NULL_NA"
   }
  },
  {
   "type": "Feature",
   "geometry": {
    "type": "Point",
    "coordinates": [
     151.26251396,
     -33.76714345
    ]
   },
   "properties": {
    "name": "121A OLD PITTWATER ROAD BROOKVALE 2100",
    "locID": "LOC000081098700",
    "tech": "FTTN",
    "upgrade": "NULL_NA"
   }
  },
  {
   "type": "Feature",
   "geometry": {
    "type": "Point",
    "coordinates": [
     151.25998871,
     -33.76643563
    ]
   },
   "properties": {
    "name": "122 OLD PITTWATER ROAD BROOKVALE 2100",
    "locID": "LOC000028042226",
    "tech": "FTTB",
    "upgrade": "NULL_NA"
   }
  },
  {
   "type": "Feature",
   "geometry": {
    "type": "Point",
    "coordinates": [
     151.25998871,
     -33.76643563
    ]
   },
   "properties": {
    "name": "122-126 OLD PITTWATER ROAD BROOKVALE 2100",
    "locID": "LOC100022419419",
    "tech": "FTTN",
    "upgrade": "NULL_NA"
   }
  },
  {
   "type": "Feature",
   "geometry": {
    "type": "Point",
    "coordinates": [
     151.26253926,
     -33.76758034
    ]
   },
   "properties": {
    "name": "123 OLD PITTWATER ROAD BROOKVALE 2100",
    "locID": "LOC000164265044",
    "tech": "FTTN",
    "upgrade": "NULL_NA"
   }
  },
  {
   "type": "Feature",
   "geometry": {
    "type": "Point",
    "coordinates": [
     151.26099478,
     -33.76626924
    ]
   },
   "properties": {
    "name": "124 OLD PITTWATER ROAD BROOKVALE 2100",
    "locID": "LOC000028058433",
    "tech": "FTTB",
    "upgrade": "NULL_NA"
   }
  },
  {
   "type": "Feature",
   "geometry": {
    "type": "Point",
    "coordinates": [
     151.26320806,
     -33.76698481
    ]
   },
   "properties": {
    "name": "125 OLD PITTWATER ROAD BROOKVALE 2100",
    "locID": "LOC000028170679",
    "tech": "FTTB",
    "upgrade": "NULL_NA"
   }
  },
  {
   "type": "Feature",
   "geometry": {
    "type": "Point",
    "coordinates": [
     151.25998871,
     -33.76643563
    ]
   },
   "properties": {
    "name": "126-144 OLD PITTWATER ROAD BROOKVALE 2100",
    "locID": "ChIJWbpqqUeqEmsRJDNUxzEWoZI",
    "tech": "FTTN",
    "upgrade": "UNKNOWN"
   }
  },
  {
   "type": "Feature",
   "geometry": {
    "type": "Point",
    "coordinates": [
     151.2633996,
     -33.76710513
    ]
   },
   "properties": {
    "name": "127 OLD PITTWATER ROAD BROOKVALE 2100",
    "locID": "LOC000056865859",
    "tech": "FTTN",
    "upgrade": "NULL_NA"
   }
  },
  {
   "type": "Feature",
   "geometry": {
    "type": "Point",
    "coordinates": [
     151.2633996,
     -33.76710513
    ]
   },
   "properties": {
    "name": "127B OLD PITTWATER ROAD BROOKVALE 2100",
    "locID": "ChIJb0xAJUSqEmsRpmU9SS8lOHc",
    "tech": "FTTB",
    "upgrade": "UNKNOWN"
   }
  },
  {
   "type": "Feature",
   "geometry": {
    "type": "Point",
    "coordinates": [
     151.26035933,
     -33.76690005
    ]
   },
   "properties": {
    "name": "128 OLD PITTWATER ROAD BROOKVALE 2100",
    "locID": "LOC000025050416",
    "tech": "FTTN",
    "upgrade": "NULL_NA"
   }
  },
  {
   "type": "Feature",
   "geometry": {
    "type": "Point",
    "coordinates": [
     151.26876705,
     -33.76036038
    ]
   },
   "properties": {
    "name": "12A CONSUL ROAD BROOKVALE 2100",
    "locID": "LOC000008855717",
    "tech": "HFC",
    "upgrade": "NULL_NA"
   }
  },
  {
   "type": "Feature",
   "geometry": {
    "type": "Point",
    "coordinates": [
     151.27710849,
     -33.75920834
    ]
   },
   "properties": {
    "name": "12A VICTOR ROAD BROOKVALE 2100",
    "locID": "LOC000041631965",
    "tech": "FTTN",
    "upgrade": "NULL_NA"
   }
  },
  {
   "type": "Feature",
   "geometry": {
    "type": "Point",
    "coordinates": [
     151.2690099,
     -33.76041922
    ]
   },
   "properties": {
    "name": "12B CONSUL ROAD BROOKVALE 2100",
    "locID": "LOC000008849822",
    "tech": "HFC",
    "upgrade": "NULL_NA"
   }
  },
  {
   "type": "Feature",
   "geometry": {
    "type": "Point",
    "coordinates": [
     151.27724499,
     -33.76660642
    ]
   },
   "properties": {
    "name": "13 ADA AVENUE BROOKVALE 2100",
    "locID": "LOC000064491850",
    "tech": "FTTN",
    "upgrade": "NULL_NA"
   }
  },
  {
   "type": "Feature",
   "geometry": {
    "type": "Point",
    "coordinates": [
     151.27310664,
     -33.75766074
    ]
   },
   "properties": {
    "name": "13 ALFRED ROAD BROOKVALE 2100",
    "locID": "LOC000057615545",
    "tech": "HFC",
    "upgrade": "NULL_NA"
   }
  },
  {
   "type": "Feature",
   "geometry": {
    "type": "Point",
    "coordinates": [
     151.26823618,
     -33.76153622
    ]
   },
   "properties": {
    "name": "13 BEACON HILL ROAD BROOKVALE 2100",
    "locID": "LOC000021356582",
    "tech": "HFC",
    "upgrade": "NULL_NA"
   }
  },
  {
   "type": "Feature",
   "geometry": {
    "type": "Point",
    "coordinates": [
     151.27940732,
     -33.76046013
    ]
   },
   "properties": {
    "name": "13 CARTER ROAD BROOKVALE 2100",
    "locID": "LOC000119800136",
    "tech": "FTTN",
    "upgrade": "NULL_NA"
   }
  },
  {
   "type": "Feature",
   "geometry": {
    "type": "Point",
    "coordinates": [
     151.27322887,
     -33.76355429
    ]
   },
   "properties": {
    "name": "13 CHARD ROAD BROOKVALE 2100",
    "locID": "LOC000088311332",
    "tech": "FTTN",
    "upgrade": "NULL_NA"
   }
  },
  {
   "type": "Feature",
   "geometry": {
    "type": "Point",
    "coordinates": [
     151.26053954,
     -33.76116318
    ]
   },
   "properties": {
    "name": "13 CLEARVIEW PLACE BROOKVALE 2100",
    "locID": "LOC000119763987",
    "tech": "FTTN",
    "upgrade": "NULL_NA"
   }
  },
  {
   "type": "Feature",
   "geometry": {
    "type": "Point",
    "coordinates": [
     151.26958183,
     -33.7607537
    ]
   },
   "properties": {
    "name": "13 CONSUL ROAD BROOKVALE 2100",
    "locID": "LOC000004737945",
    "tech": "HFC",
    "upgrade": "NULL_NA"
   }
  },
  {
   "type": "Feature",
   "geometry": {
    "type": "Point",
    "coordinates": [
     151.26891789,
     -33.76465044
    ]
   },
   "properties": {
    "name": "13 DALE STREET BROOKVALE 2100",
    "locID": "LOC000024136119",
    "tech": "FTTN",
    "upgrade": "NULL_NA"
   }
  },
  {
   "type": "Feature",
   "geometry": {
    "type": "Point",
    "coordinates": [
     151.2699702,
     -33.7608141
    ]
   },
   "properties": {
    "name": "13 ELIZABETH PLACE BROOKVALE 2100",
    "locID": "LOC000022258646",
    "tech": "HFC",
    "upgrade": "NULL_NA"
   }
  },
  {
   "type": "Feature",
   "geometry": {
    "type": "Point",
    "coordinates": [
     151.27831491,
     -33.76668627
    ]
   },
   "properties": {
    "name": "13 ETHEL AVENUE BROOKVALE 2100",
    "locID": "LOC000099063858",
    "tech": "FTTN",
    "upgrade": "NULL_NA"
   }
  },
  {
   "type": "Feature",
   "geometry": {
    "type": "Point",
    "coordinates": [
     151.27428889,
     -33.75881623
    ]
   },
   "properties": {
    "name": "13 FEDERAL PARADE BROOKVALE 2100",
    "locID": "LOC000055672949",
    "tech": "FTTN",
    "upgrade": "NULL_NA"
   }
  },
  {
   "type": "Feature",
   "geometry": {
    "type": "Point",
    "coordinates": [
     151.26514958,
     -33.76338242
    ]
   },
   "properties": {
    "name": "13 FUNDA PLACE BROOKVALE 2100",
    "locID": "LOC000067729440",
    "tech": "FTTN",
    "upgrade": "FTTP_SA"
   }
  },
  {
   "type": "Feature",
   "geometry": {
    "type": "Point",
    "coordinates": [
     151.26676109,
     -33.76453705
    ]
   },
   "properties": {
    "name": "13 GREEN STREET BROOKVALE 2100",
    "locID": "LOC000039973264",
    "tech": "FTTN",
    "upgrade": "NULL_NA"
   }
  },
  {
   "type": "Feature",
   "geometry": {
    "type": "Point",
    "coordinates": [
     151.27480153,
     -33.76366737
    ]
   },
   "properties": {
    "name": "13 MITCHELL ROAD BROOKVALE 2100",
    "locID": "LOC000169259039",
    "tech": "FTTN",
    "upgrade": "NULL_NA"
   }
  },
  {
   "type": "Feature",
   "geometry": {
    "type": "Point",
    "coordinates": [
     151.26900525,
     -33.76312738
    ]
   },
   "properties": {
    "name": "13 OLD PITTWATER ROAD BROOKVALE 2100",
    "locID": "LOC000101396278",
    "tech": "HFC",
    "upgrade": "NULL_NA"
   }
  },
  {
   "type": "Feature",
   "geometry": {
    "type": "Point",
    "coordinates": [
     151.27265262,
     -33.76480769
    ]
   },
   "properties": {
    "name": "13 ORCHARD ROAD BROOKVALE 2100",
    "locID": "LOC000110461378",
    "tech": "FTTN",
    "upgrade": "NULL_NA"
   }
  },
  {
   "type": "Feature",
   "geometry": {
    "type": "Point",
    "coordinates": [
     151.27512031,
     -33.75995332
    ]
   },
   "properties": {
    "name": "13 PINE AVENUE BROOKVALE 2100",
    "locID": "LOC000107381569",
    "tech": "FTTN",
    "upgrade": "NULL_NA"
   }
  },
  {
   "type": "Feature",
   "geometry": {
    "type": "Point",
    "coordinates": [
     151.2762124,
     -33.75808577
    ]
   },
   "properties": {
    "name": "13 SHACKEL AVENUE BROOKVALE 2100",
    "locID": "LOC000010549328",
    "tech": "FTTN",
    "upgrade": "NULL_NA"
   }
  },
  {
   "type": "Feature",
   "geometry": {
    "type": "Point",
    "coordinates": [
     151.27324606,
     -33.76401658
    ]
   },
   "properties": {
    "name": "13 SYDENHAM ROAD BROOKVALE 2100",
    "locID": "LOC000015482147",
    "tech": "FTTN",
    "upgrade": "NULL_NA"
   }
  },
  {
   "type": "Feature",
   "geometry": {
    "type": "Point",
    "coordinates": [
     151.27768412,
     -33.76187262
    ]
   },
   "properties": {
    "name": "13 WEST STREET BROOKVALE 2100",
    "locID": "LOC000042185969",
    "tech": "FTTN",
    "upgrade": "NULL_NA"
   }
  },
  {
   "type": "Feature",
   "geometry": {
    "type": "Point",
    "coordinates": [
     151.27831491,
     -33.76668627
    ]
   },
   "properties": {
    "name": "13-15 ETHEL AVENUE BROOKVALE 2100",
    "locID": "ChIJL5buEV-qEmsRttX_LLcWVEo",
    "tech": "FTTN",
    "upgrade": "UNKNOWN"
   }
  },
  {
   "type": "Feature",
   "geometry": {
    "type": "Point",
    "coordinates": [
     151.26032701,
     -33.76730362
    ]
   },
   "properties": {
    "name": "130 OLD PITTWATER ROAD BROOKVALE 2100",
    "locID": "LOC000169204766",
    "tech": "FTTN",
    "upgrade": "NULL_NA"
   }
  },
  {
   "type": "Feature",
   "geometry": {
    "type": "Point",
    "coordinates": [
     151.26129855,
     -33.7675617
    ]
   },
   "properties": {
    "name": "134-136 OLD PITTWATER ROAD BROOKVALE 2100",
    "locID": "ChIJp6g6aEaqEmsRSyZheYwAMvw",
    "tech": "FTTN",
    "upgrade": "UNKNOWN"
   }
  },
  {
   "type": "Feature",
   "geometry": {
    "type": "Point",
    "coordinates": [
     151.26129855,
     -33.7675617
    ]
   },
   "properties": {
    "name": "134-140 OLD PITTWATER ROAD BROOKVALE 2100",
    "locID": "LOC000055104712",
    "tech": "FTTN",
    "upgrade": "NULL_NA"
   }
  },
  {
   "type": "Feature",
   "geometry": {
    "type": "Point",
    "coordinates": [
     151.26023334,
     -33.76799786
    ]
   },
   "properties": {
    "name": "138-140 OLD PITTWATER ROAD BROOKVALE 2100",
    "locID": "ChIJS2iMNkaqEmsRsRhaQs-oUwg",
    "tech": "FTTN",
    "upgrade": "UNKNOWN"
   }
  },
  {
   "type": "Feature",
   "geometry": {
    "type": "Point",
    "coordinates": [
     151.26053954,
     -33.76116318
    ]
   },
   "properties": {
    "name": "13B CLEARVIEW PLACE BROOKVALE 2100",
    "locID": "LOC000101959073",
    "tech": "FTTN",
    "upgrade": "NULL_NA"
   }
  },
  {
   "type": "Feature",
   "geometry": {
    "type": "Point",
    "coordinates": [
     151.27660224,
     -33.76682305
    ]
   },
   "properties": {
    "name": "14 ADA AVENUE BROOKVALE 2100",
    "locID": "LOC000101673944",
    "tech": "FTTN",
    "upgrade": "NULL_NA"
   }
  },
  {
   "type": "Feature",
   "geometry": {
    "type": "Point",
    "coordinates": [
     151.27172312,
     -33.76061188
    ]
   },
   "properties": {
    "name": "14 ALFRED ROAD BROOKVALE 2100",
    "locID": "LOC000095706658",
    "tech": "HFC",
    "upgrade": "NULL_NA"
   }
  },
  {
   "type": "Feature",
   "geometry": {
    "type": "Point",
    "coordinates": [
     151.26697091,
     -33.76164614
    ]
   },
   "properties": {
    "name": "14 BROOKVALE AVENUE BROOKVALE 2100",
    "locID": "LOC000032939563",
    "tech": "FTTN",
    "upgrade": "FTTP_SA"
   }
  },
  {
   "type": "Feature",
   "geometry": {
    "type": "Point",
    "coordinates": [
     151.27844239,
     -33.76177263
    ]
   },
   "properties": {
    "name": "14 CARTER ROAD BROOKVALE 2100",
    "locID": "LOC000054131520",
    "tech": "FTTN",
    "upgrade": "NULL_NA"
   }
  },
  {
   "type": "Feature",
   "geometry": {
    "type": "Point",
    "coordinates": [
     151.27303163,
     -33.762886
    ]
   },
   "properties": {
    "name": "14 CHARD ROAD BROOKVALE 2100",
    "locID": "LOC000049415811",
    "tech": "FTTN",
    "upgrade": "NULL_NA"
   }
  },
  {
   "type": "Feature",
   "geometry": {
    "type": "Point",
    "coordinates": [
     151.26056628,
     -33.76092083
    ]
   },
   "properties": {
    "name": "14 CLEARVIEW PLACE BROOKVALE 2100",
    "locID": "LOC000095463729",
    "tech": "FTTN",
    "upgrade": "NULL_NA"
   }
  },
  {
   "type": "Feature",
   "geometry": {
    "type": "Point",
    "coordinates": [
     151.26910302,
     -33.76028559
    ]
   },
   "properties": {
    "name": "14 CONSUL ROAD BROOKVALE 2100",
    "locID": "LOC000040141132",
    "tech": "HFC",
    "upgrade": "NULL_NA"
   }
  },
  {
   "type": "Feature",
   "geometry": {
    "type": "Point",
    "coordinates": [
     151.26576602,
     -33.76459304
    ]
   },
   "properties": {
    "name": "14 CROSS STREET BROOKVALE 2100",
    "locID": "LOC000119800779",
    "tech": "FTTN",
    "upgrade": "NULL_NA"
   }
  },
  {
   "type": "Feature",
   "geometry": {
    "type": "Point",
    "coordinates": [
     151.26813449,
     -33.76454497
    ]
   },
   "properties": {
    "name": "14 DALE STREET BROOKVALE 2100",
    "locID": "LOC000096270487",
    "tech": "FTTB",
    "upgrade": "NULL_NA"
   }
  },
  {
   "type": "Feature",
   "geometry": {
    "type": "Point",
    "coordinates": [
     151.27768714,
     -33.76652858
    ]
   },
   "properties": {
    "name": "14 ETHEL AVENUE BROOKVALE 2100",
    "locID": "LOC000096240097",
    "tech": "FTTN",
    "upgrade": "NULL_NA"
   }
  },
  {
   "type": "Feature",
   "geometry": {
    "type": "Point",
    "coordinates": [
     151.27682669,
     -33.75932862
    ]
   },
   "properties": {
    "name": "14 FEDERAL PARADE BROOKVALE 2100",
    "locID": "LOC000055645082",
    "tech": "FTTN",
    "upgrade": "NULL_NA"
   }
  },
  {
   "type": "Feature",
   "geometry": {
    "type": "Point",
    "coordinates": [
     151.26761818,
     -33.7643799
    ]
   },
   "properties": {
    "name": "14 GREEN STREET BROOKVALE 2100",
    "locID": "LOC000093609644",
    "tech": "FTTN",
    "upgrade": "NULL_NA"
   }
  },
  {
   "type": "Feature",
   "geometry": {
    "type": "Point",
    "coordinates": [
     151.27072789,
     -33.7599916
    ]
   },
   "properties": {
    "name": "14 GULLIVER STREET BROOKVALE 2100",
    "locID": "LOC000115327795",
    "tech": "HFC",
    "upgrade": "NULL_NA"
   }
  },
  {
   "type": "Feature",
   "geometry": {
    "type": "Point",
    "coordinates": [
     151.27797374,
     -33.76686947
    ]
   },
   "properties": {
    "name": "14 MILES STREET BROOKVALE 2100",
    "locID": "ChIJY17-Hl-qEmsRtFz0NY7gVEw",
    "tech": "FTTN",
    "upgrade": "UNKNOWN"
   }
  },
  {
   "type": "Feature",
   "geometry": {
    "type": "Point",
    "coordinates": [
     151.26965086,
     -33.76260285
    ]
   },
   "properties": {
    "name": "14 OLD PITTWATER ROAD BROOKVALE 2100",
    "locID": "LOC000077162982",
    "tech": "HFC",
    "upgrade": "NULL_NA"
   }
  },
  {
   "type": "Feature",
   "geometry": {
    "type": "Point",
    "coordinates": [
     151.27468295,
     -33.75812761
    ]
   },
   "properties": {
    "name": "14 PINE AVENUE BROOKVALE 2100",
    "locID": "LOC000013293550",
    "tech": "FTTN",
    "upgrade": "NULL_NA"
   }
  },
  {
   "type": "Feature",
   "geometry": {
    "type": "Point",
    "coordinates": [
     151.27239273,
     -33.76610732
    ]
   },
   "properties": {
    "name": "14 POWELLS ROAD BROOKVALE 2100",
    "locID": "LOC000042539971",
    "tech": "FTTN",
    "upgrade": "NULL_NA"
   }
  },
  {
   "type": "Feature",
   "geometry": {
    "type": "Point",
    "coordinates": [
     151.26939059,
     -33.76489986
    ]
   },
   "properties": {
    "name": "14 ROGER STREET BROOKVALE 2100",
    "locID": "LOC000074539640",
    "tech": "FTTN",
    "upgrade": "NULL_NA"
   }
  },
  {
   "type": "Feature",
   "geometry": {
    "type": "Point",
    "coordinates": [
     151.27333867,
     -33.76467218
    ]
   },
   "properties": {
    "name": "14 SYDENHAM ROAD BROOKVALE 2100",
    "locID": "LOC000119800812",
    "tech": "FTTN",
    "upgrade": "NULL_NA"
   }
  },
  {
   "type": "Feature",
   "geometry": {
    "type": "Point",
    "coordinates": [
     151.27741644,
     -33.75915832
    ]
   },
   "properties": {
    "name": "14 VICTOR ROAD BROOKVALE 2100",
    "locID": "LOC000148019682",
    "tech": "FTTN",
    "upgrade": "NULL_NA"
   }
  },
  {
   "type": "Feature",
   "geometry": {
    "type": "Point",
    "coordinates": [
     151.27736108,
     -33.76792191
    ]
   },
   "properties": {
    "name": "14 WATTLE ROAD BROOKVALE 2100",
    "locID": "LOC000078535457",
    "tech": "FTTN",
    "upgrade": "NULL_NA"
   }
  },
  {
   "type": "Feature",
   "geometry": {
    "type": "Point",
    "coordinates": [
     151.27827716,
     -33.76130195
    ]
   },
   "properties": {
    "name": "14 WEST STREET BROOKVALE 2100",
    "locID": "LOC000045630927",
    "tech": "FTTN",
    "upgrade": "NULL_NA"
   }
  },
  {
   "type": "Feature",
   "geometry": {
    "type": "Point",
    "coordinates": [
     151.26974517,
     -33.76804069
    ]
   },
   "properties": {
    "name": "14 WILLIAM STREET BROOKVALE 2100",
    "locID": "LOC000164302209",
    "tech": "FTTN",
    "upgrade": "NULL_NA"
   }
  },
  {
   "type": "Feature",
   "geometry": {
    "type": "Point",
    "coordinates": [
     151.27877813,
     -33.76263082
    ]
   },
   "properties": {
    "name": "14 WINBOURNE ROAD BROOKVALE 2100",
    "locID": "LOC000057931043",
    "tech": "FTTN",
    "upgrade": "NULL_NA"
   }
  },
  {
   "type": "Feature",
   "geometry": {
    "type": "Point",
    "coordinates": [
     151.27768714,
     -33.76652858
    ]
   },
   "properties": {
    "name": "14-18 ETHEL AVENUE BROOKVALE 2100",
    "locID": "LOC000162190067",
    "tech": "FTTN",
    "upgrade": "NULL_NA"
   }
  },
  {
   "type": "Feature",
   "geometry": {
    "type": "Point",
    "coordinates": [
     151.26176309,
     -33.76782725
    ]
   },
   "properties": {
    "name": "142 OLD PITTWATER ROAD BROOKVALE 2100",
    "locID": "LOC000003051996",
    "tech": "FTTN",
    "upgrade": "NULL_NA"
   }
  },
  {
   "type": "Feature",
   "geometry": {
    "type": "Point",
    "coordinates": [
     151.26195375,
     -33.76793924
    ]
   },
   "properties": {
    "name": "144 OLD PITTWATER ROAD BROOKVALE 2100",
    "locID": "LOC000082503688",
    "tech": "FTTN",
    "upgrade": "NULL_NA"
   }
  },
  {
   "type": "Feature",
   "geometry": {
    "type": "Point",
    "coordinates": [
     151.26571622,
     -33.76729997
    ]
   },
   "properties": {
    "name": "145 OLD PITTWATER ROAD BROOKVALE 2100",
    "locID": "LOC100070856411",
    "tech": "FTTB",
    "upgrade": "NULL_NA"
   }
  },
  {
   "type": "Feature",
   "geometry": {
    "type": "Point",
    "coordinates": [
     151.26215059,
     -33.76803732
    ]
   },
   "properties": {
    "name": "146 OLD PITTWATER ROAD BROOKVALE 2100",
    "locID": "LOC000164296336",
    "tech": "FTTN",
    "upgrade": "NULL_NA"
   }
  },
  {
   "type": "Feature",
   "geometry": {
    "type": "Point",
    "coordinates": [
     151.26215059,
     -33.76803732
    ]
   },
   "properties": {
    "name": "146A OLD PITTWATER ROAD BROOKVALE 2100",
    "locID": "ChIJ2SozckaqEmsR_cF6OI-CJJw",
    "tech": "FTTN",
    "upgrade": "UNKNOWN"
   }
  },
  {
   "type": "Feature",
   "geometry": {
    "type": "Point",
    "coordinates": [
     151.26123531,
     -33.7684126
    ]
   },
   "properties": {
    "name": "148 OLD PITTWATER ROAD BROOKVALE 2100",
    "locID": "LOC000169205295",
    "tech": "FTTN",
    "upgrade": "NULL_NA"
   }
  },
  {
   "type": "Feature",
   "geometry": {
    "type": "Point",
    "coordinates": [
     151.26576602,
     -33.76459304
    ]
   },
   "properties": {
    "name": "14A CROSS STREET BROOKVALE 2100",
    "locID": "ChIJ93Sud0OqEmsRi92DDNfkzpU",
    "tech": "FTTN",
    "upgrade": "UNKNOWN"
   }
  },
  {
   "type": "Feature",
   "geometry": {
    "type": "Point",
    "coordinates": [
     151.26759415,
     -33.76449991
    ]
   },
   "properties": {
    "name": "14A GREEN STREET BROOKVALE 2100",
    "locID": "LOC000092905367",
    "tech": "FTTN",
    "upgrade": "NULL_NA"
   }
  },
  {
   "type": "Feature",
   "geometry": {
    "type": "Point",
    "coordinates": [
     151.26939071,
     -33.76489987
    ]
   },
   "properties": {
    "name": "14A ROGER STREET BROOKVALE 2100",
    "locID": "ChIJU1O6x1yqEmsRCV5u17JVb38",
    "tech": "FTTN",
    "upgrade": "UNKNOWN"
   }
  },
  {
   "type": "Feature",
   "geometry": {
    "type": "Point",
    "coordinates": [
     151.27741644,
     -33.75915832
    ]
   },
   "properties": {
    "name": "14A VICTOR ROAD BROOKVALE 2100",
    "locID": "LOC000148019682",
    "tech": "FTTN",
    "upgrade": "NULL_NA"
   }
  },
  {
   "type": "Feature",
   "geometry": {
    "type": "Point",
    "coordinates": [
     151.27727181,
     -33.76647199
    ]
   },
   "properties": {
    "name": "15 ADA AVENUE BROOKVALE 2100",
    "locID": "LOC000105459426",
    "tech": "FTTN",
    "upgrade": "NULL_NA"
   }
  },
  {
   "type": "Feature",
   "geometry": {
    "type": "Point",
    "coordinates": [
     151.27350648,
     -33.75770067
    ]
   },
   "properties": {
    "name": "15 ALFRED ROAD BROOKVALE 2100",
    "locID": "LOC000086265175",
    "tech": "HFC",
    "upgrade": "NULL_NA"
   }
  },
  {
   "type": "Feature",
   "geometry": {
    "type": "Point",
    "coordinates": [
     151.26577655,
     -33.76215481
    ]
   },
   "properties": {
    "name": "15 BROOKVALE AVENUE BROOKVALE 2100",
    "locID": "LOC000079051863",
    "tech": "FTTN",
    "upgrade": "NULL_NA"
   }
  },
  {
   "type": "Feature",
   "geometry": {
    "type": "Point",
    "coordinates": [
     151.27938046,
     -33.7605948
    ]
   },
   "properties": {
    "name": "15 CARTER ROAD BROOKVALE 2100",
    "locID": "LOC000119800865",
    "tech": "FTTN",
    "upgrade": "NULL_NA"
   }
  },
  {
   "type": "Feature",
   "geometry": {
    "type": "Point",
    "coordinates": [
     151.27337754,
     -33.76357499
    ]
   },
   "properties": {
    "name": "15 CHARD ROAD BROOKVALE 2100",
    "locID": "LOC000096299565",
    "tech": "FTTN",
    "upgrade": "NULL_NA"
   }
  },
  {
   "type": "Feature",
   "geometry": {
    "type": "Point",
    "coordinates": [
     151.26064108,
     -33.7605509
    ]
   },
   "properties": {
    "name": "15 CLEARVIEW PLACE BROOKVALE 2100",
    "locID": "LOC000031342905",
    "tech": "FTTN",
    "upgrade": "NULL_NA"
   }
  },
  {
   "type": "Feature",
   "geometry": {
    "type": "Point",
    "coordinates": [
     151.26895369,
     -33.76446988
    ]
   },
   "properties": {
    "name": "15 DALE STREET BROOKVALE 2100",
    "locID": "LOC000088694570",
    "tech": "FTTN",
    "upgrade": "NULL_NA"
   }
  },
  {
   "type": "Feature",
   "geometry": {
    "type": "Point",
    "coordinates": [
     151.27547333,
     -33.75958722
    ]
   },
   "properties": {
    "name": "15 FEDERAL PARADE BROOKVALE 2100",
    "locID": "LOC000076873470",
    "tech": "FTTN",
    "upgrade": "NULL_NA"
   }
  },
  {
   "type": "Feature",
   "geometry": {
    "type": "Point",
    "coordinates": [
     151.26672568,
     -33.76471565
    ]
   },
   "properties": {
    "name": "15 GREEN STREET BROOKVALE 2100",
    "locID": "LOC000086115453",
    "tech": "FTTN",
    "upgrade": "NULL_NA"
   }
  },
  {
   "type": "Feature",
   "geometry": {
    "type": "Point",
    "coordinates": [
     151.26801555,
     -33.76315343
    ]
   },
   "properties": {
    "name": "15 OLD PITTWATER ROAD BROOKVALE 2100",
    "locID": "LOC000078615677",
    "tech": "FTTN",
    "upgrade": "NULL_NA"
   }
  },
  {
   "type": "Feature",
   "geometry": {
    "type": "Point",
    "coordinates": [
     151.27282191,
     -33.76505943
    ]
   },
   "properties": {
    "name": "15 ORCHARD ROAD BROOKVALE 2100",
    "locID": "LOC000018409628",
    "tech": "FTTN",
    "upgrade": "NULL_NA"
   }
  },
  {
   "type": "Feature",
   "geometry": {
    "type": "Point",
    "coordinates": [
     151.27502187,
     -33.75982366
    ]
   },
   "properties": {
    "name": "15 PINE AVENUE BROOKVALE 2100",
    "locID": "LOC000107208162",
    "tech": "FTTN",
    "upgrade": "NULL_NA"
   }
  },
  {
   "type": "Feature",
   "geometry": {
    "type": "Point",
    "coordinates": [
     151.27033998,
     -33.76409791
    ]
   },
   "properties": {
    "name": "15 ROGER STREET BROOKVALE 2100",
    "locID": "LOC000180970876",
    "tech": "FTTP",
    "upgrade": "NULL_NA"
   }
  },
  {
   "type": "Feature",
   "geometry": {
    "type": "Point",
    "coordinates": [
     151.27346172,
     -33.76404658
    ]
   },
   "properties": {
    "name": "15 SYDENHAM ROAD BROOKVALE 2100",
    "locID": "LOC000102296324",
    "tech": "FTTN",
    "upgrade": "NULL_NA"
   }
  },
  {
   "type": "Feature",
   "geometry": {
    "type": "Point",
    "coordinates": [
     151.27778761,
     -33.7589687
    ]
   },
   "properties": {
    "name": "15 VICTOR ROAD BROOKVALE 2100",
    "locID": "LOC000102987481",
    "tech": "FTTN",
    "upgrade": "NULL_NA"
   }
  },
  {
   "type": "Feature",
   "geometry": {
    "type": "Point",
    "coordinates": [
     151.27790231,
     -33.76190292
    ]
   },
   "properties": {
    "name": "15 WEST STREET BROOKVALE 2100",
    "locID": "LOC000169266525",
    "tech": "FTTN",
    "upgrade": "NULL_NA"
   }
  },
  {
   "type": "Feature",
   "geometry": {
    "type": "Point",
    "coordinates": [
     151.26577655,
     -33.76215481
    ]
   },
   "properties": {
    "name": "15-17 BROOKVALE AVENUE BROOKVALE 2100",
    "locID": "LOC000164291164",
    "tech": "FTTN",
    "upgrade": "NULL_NA"
   }
  },
  {
   "type": "Feature",
   "geometry": {
    "type": "Point",
    "coordinates": [
     151.27790231,
     -33.76190292
    ]
   },
   "properties": {
    "name": "15-17 WEST STREET BROOKVALE 2100",
    "locID": "LOC000180322754",
    "tech": "FTTN",
    "upgrade": "NULL_NA"
   }
  },
  {
   "type": "Feature",
   "geometry": {
    "type": "Point",
    "coordinates": [
     151.27032778,
     -33.7605609
    ]
   },
   "properties": {
    "name": "15-19 GULLIVER STREET BROOKVALE 2100",
    "locID": "LOC000048161983",
    "tech": "HFC",
    "upgrade": "NULL_NA"
   }
  },
  {
   "type": "Feature",
   "geometry": {
    "type": "Point",
    "coordinates": [
     151.26801555,
     -33.76315343
    ]
   },
   "properties": {
    "name": "15-19 OLD PITTWATER ROAD BROOKVALE 2100",
    "locID": "LOC000089877153",
    "tech": "FTTN",
    "upgrade": "NULL_NA"
   }
  },
  {
   "type": "Feature",
   "geometry": {
    "type": "Point",
    "coordinates": [
     151.27609106,
     -33.75806685
    ]
   },
   "properties": {
    "name": "15-19 SHACKEL AVENUE BROOKVALE 2100",
    "locID": "LOC100037228587",
    "tech": "FTTN",
    "upgrade": "NULL_NA"
   }
  },
  {
   "type": "Feature",
   "geometry": {
    "type": "Point",
    "coordinates": [
     151.27803655,
     -33.76320448
    ]
   },
   "properties": {
    "name": "15-23 WINBOURNE ROAD BROOKVALE 2100",
    "locID": "LOC000053209375",
    "tech": "FTTN",
    "upgrade": "NULL_NA"
   }
  },
  {
   "type": "Feature",
   "geometry": {
    "type": "Point",
    "coordinates": [
     151.27727181,
     -33.76647199
    ]
   },
   "properties": {
    "name": "15-27 ADA AVENUE BROOKVALE 2100",
    "locID": "ChIJaUyc4l6qEmsRmtjYzu2GjEc",
    "tech": "FTTN",
    "upgrade": "UNKNOWN"
   }
  },
  {
   "type": "Feature",
   "geometry": {
    "type": "Point",
    "coordinates": [
     151.26245182,
     -33.76874736
    ]
   },
   "properties": {
    "name": "150 OLD PITTWATER ROAD BROOKVALE 2100",
    "locID": "LOC100030364586",
    "tech": "FTTN",
    "upgrade": "NULL_NA"
   }
  },
  {
   "type": "Feature",
   "geometry": {
    "type": "Point",
    "coordinates": [
     151.26245182,
     -33.76874736
    ]
   },
   "properties": {
    "name": "150-152 OLD PITTWATER ROAD BROOKVALE 2100",
    "locID": "ChIJ5TYjCUaqEmsRYnxQCtDTqi0",
    "tech": "FTTN",
    "upgrade": "UNKNOWN"
   }
  },
  {
   "type": "Feature",
   "geometry": {
    "type": "Point",
    "coordinates": [
     151.26245182,
     -33.76874736
    ]
   },
   "properties": {
    "name": "152 OLD PITTWATER ROAD BROOKVALE 2100",
    "locID": "LOC000119800934",
    "tech": "FTTN",
    "upgrade": "NULL_NA"
   }
  },
  {
   "type": "Feature",
   "geometry": {
    "type": "Point",
    "coordinates": [
     151.26245182,
     -33.76874736
    ]
   },
   "properties": {
    "name": "152A OLD PITTWATER ROAD BROOKVALE 2100",
    "locID": "LOC000148007088",
    "tech": "FTTN",
    "upgrade": "NULL_NA"
   }
  },
  {
   "type": "Feature",
   "geometry": {
    "type": "Point",
    "coordinates": [
     151.26267264,
     -33.76834612
    ]
   },
   "properties": {
    "name": "154 OLD PITTWATER ROAD BROOKVALE 2100",
    "locID": "LOC000051730644",
    "tech": "FTTN",
    "upgrade": "NULL_NA"
   }
  },
  {
   "type": "Feature",
   "geometry": {
    "type": "Point",
    "coordinates": [
     151.26267264,
     -33.76834612
    ]
   },
   "properties": {
    "name": "154-172 OLD PITTWATER ROAD BROOKVALE 2100",
    "locID": "ChIJ4aFndUaqEmsR0AMOyI_zbhE",
    "tech": "FTTN",
    "upgrade": "UNKNOWN"
   }
  },
  {
   "type": "Feature",
   "geometry": {
    "type": "Point",
    "coordinates": [
     151.27350648,
     -33.75770067
    ]
   },
   "properties": {
    "name": "15A ALFRED ROAD BROOKVALE 2100",
    "locID": "LOC000148007706",
    "tech": "HFC",
    "upgrade": "NULL_NA"
   }
  },
  {
   "type": "Feature",
   "geometry": {
    "type": "Point",
    "coordinates": [
     151.26895369,
     -33.76446988
    ]
   },
   "properties": {
    "name": "15A DALE STREET BROOKVALE 2100",
    "locID": "LOC000113707777",
    "tech": "FTTN",
    "upgrade": "NULL_NA"
   }
  },
  {
   "type": "Feature",
   "geometry": {
    "type": "Point",
    "coordinates": [
     151.27541799,
     -33.75981086
    ]
   },
   "properties": {
    "name": "15A FEDERAL PARADE BROOKVALE 2100",
    "locID": "LOC000076872630",
    "tech": "FTTN",
    "upgrade": "NULL_NA"
   }
  },
  {
   "type": "Feature",
   "geometry": {
    "type": "Point",
    "coordinates": [
     151.27502187,
     -33.75982366
    ]
   },
   "properties": {
    "name": "15A-17 PINE AVENUE BROOKVALE 2100",
    "locID": "ChIJO0-SKGGqEmsR2dtN_e_QJwU",
    "tech": "FTTN",
    "upgrade": "UNKNOWN"
   }
  },
  {
   "type": "Feature",
   "geometry": {
    "type": "Point",
    "coordinates": [
     151.27596103,
     -33.766879
    ]
   },
   "properties": {
    "name": "16 ADA AVENUE BROOKVALE 2100",
    "locID": "LOC000169424777",
    "tech": "FTTN",
    "upgrade": "NULL_NA"
   }
  },
  {
   "type": "Feature",
   "geometry": {
    "type": "Point",
    "coordinates": [
     151.27178691,
     -33.76031684
    ]
   },
   "properties": {
    "name": "16 ALFRED ROAD BROOKVALE 2100",
    "locID": "LOC000030411767",
    "tech": "HFC",
    "upgrade": "NULL_NA"
   }
  },
  {
   "type": "Feature",
   "geometry": {
    "type": "Point",
    "coordinates": [
     151.26680436,
     -33.76164408
    ]
   },
   "properties": {
    "name": "16 BROOKVALE AVENUE BROOKVALE 2100",
    "locID": "LOC000053924384",
    "tech": "FTTN",
    "upgrade": "FTTP_SA"
   }
  },
  {
   "type": "Feature",
   "geometry": {
    "type": "Point",
    "coordinates": [
     151.2784206,
     -33.76188094
    ]
   },
   "properties": {
    "name": "16 CARTER ROAD BROOKVALE 2100",
    "locID": "LOC000023991314",
    "tech": "FTTN",
    "upgrade": "NULL_NA"
   }
  },
  {
   "type": "Feature",
   "geometry": {
    "type": "Point",
    "coordinates": [
     151.27320856,
     -33.76291043
    ]
   },
   "properties": {
    "name": "16 CHARD ROAD BROOKVALE 2100",
    "locID": "LOC000037928718",
    "tech": "FTTN",
    "upgrade": "NULL_NA"
   }
  },
  {
   "type": "Feature",
   "geometry": {
    "type": "Point",
    "coordinates": [
     151.26913203,
     -33.76015038
    ]
   },
   "properties": {
    "name": "16 CONSUL ROAD BROOKVALE 2100",
    "locID": "LOC000082578803",
    "tech": "HFC",
    "upgrade": "NULL_NA"
   }
  },
  {
   "type": "Feature",
   "geometry": {
    "type": "Point",
    "coordinates": [
     151.26817233,
     -33.76436681
    ]
   },
   "properties": {
    "name": "16 DALE STREET BROOKVALE 2100",
    "locID": "LOC000027989373",
    "tech": "FTTN",
    "upgrade": "NULL_NA"
   }
  },
  {
   "type": "Feature",
   "geometry": {
    "type": "Point",
    "coordinates": [
     151.27768714,
     -33.76652858
    ]
   },
   "properties": {
    "name": "16 ETHEL AVENUE BROOKVALE 2100",
    "locID": "ChIJC5JTG1-qEmsRiUKbbrC8QbM",
    "tech": "FTTN",
    "upgrade": "UNKNOWN"
   }
  },
  {
   "type": "Feature",
   "geometry": {
    "type": "Point",
    "coordinates": [
     151.27428889,
     -33.75881623
    ]
   },
   "properties": {
    "name": "16 FEDERAL PARADE BROOKVALE 2100",
    "locID": "LOC000055714830",
    "tech": "FTTN",
    "upgrade": "NULL_NA"
   }
  },
  {
   "type": "Feature",
   "geometry": {
    "type": "Point",
    "coordinates": [
     151.26756445,
     -33.76464865
    ]
   },
   "properties": {
    "name": "16 GREEN STREET BROOKVALE 2100",
    "locID": "LOC000066542424",
    "tech": "FTTN",
    "upgrade": "NULL_NA"
   }
  },
  {
   "type": "Feature",
   "geometry": {
    "type": "Point",
    "coordinates": [
     151.26941829,
     -33.76259573
    ]
   },
   "properties": {
    "name": "16 OLD PITTWATER ROAD BROOKVALE 2100",
    "locID": "LOC000072126318",
    "tech": "HFC",
    "upgrade": "NULL_NA"
   }
  },
  {
   "type": "Feature",
   "geometry": {
    "type": "Point",
    "coordinates": [
     151.2747555,
     -33.75799581
    ]
   },
   "properties": {
    "name": "16 PINE AVENUE BROOKVALE 2100",
    "locID": "LOC000018429689",
    "tech": "FTTN",
    "upgrade": "NULL_NA"
   }
  },
  {
   "type": "Feature",
   "geometry": {
    "type": "Point",
    "coordinates": [
     151.27217822,
     -33.76607743
    ]
   },
   "properties": {
    "name": "16 POWELLS ROAD BROOKVALE 2100",
    "locID": "LOC000042549053",
    "tech": "FTTN",
    "upgrade": "NULL_NA"
   }
  },
  {
   "type": "Feature",
   "geometry": {
    "type": "Point",
    "coordinates": [
     151.26942646,
     -33.76472067
    ]
   },
   "properties": {
    "name": "16 ROGER STREET BROOKVALE 2100",
    "locID": "LOC000119800981",
    "tech": "FTTN",
    "upgrade": "NULL_NA"
   }
  },
  {
   "type": "Feature",
   "geometry": {
    "type": "Point",
    "coordinates": [
     151.27355194,
     -33.76470193
    ]
   },
   "properties": {
    "name": "16 SYDENHAM ROAD BROOKVALE 2100",
    "locID": "LOC000062088683",
    "tech": "FTTN",
    "upgrade": "NULL_NA"
   }
  },
  {
   "type": "Feature",
   "geometry": {
    "type": "Point",
    "coordinates": [
     151.27681557,
     -33.75884519
    ]
   },
   "properties": {
    "name": "16 VICTOR ROAD BROOKVALE 2100",
    "locID": "LOC000169252941",
    "tech": "FTTN",
    "upgrade": "NULL_NA"
   }
  },
  {
   "type": "Feature",
   "geometry": {
    "type": "Point",
    "coordinates": [
     151.27703314,
     -33.76787671
    ]
   },
   "properties": {
    "name": "16 WATTLE ROAD BROOKVALE 2100",
    "locID": "LOC000020924779",
    "tech": "FTTN",
    "upgrade": "NULL_NA"
   }
  },
  {
   "type": "Feature",
   "geometry": {
    "type": "Point",
    "coordinates": [
     151.27840695,
     -33.76131973
    ]
   },
   "properties": {
    "name": "16 WEST STREET BROOKVALE 2100",
    "locID": "LOC000033294935",
    "tech": "FTTN",
    "upgrade": "NULL_NA"
   }
  },
  {
   "type": "Feature",
   "geometry": {
    "type": "Point",
    "coordinates": [
     151.2699171,
     -33.76807238
    ]
   },
   "properties": {
    "name": "16 WILLIAM STREET BROOKVALE 2100",
    "locID": "LOC000119800999",
    "tech": "FTTN",
    "upgrade": "NULL_NA"
   }
  },
  {
   "type": "Feature",
   "geometry": {
    "type": "Point",
    "coordinates": [
     151.27842131,
     -33.7625697
    ]
   },
   "properties": {
    "name": "16 WINBOURNE ROAD BROOKVALE 2100",
    "locID": "LOC000044083944",
    "tech": "FTTN",
    "upgrade": "NULL_NA"
   }
  },
  {
   "type": "Feature",
   "geometry": {
    "type": "Point",
    "coordinates": [
     151.26134429,
     -33.7606544
    ]
   },
   "properties": {
    "name": "16-18 CLEARVIEW PLACE BROOKVALE 2100",
    "locID": "ChIJfRfAlUGqEmsR-4Xtm6nfYWA",
    "tech": "FTTN",
    "upgrade": "UNKNOWN"
   }
  },
  {
   "type": "Feature",
   "geometry": {
    "type": "Point",
    "coordinates": [
     151.27703314,
     -33.76787671
    ]
   },
   "properties": {
    "name": "16-20 WATTLE ROAD BROOKVALE 2100",
    "locID": "LOC000020924779",
    "tech": "FTTN",
    "upgrade": "NULL_NA"
   }
  },
  {
   "type": "Feature",
   "geometry": {
    "type": "Point",
    "coordinates": [
     151.27854247,
     -33.76780729
    ]
   },
   "properties": {
    "name": "162 HARBORD ROAD BROOKVALE 2100",
    "locID": "LOC000025572699",
    "tech": "FTTN",
    "upgrade": "NULL_NA"
   }
  },
  {
   "type": "Feature",
   "geometry": {
    "type": "Point",
    "coordinates": [
     151.27854247,
     -33.76780729
    ]
   },
   "properties": {
    "name": "164 HARBORD ROAD BROOKVALE 2100",
    "locID": "LOC000034759374",
    "tech": "FTTN",
    "upgrade": "NULL_NA"
   }
  },
  {
   "type": "Feature",
   "geometry": {
    "type": "Point",
    "coordinates": [
     151.27854247,
     -33.76780729
    ]
   },
   "properties": {
    "name": "166 HARBORD ROAD BROOKVALE 2100",
    "locID": "LOC000069428641",
    "tech": "FTTN",
    "upgrade": "NULL_NA"
   }
  },
  {
   "type": "Feature",
   "geometry": {
    "type": "Point",
    "coordinates": [
     151.27840381,
     -33.76743918
    ]
   },
   "properties": {
    "name": "168 HARBORD ROAD BROOKVALE 2100",
    "locID": "LOC000003207160",
    "tech": "FTTN",
    "upgrade": "NULL_NA"
   }
  },
  {
   "type": "Feature",
   "geometry": {
    "type": "Point",
    "coordinates": [
     151.26942646,
     -33.76472067
    ]
   },
   "properties": {
    "name": "16A ROGER STREET BROOKVALE 2100",
    "locID": "ChIJfwd8xlyqEmsRRiDIFOxGQjc",
    "tech": "FTTN",
    "upgrade": "UNKNOWN"
   }
  },
  {
   "type": "Feature",
   "geometry": {
    "type": "Point",
    "coordinates": [
     151.27729888,
     -33.76633659
    ]
   },
   "properties": {
    "name": "17 ADA AVENUE BROOKVALE 2100",
    "locID": "LOC000056212645",
    "tech": "FTTN",
    "upgrade": "NULL_NA"
   }
  },
  {
   "type": "Feature",
   "geometry": {
    "type": "Point",
    "coordinates": [
     151.27364246,
     -33.75756107
    ]
   },
   "properties": {
    "name": "17 ALFRED ROAD BROOKVALE 2100",
    "locID": "LOC000002333604",
    "tech": "HFC",
    "upgrade": "NULL_NA"
   }
  },
  {
   "type": "Feature",
   "geometry": {
    "type": "Point",
    "coordinates": [
     151.26577655,
     -33.76215481
    ]
   },
   "properties": {
    "name": "17 BROOKVALE AVENUE BROOKVALE 2100",
    "locID": "LOC000079960063",
    "tech": "FTTN",
    "upgrade": "NULL_NA"
   }
  },
  {
   "type": "Feature",
   "geometry": {
    "type": "Point",
    "coordinates": [
     151.27935339,
     -33.76073066
    ]
   },
   "properties": {
    "name": "17 CARTER ROAD BROOKVALE 2100",
    "locID": "LOC000162064032",
    "tech": "FTTN",
    "upgrade": "NULL_NA"
   }
  },
  {
   "type": "Feature",
   "geometry": {
    "type": "Point",
    "coordinates": [
     151.27350385,
     -33.76359243
    ]
   },
   "properties": {
    "name": "17 CHARD ROAD BROOKVALE 2100",
    "locID": "LOC000063876585",
    "tech": "FTTN",
    "upgrade": "NULL_NA"
   }
  },
  {
   "type": "Feature",
   "geometry": {
    "type": "Point",
    "coordinates": [
     151.27836228,
     -33.7664503
    ]
   },
   "properties": {
    "name": "17 ETHEL AVENUE BROOKVALE 2100",
    "locID": "LOC000119801734",
    "tech": "FTTN",
    "upgrade": "NULL_NA"
   }
  },
  {
   "type": "Feature",
   "geometry": {
    "type": "Point",
    "coordinates": [
     151.26715114,
     -33.76478023
    ]
   },
   "properties": {
    "name": "17 GREEN STREET BROOKVALE 2100",
    "locID": "ChIJlRkTZkOqEmsR1AeubRoWaxM",
    "tech": "FTTN",
    "upgrade": "UNKNOWN"
   }
  },
  {
   "type": "Feature",
   "geometry": {
    "type": "Point",
    "coordinates": [
     151.27475789,
     -33.76389104
    ]
   },
   "properties": {
    "name": "17 MITCHELL ROAD BROOKVALE 2100",
    "locID": "LOC000086161634",
    "tech": "FTTN",
    "upgrade": "NULL_NA"
   }
  },
  {
   "type": "Feature",
   "geometry": {
    "type": "Point",
    "coordinates": [
     151.26801555,
     -33.76315343
    ]
   },
   "properties": {
    "name": "17 OLD PITTWATER ROAD BROOKVALE 2100",
    "locID": "LOC000033847918",
    "tech": "FTTN",
    "upgrade": "NULL_NA"
   }
  },
  {
   "type": "Feature",
   "geometry": {
    "type": "Point",
    "coordinates": [
     151.27303513,
     -33.765089
    ]
   },
   "properties": {
    "name": "17 ORCHARD ROAD BROOKVALE 2100",
    "locID": "LOC000042813766",
    "tech": "FTTN",
    "upgrade": "NULL_NA"
   }
  },
  {
   "type": "Feature",
   "geometry": {
    "type": "Point",
    "coordinates": [
     151.27507101,
     -33.75959387
    ]
   },
   "properties": {
    "name": "17 PINE AVENUE BROOKVALE 2100",
    "locID": "LOC000024686020",
    "tech": "FTTN",
    "upgrade": "NULL_NA"
   }
  },
  {
   "type": "Feature",
   "geometry": {
    "type": "Point",
    "coordinates": [
     151.27037154,
     -33.76393975
    ]
   },
   "properties": {
    "name": "17 ROGER STREET BROOKVALE 2100",
    "locID": "LOC000180970895",
    "tech": "FTTP",
    "upgrade": "NULL_NA"
   }
  },
  {
   "type": "Feature",
   "geometry": {
    "type": "Point",
    "coordinates": [
     151.27609106,
     -33.75806685
    ]
   },
   "properties": {
    "name": "17 SHACKEL AVENUE BROOKVALE 2100",
    "locID": "LOC000148018850",
    "tech": "FTTN",
    "upgrade": "NULL_NA"
   }
  },
  {
   "type": "Feature",
   "geometry": {
    "type": "Point",
    "coordinates": [
     151.27367579,
     -33.7640763
    ]
   },
   "properties": {
    "name": "17 SYDENHAM ROAD BROOKVALE 2100",
    "locID": "LOC000038108963",
    "tech": "FTTN",
    "upgrade": "NULL_NA"
   }
  },
  {
   "type": "Feature",
   "geometry": {
    "type": "Point",
    "coordinates": [
     151.2778011,
     -33.75885113
    ]
   },
   "properties": {
    "name": "17 VICTOR ROAD BROOKVALE 2100",
    "locID": "LOC000004750418",
    "tech": "FTTN",
    "upgrade": "NULL_NA"
   }
  },
  {
   "type": "Feature",
   "geometry": {
    "type": "Point",
    "coordinates": [
     151.27790231,
     -33.76190292
    ]
   },
   "properties": {
    "name": "17 WEST STREET BROOKVALE 2100",
    "locID": "LOC000072664938",
    "tech": "FTTN",
    "upgrade": "NULL_NA"
   }
  },
  {
   "type": "Feature",
   "geometry": {
    "type": "Point",
    "coordinates": [
     151.2689812,
     -33.7641978
    ]
   },
   "properties": {
    "name": "17-19 DALE STREET BROOKVALE 2100",
    "locID": "LOC000063106464",
    "tech": "HFC",
    "upgrade": "NULL_NA"
   }
  },
  {
   "type": "Feature",
   "geometry": {
    "type": "Point",
    "coordinates": [
     151.27367579,
     -33.7640763
    ]
   },
   "properties": {
    "name": "17-27 SYDENHAM ROAD BROOKVALE 2100",
    "locID": "ChIJo9DI2l2qEmsRWpXUMKVjKJs",
    "tech": "FTTN",
    "upgrade": "UNKNOWN"
   }
  },
  {
   "type": "Feature",
   "geometry": {
    "type": "Point",
    "coordinates": [
     151.27350385,
     -33.76359243
    ]
   },
   "properties": {
    "name": "17-31 CHARD ROAD BROOKVALE 2100",
    "locID": "ChIJ2wLuwl2qEmsRFaRkURmKEBM",
    "tech": "FTTN",
    "upgrade": "UNKNOWN"
   }
  },
  {
   "type": "Feature",
   "geometry": {
    "type": "Point",
    "coordinates": [
     151.27844422,
     -33.76716607
    ]
   },
   "properties": {
    "name": "170-172 HARBORD ROAD BROOKVALE 2100",
    "locID": "ChIJSbLOFV-qEmsRHJF2_9r5KXM",
    "tech": "FTTN",
    "upgrade": "UNKNOWN"
   }
  },
  {
   "type": "Feature",
   "geometry": {
    "type": "Point",
    "coordinates": [
     151.26315376,
     -33.7695953
    ]
   },
   "properties": {
    "name": "172 OLD PITTWATER ROAD BROOKVALE 2100",
    "locID": "LOC000173205862",
    "tech": "FTTB",
    "upgrade": "NULL_NA"
   }
  },
  {
   "type": "Feature",
   "geometry": {
    "type": "Point",
    "coordinates": [
     151.27874063,
     -33.76681431
    ]
   },
   "properties": {
    "name": "174 HARBORD ROAD BROOKVALE 2100",
    "locID": "LOC000058994272",
    "tech": "FTTN",
    "upgrade": "NULL_NA"
   }
  },
  {
   "type": "Feature",
   "geometry": {
    "type": "Point",
    "coordinates": [
     151.26434158,
     -33.76912759
    ]
   },
   "properties": {
    "name": "174 OLD PITTWATER ROAD BROOKVALE 2100",
    "locID": "LOC000169231694",
    "tech": "FTTN",
    "upgrade": "NULL_NA"
   }
  },
  {
   "type": "Feature",
   "geometry": {
    "type": "Point",
    "coordinates": [
     151.27876751,
     -33.76667967
    ]
   },
   "properties": {
    "name": "176 HARBORD ROAD BROOKVALE 2100",
    "locID": "LOC000103800400",
    "tech": "FTTN",
    "upgrade": "NULL_NA"
   }
  },
  {
   "type": "Feature",
   "geometry": {
    "type": "Point",
    "coordinates": [
     151.26454891,
     -33.76919387
    ]
   },
   "properties": {
    "name": "176 OLD PITTWATER ROAD BROOKVALE 2100",
    "locID": "LOC000099875690",
    "tech": "FTTN",
    "upgrade": "NULL_NA"
   }
  },
  {
   "type": "Feature",
   "geometry": {
    "type": "Point",
    "coordinates": [
     151.26485317,
     -33.76924546
    ]
   },
   "properties": {
    "name": "178 OLD PITTWATER ROAD BROOKVALE 2100",
    "locID": "LOC000053801547",
    "tech": "FTTN",
    "upgrade": "NULL_NA"
   }
  },
  {
   "type": "Feature",
   "geometry": {
    "type": "Point",
    "coordinates": [
     151.27836228,
     -33.7664503
    ]
   },
   "properties": {
    "name": "17A ETHEL AVENUE BROOKVALE 2100",
    "locID": "LOC000041205894",
    "tech": "FTTN",
    "upgrade": "NULL_NA"
   }
  },
  {
   "type": "Feature",
   "geometry": {
    "type": "Point",
    "coordinates": [
     151.27367579,
     -33.7640763
    ]
   },
   "properties": {
    "name": "17A SYDENHAM ROAD BROOKVALE 2100",
    "locID": "LOC000038169805",
    "tech": "FTTN",
    "upgrade": "NULL_NA"
   }
  },
  {
   "type": "Feature",
   "geometry": {
    "type": "Point",
    "coordinates": [
     151.27790231,
     -33.76190292
    ]
   },
   "properties": {
    "name": "17A WEST STREET BROOKVALE 2100",
    "locID": "ChIJ6U0ZXWCqEmsRsWt4q9BAfpQ",
    "tech": "FTTN",
    "upgrade": "UNKNOWN"
   }
  },
  {
   "type": "Feature",
   "geometry": {
    "type": "Point",
    "coordinates": [
     151.27367579,
     -33.7640763
    ]
   },
   "properties": {
    "name": "17B SYDENHAM ROAD BROOKVALE 2100",
    "locID": "ChIJo9DI2l2qEmsRyFXzak_pVLs",
    "tech": "FTTN",
    "upgrade": "UNKNOWN"
   }
  },
  {
   "type": "Feature",
   "geometry": {
    "type": "Point",
    "coordinates": [
     151.27666215,
     -33.76652898
    ]
   },
   "properties": {
    "name": "18 ADA AVENUE BROOKVALE 2100",
    "locID": "LOC000053938648",
    "tech": "FTTN",
    "upgrade": "NULL_NA"
   }
  },
  {
   "type": "Feature",
   "geometry": {
    "type": "Point",
    "coordinates": [
     151.27180728,
     -33.76021946
    ]
   },
   "properties": {
    "name": "18 ALFRED ROAD BROOKVALE 2100",
    "locID": "LOC000053889677",
    "tech": "HFC",
    "upgrade": "NULL_NA"
   }
  },
  {
   "type": "Feature",
   "geometry": {
    "type": "Point",
    "coordinates": [
     151.26666442,
     -33.76151831
    ]
   },
   "properties": {
    "name": "18 BROOKVALE AVENUE BROOKVALE 2100",
    "locID": "LOC000015643732",
    "tech": "FTTN",
    "upgrade": "FTTP_SA"
   }
  },
  {
   "type": "Feature",
   "geometry": {
    "type": "Point",
    "coordinates": [
     151.27839884,
     -33.76198873
    ]
   },
   "properties": {
    "name": "18 CARTER ROAD BROOKVALE 2100",
    "locID": "LOC000005591452",
    "tech": "FTTN",
    "upgrade": "NULL_NA"
   }
  },
  {
   "type": "Feature",
   "geometry": {
    "type": "Point",
    "coordinates": [
     151.27335266,
     -33.76292992
    ]
   },
   "properties": {
    "name": "18 CHARD ROAD BROOKVALE 2100",
    "locID": "LOC000064414534",
    "tech": "FTTN",
    "upgrade": "NULL_NA"
   }
  },
  {
   "type": "Feature",
   "geometry": {
    "type": "Point",
    "coordinates": [
     151.26908611,
     -33.76002383
    ]
   },
   "properties": {
    "name": "18 CONSUL ROAD BROOKVALE 2100",
    "locID": "LOC000039831368",
    "tech": "HFC",
    "upgrade": "NULL_NA"
   }
  },
  {
   "type": "Feature",
   "geometry": {
    "type": "Point",
    "coordinates": [
     151.27768714,
     -33.76652858
    ]
   },
   "properties": {
    "name": "18 ETHEL AVENUE BROOKVALE 2100",
    "locID": "LOC000162190067",
    "tech": "FTTN",
    "upgrade": "NULL_NA"
   }
  },
  {
   "type": "Feature",
   "geometry": {
    "type": "Point",
    "coordinates": [
     151.2765003,
     -33.75925922
    ]
   },
   "properties": {
    "name": "18 FEDERAL PARADE BROOKVALE 2100",
    "locID": "LOC000015388841",
    "tech": "FTTN",
    "upgrade": "NULL_NA"
   }
  },
  {
   "type": "Feature",
   "geometry": {
    "type": "Point",
    "coordinates": [
     151.267529,
     -33.76482716
    ]
   },
   "properties": {
    "name": "18 GREEN STREET BROOKVALE 2100",
    "locID": "LOC000007440870",
    "tech": "FTTN",
    "upgrade": "NULL_NA"
   }
  },
  {
   "type": "Feature",
   "geometry": {
    "type": "Point",
    "coordinates": [
     151.27037103,
     -33.75993682
    ]
   },
   "properties": {
    "name": "18 GULLIVER STREET BROOKVALE 2100",
    "locID": "LOC000115327833",
    "tech": "HFC",
    "upgrade": "NULL_NA"
   }
  },
  {
   "type": "Feature",
   "geometry": {
    "type": "Point",
    "coordinates": [
     151.26924614,
     -33.76258158
    ]
   },
   "properties": {
    "name": "18 OLD PITTWATER ROAD BROOKVALE 2100",
    "locID": "LOC000026384519",
    "tech": "HFC",
    "upgrade": "NULL_NA"
   }
  },
  {
   "type": "Feature",
   "geometry": {
    "type": "Point",
    "coordinates": [
     151.27196475,
     -33.7660477
    ]
   },
   "properties": {
    "name": "18 POWELLS ROAD BROOKVALE 2100",
    "locID": "LOC000110967943",
    "tech": "FTTN",
    "upgrade": "NULL_NA"
   }
  },
  {
   "type": "Feature",
   "geometry": {
    "type": "Point",
    "coordinates": [
     151.26946239,
     -33.76454153
    ]
   },
   "properties": {
    "name": "18 ROGER STREET BROOKVALE 2100",
    "locID": "LOC000119801878",
    "tech": "HFC",
    "upgrade": "NULL_NA"
   }
  },
  {
   "type": "Feature",
   "geometry": {
    "type": "Point",
    "coordinates": [
     151.27376778,
     -33.76473191
    ]
   },
   "properties": {
    "name": "18 SYDENHAM ROAD BROOKVALE 2100",
    "locID": "LOC000163249408",
    "tech": "FTTN",
    "upgrade": "NULL_NA"
   }
  },
  {
   "type": "Feature",
   "geometry": {
    "type": "Point",
    "coordinates": [
     151.27703314,
     -33.76787671
    ]
   },
   "properties": {
    "name": "18 WATTLE ROAD BROOKVALE 2100",
    "locID": "LOC000104032987",
    "tech": "FTTN",
    "upgrade": "NULL_NA"
   }
  },
  {
   "type": "Feature",
   "geometry": {
    "type": "Point",
    "coordinates": [
     151.27853696,
     -33.76133809
    ]
   },
   "properties": {
    "name": "18 WEST STREET BROOKVALE 2100",
    "locID": "LOC000064130645",
    "tech": "FTTN",
    "upgrade": "NULL_NA"
   }
  },
  {
   "type": "Feature",
   "geometry": {
    "type": "Point",
    "coordinates": [
     151.27020826,
     -33.76769018
    ]
   },
   "properties": {
    "name": "18 WILLIAM STREET BROOKVALE 2100",
    "locID": "LOC000164304427",
    "tech": "FTTN",
    "upgrade": "NULL_NA"
   }
  },
  {
   "type": "Feature",
   "geometry": {
    "type": "Point",
    "coordinates": [
     151.27828515,
     -33.76255079
    ]
   },
   "properties": {
    "name": "18 WINBOURNE ROAD BROOKVALE 2100",
    "locID": "LOC000088318964",
    "tech": "FTTN",
    "upgrade": "NULL_NA"
   }
  },
  {
   "type": "Feature",
   "geometry": {
    "type": "Point",
    "coordinates": [
     151.2761494,
     -33.75740879
    ]
   },
   "properties": {
    "name": "18-20 SHACKEL AVENUE BROOKVALE 2100",
    "locID": "LOC000169264137",
    "tech": "FTTN",
    "upgrade": "NULL_NA"
   }
  },
  {
   "type": "Feature",
   "geometry": {
    "type": "Point",
    "coordinates": [
     151.2682454,
     -33.76401065
    ]
   },
   "properties": {
    "name": "18-22 DALE STREET BROOKVALE 2100",
    "locID": "ChIJH4DpLUOqEmsRXBnpXzybIzE",
    "tech": "FTTB",
    "upgrade": "UNKNOWN"
   }
  },
  {
   "type": "Feature",
   "geometry": {
    "type": "Point",
    "coordinates": [
     151.2682454,
     -33.76401065
    ]
   },
   "properties": {
    "name": "18-24 DALE STREET BROOKVALE 2100",
    "locID": "ChIJH4DpLUOqEmsRXimDoOikRrA",
    "tech": "FTTB",
    "upgrade": "UNKNOWN"
   }
  },
  {
   "type": "Feature",
   "geometry": {
    "type": "Point",
    "coordinates": [
     151.27376778,
     -33.76473191
    ]
   },
   "properties": {
    "name": "18-28 SYDENHAM ROAD BROOKVALE 2100",
    "locID": "ChIJzxnv0l2qEmsRwaE7l8ZL_18",
    "tech": "FTTN",
    "upgrade": "UNKNOWN"
   }
  },
  {
   "type": "Feature",
   "geometry": {
    "type": "Point",
    "coordinates": [
     151.27880824,
     -33.76647652
    ]
   },
   "properties": {
    "name": "180 HARBORD ROAD BROOKVALE 2100",
    "locID": "LOC000003184721",
    "tech": "FTTN",
    "upgrade": "NULL_NA"
   }
  },
  {
   "type": "Feature",
   "geometry": {
    "type": "Point",
    "coordinates": [
     151.27884915,
     -33.76627244
    ]
   },
   "properties": {
    "name": "182 HARBORD ROAD BROOKVALE 2100",
    "locID": "LOC000097924701",
    "tech": "FTTN",
    "upgrade": "NULL_NA"
   }
  },
  {
   "type": "Feature",
   "geometry": {
    "type": "Point",
    "coordinates": [
     151.27887628,
     -33.76613671
    ]
   },
   "properties": {
    "name": "184 HARBORD ROAD BROOKVALE 2100",
    "locID": "LOC000043223888",
    "tech": "FTTN",
    "upgrade": "NULL_NA"
   }
  },
  {
   "type": "Feature",
   "geometry": {
    "type": "Point",
    "coordinates": [
     151.27890346,
     -33.76600091
    ]
   },
   "properties": {
    "name": "186 HARBORD ROAD BROOKVALE 2100",
    "locID": "LOC000031430108",
    "tech": "FTTN",
    "upgrade": "NULL_NA"
   }
  },
  {
   "type": "Feature",
   "geometry": {
    "type": "Point",
    "coordinates": [
     151.27894175,
     -33.76581043
    ]
   },
   "properties": {
    "name": "188 HARBORD ROAD BROOKVALE 2100",
    "locID": "LOC000169252800",
    "tech": "FTTN",
    "upgrade": "NULL_NA"
   }
  },
  {
   "type": "Feature",
   "geometry": {
    "type": "Point",
    "coordinates": [
     151.26876749,
     -33.75995653
    ]
   },
   "properties": {
    "name": "18A CONSUL ROAD BROOKVALE 2100",
    "locID": "LOC000040345204",
    "tech": "HFC",
    "upgrade": "NULL_NA"
   }
  },
  {
   "type": "Feature",
   "geometry": {
    "type": "Point",
    "coordinates": [
     151.27449066,
     -33.75795104
    ]
   },
   "properties": {
    "name": "18A PINE AVENUE BROOKVALE 2100",
    "locID": "LOC000044039269",
    "tech": "FTTN",
    "upgrade": "NULL_NA"
   }
  },
  {
   "type": "Feature",
   "geometry": {
    "type": "Point",
    "coordinates": [
     151.27433976,
     -33.75778077
    ]
   },
   "properties": {
    "name": "18B PINE AVENUE BROOKVALE 2100",
    "locID": "LOC000044135553",
    "tech": "FTTN",
    "upgrade": "NULL_NA"
   }
  },
  {
   "type": "Feature",
   "geometry": {
    "type": "Point",
    "coordinates": [
     151.2741192,
     -33.75763604
    ]
   },
   "properties": {
    "name": "18C PINE AVENUE BROOKVALE 2100",
    "locID": "LOC000043765910",
    "tech": "FTTN",
    "upgrade": "NULL_NA"
   }
  },
  {
   "type": "Feature",
   "geometry": {
    "type": "Point",
    "coordinates": [
     151.27732606,
     -33.76620036
    ]
   },
   "properties": {
    "name": "19 ADA AVENUE BROOKVALE 2100",
    "locID": "LOC000053435705",
    "tech": "FTTN",
    "upgrade": "NULL_NA"
   }
  },
  {
   "type": "Feature",
   "geometry": {
    "type": "Point",
    "coordinates": [
     151.2655375,
     -33.76210316
    ]
   },
   "properties": {
    "name": "19 BROOKVALE AVENUE BROOKVALE 2100",
    "locID": "LOC000078726130",
    "tech": "FTTN",
    "upgrade": "FTTP_SA"
   }
  },
  {
   "type": "Feature",
   "geometry": {
    "type": "Point",
    "coordinates": [
     151.27932629,
     -33.76086668
    ]
   },
   "properties": {
    "name": "19 CARTER ROAD BROOKVALE 2100",
    "locID": "LOC000162181159",
    "tech": "FTTN",
    "upgrade": "NULL_NA"
   }
  },
  {
   "type": "Feature",
   "geometry": {
    "type": "Point",
    "coordinates": [
     151.26222751,
     -33.76069637
    ]
   },
   "properties": {
    "name": "19 CLEARVIEW PLACE BROOKVALE 2100",
    "locID": "LOC000045989027",
    "tech": "FTTN",
    "upgrade": "NULL_NA"
   }
  },
  {
   "type": "Feature",
   "geometry": {
    "type": "Point",
    "coordinates": [
     151.2697788,
     -33.76001577
    ]
   },
   "properties": {
    "name": "19 CONSUL ROAD BROOKVALE 2100",
    "locID": "LOC000072471413",
    "tech": "HFC",
    "upgrade": "NULL_NA"
   }
  },
  {
   "type": "Feature",
   "geometry": {
    "type": "Point",
    "coordinates": [
     151.26512514,
     -33.76523418
    ]
   },
   "properties": {
    "name": "19 CROSS STREET BROOKVALE 2100",
    "locID": "LOC000078639041",
    "tech": "FTTN",
    "upgrade": "NULL_NA"
   }
  },
  {
   "type": "Feature",
   "geometry": {
    "type": "Point",
    "coordinates": [
     151.2689812,
     -33.7641978
    ]
   },
   "properties": {
    "name": "19 DALE STREET BROOKVALE 2100",
    "locID": "LOC000096000815",
    "tech": "FTTB",
    "upgrade": "NULL_NA"
   }
  },
  {
   "type": "Feature",
   "geometry": {
    "type": "Point",
    "coordinates": [
     151.27840301,
     -33.76624598
    ]
   },
   "properties": {
    "name": "19 ETHEL AVENUE BROOKVALE 2100",
    "locID": "LOC000105588039",
    "tech": "FTTN",
    "upgrade": "NULL_NA"
   }
  },
  {
   "type": "Feature",
   "geometry": {
    "type": "Point",
    "coordinates": [
     151.26801555,
     -33.76315343
    ]
   },
   "properties": {
    "name": "19 OLD PITTWATER ROAD BROOKVALE 2100",
    "locID": "LOC000078855919",
    "tech": "FTTN",
    "upgrade": "NULL_NA"
   }
  },
  {
   "type": "Feature",
   "geometry": {
    "type": "Point",
    "coordinates": [
     151.27324901,
     -33.7651186
    ]
   },
   "properties": {
    "name": "19 ORCHARD ROAD BROOKVALE 2100",
    "locID": "LOC000045320355",
    "tech": "FTTN",
    "upgrade": "NULL_NA"
   }
  },
  {
   "type": "Feature",
   "geometry": {
    "type": "Point",
    "coordinates": [
     151.27040775,
     -33.76376013
    ]
   },
   "properties": {
    "name": "19 ROGER STREET BROOKVALE 2100",
    "locID": "LOC000180970914",
    "tech": "FTTP",
    "upgrade": "NULL_NA"
   }
  },
  {
   "type": "Feature",
   "geometry": {
    "type": "Point",
    "coordinates": [
     151.27609106,
     -33.75806685
    ]
   },
   "properties": {
    "name": "19 SHACKEL AVENUE BROOKVALE 2100",
    "locID": "LOC000148018878",
    "tech": "FTTN",
    "upgrade": "NULL_NA"
   }
  },
  {
   "type": "Feature",
   "geometry": {
    "type": "Point",
    "coordinates": [
     151.27388847,
     -33.76410596
    ]
   },
   "properties": {
    "name": "19 SYDENHAM ROAD BROOKVALE 2100",
    "locID": "LOC000101355253",
    "tech": "FTTN",
    "upgrade": "NULL_NA"
   }
  },
  {
   "type": "Feature",
   "geometry": {
    "type": "Point",
    "coordinates": [
     151.27781458,
     -33.75873356
    ]
   },
   "properties": {
    "name": "19 VICTOR ROAD BROOKVALE 2100",
    "locID": "LOC000031346429",
    "tech": "FTTN",
    "upgrade": "NULL_NA"
   }
  },
  {
   "type": "Feature",
   "geometry": {
    "type": "Point",
    "coordinates": [
     151.27812359,
     -33.76193357
    ]
   },
   "properties": {
    "name": "19 WEST STREET BROOKVALE 2100",
    "locID": "LOC000044124192",
    "tech": "FTTN",
    "upgrade": "NULL_NA"
   }
  },
  {
   "type": "Feature",
   "geometry": {
    "type": "Point",
    "coordinates": [
     151.27350385,
     -33.76359243
    ]
   },
   "properties": {
    "name": "19-21 CHARD ROAD BROOKVALE 2100",
    "locID": "LOC000169257909",
    "tech": "FTTN",
    "upgrade": "NULL_NA"
   }
  },
  {
   "type": "Feature",
   "geometry": {
    "type": "Point",
    "coordinates": [
     151.27888617,
     -33.76534437
    ]
   },
   "properties": {
    "name": "190 HARBORD ROAD BROOKVALE 2100",
    "locID": "LOC000078393511",
    "tech": "FTTP",
    "upgrade": "NULL_NA"
   }
  },
  {
   "type": "Feature",
   "geometry": {
    "type": "Point",
    "coordinates": [
     151.27888617,
     -33.76534437
    ]
   },
   "properties": {
    "name": "190-206 HARBORD ROAD BROOKVALE 2100",
    "locID": "ChIJg6atl1-qEmsR5bM6k221ug4",
    "tech": "FTTN",
    "upgrade": "UNKNOWN"
   }
  },
  {
   "type": "Feature",
   "geometry": {
    "type": "Point",
    "coordinates": [
     151.27888617,
     -33.76534437
    ]
   },
   "properties": {
    "name": "192 HARBORD ROAD BROOKVALE 2100",
    "locID": "LOC000007191330",
    "tech": "FTTN",
    "upgrade": "NULL_NA"
   }
  },
  {
   "type": "Feature",
   "geometry": {
    "type": "Point",
    "coordinates": [
     151.27901545,
     -33.76468852
    ]
   },
   "properties": {
    "name": "194 HARBORD ROAD BROOKVALE 2100",
    "locID": "LOC000044026155",
    "tech": "FTTN",
    "upgrade": "NULL_NA"
   }
  },
  {
   "type": "Feature",
   "geometry": {
    "type": "Point",
    "coordinates": [
     151.27918819,
     -33.76382676
    ]
   },
   "properties": {
    "name": "196 HARBORD ROAD BROOKVALE 2100",
    "locID": "LOC000023878714",
    "tech": "FTTN",
    "upgrade": "NULL_NA"
   }
  },
  {
   "type": "Feature",
   "geometry": {
    "type": "Point",
    "coordinates": [
     151.27910664,
     -33.764235
    ]
   },
   "properties": {
    "name": "196A HARBORD ROAD BROOKVALE 2100",
    "locID": "LOC000023971146",
    "tech": "FTTN",
    "upgrade": "NULL_NA"
   }
  },
  {
   "type": "Feature",
   "geometry": {
    "type": "Point",
    "coordinates": [
     151.27939962,
     -33.7633208
    ]
   },
   "properties": {
    "name": "198 HARBORD ROAD BROOKVALE 2100",
    "locID": "LOC100075845935",
    "tech": "FTTN",
    "upgrade": "NULL_NA"
   }
  },
  {
   "type": "Feature",
   "geometry": {
    "type": "Point",
    "coordinates": [
     151.27840301,
     -33.76624598
    ]
   },
   "properties": {
    "name": "19A ETHEL AVENUE BROOKVALE 2100",
    "locID": "LOC000105201066",
    "tech": "FTTN",
    "upgrade": "NULL_NA"
   }
  },
  {
   "type": "Feature",
   "geometry": {
    "type": "Point",
    "coordinates": [
     151.26885433,
     -33.76243336
    ]
   },
   "properties": {
    "name": "1A BEACON HILL ROAD BROOKVALE 2100",
    "locID": "LOC000005675137",
    "tech": "HFC",
    "upgrade": "NULL_NA"
   }
  },