{"type": "FeatureCollection", "features": [{"type": "Feature", "geometry": {"type": "Point", "coordinates": [151.10859304, -33.90424008]}, "properties": {"name": "1 ADAM STREET CAMPSIE 2194", "locID": "LOC000039933073", "tech": "HFC", "upgrade": "NULL_NA"}}, {"type": "Feature", "geometry": {"type": "Point", "coordinates": [151.09324228, -33.91170226]}, "properties": {"name": "1 ALMA AVENUE CAMPSIE 2194", "locID": "LOC000033996002", "tech": "HFC", "upgrade": "NULL_NA"}}, {"type": "Feature", "geometry": {"type": "Point", "coordinates": [151.1009376, -33.91039116]}, "properties": {"name": "1 ASSETS STREET CAMPSIE 2194", "locID": "LOC000046190163", "tech": "FTTN", "upgrade": "NULL_NA"}}, {"type": "Feature", "geometry": {"type": "Point", "coordinates": [151.10236785, -33.91663151]}, "properties": {"name": "1 BEAUMONT STREET CAMPSIE 2194", "locID": "LOC000022948821", "tech": "HFC", "upgrade": "NULL_NA"}}, {"type": "Feature", "geometry": {"type": "Point", "coordinates": [151.10450147, -33.90620521]}, "properties": {"name": "1 BROWNING STREET CAMPSIE 2194", "locID": "LOC000024667847", "tech": "HFC", "upgrade": "NULL_NA"}}, {"type": "Feature", "geometry": {"type": "Point", "coordinates": [151.10615042, -33.90497182]}, "properties": {"name": "1 BURNS STREET CAMPSIE 2194", "locID": "LOC000045815310", "tech": "HFC", "upgrade": "NULL_NA"}}, {"type": "Feature", "geometry": {"type": "Point", "coordinates": [151.09799906, -33.91152784]}, "properties": {"name": "1 BUTLER AVENUE CAMPSIE 2194", "locID": "LOC000030008838", "tech": "HFC", "upgrade": "NULL_NA"}}, {"type": "Feature", "geometry": {"type": "Point", "coordinates": [151.10666442, -33.90273919]}, "properties": {"name": "1 BYRON STREET CAMPSIE 2194", "locID": "LOC000053137978", "tech": "HFC", "upgrade": "NULL_NA"}}, {"type": "Feature", "geometry": {"type": "Point", "coordinates": [151.10754746, -33.90355863]}, "properties": {"name": "1 COWPER STREET CAMPSIE 2194", "locID": "LOC000053137187", "tech": "HFC", "upgrade": "NULL_NA"}}, {"type": "Feature", "geometry": {"type": "Point", "coordinates": [151.10745136, -33.91327421]}, "properties": {"name": "1 DUKE STREET CAMPSIE 2194", "locID": "LOC000029134346", "tech": "FTTP", "upgrade": "NULL_NA"}}, {"type": "Feature", "geometry": {"type": "Point", "coordinates": [151.1026345, -33.90588079]}, "properties": {"name": "1 EIGHTH AVENUE CAMPSIE 2194", "locID": "LOC000109251609", "tech": "FTTC", "upgrade": "NULL_NA"}}, {"type": "Feature", "geometry": {"type": "Point", "coordinates": [151.10116557, -33.90828939]}, "properties": {"name": "1 FIFTH AVENUE CAMPSIE 2194", "locID": "LOC000120250828", "tech": "FTTN", "upgrade": "FTTP_SA"}}, {"type": "Feature", "geometry": {"type": "Point", "coordinates": [151.0974311, -33.91736888]}, "properties": {"name": "1 FITZROY STREET CAMPSIE 2194", "locID": "LOC000038164520", "tech": "HFC", "upgrade": "NULL_NA"}}, {"type": "Feature", "geometry": {"type": "Point", "coordinates": [151.10242704, -33.91768456]}, "properties": {"name": "1 FLETCHER STREET CAMPSIE 2194", "locID": "LOC000077217696", "tech": "HFC", "upgrade": "NULL_NA"}}, {"type": "Feature", "geometry": {"type": "Point", "coordinates": [151.09989913, -33.90848514]}, "properties": {"name": "1 FOURTH AVENUE CAMPSIE 2194", "locID": "LOC000012293848", "tech": "HFC", "upgrade": "NULL_NA"}}, {"type": "Feature", "geometry": {"type": "Point", "coordinates": [151.10970979, -33.90612837]}, "properties": {"name": "1 GORDON STREET CAMPSIE 2194", "locID": "LOC000049713360", "tech": "HFC", "upgrade": "NULL_NA"}}, {"type": "Feature", "geometry": {"type": "Point", "coordinates": [151.10811701, -33.91055082]}, "properties": {"name": "1 GOULD STREET CAMPSIE 2194", "locID": "LOC000077325926", "tech": "FTTP", "upgrade": "NULL_NA"}}, {"type": "Feature", "geometry": {"type": "Point", "coordinates": [151.10461029, -33.91101887]}, "properties": {"name": "1 HAROLD STREET CAMPSIE 2194", "locID": "LOC000158348346", "tech": "FTTC", "upgrade": "NULL_NA"}}, {"type": "Feature", "geometry": {"type": "Point", "coordinates": [151.10252288, -33.92320114]}, "properties": {"name": "1 HARP STREET CAMPSIE 2194", "locID": "LOC000164367804", "tech": "FTTP", "upgrade": "NULL_NA"}}, {"type": "Feature", "geometry": {"type": "Point", "coordinates": [151.09562674, -33.913208]}, "properties": {"name": "1 LINCOLN STREET CAMPSIE 2194", "locID": "LOC000097874787", "tech": "HFC", "upgrade": "NULL_NA"}}, {"type": "Feature", "geometry": {"type": "Point", "coordinates": [151.10910059, -33.90510442]}, "properties": {"name": "1 LINDSAY STREET CAMPSIE 2194", "locID": "LOC000021414359", "tech": "HFC", "upgrade": "NULL_NA"}}, {"type": "Feature", "geometry": {"type": "Point", "coordinates": [151.09618085, -33.9104361]}, "properties": {"name": "1 LOCH STREET CAMPSIE 2194", "locID": "LOC000018860498", "tech": "HFC", "upgrade": "NULL_NA"}}, {"type": "Feature", "geometry": {"type": "Point", "coordinates": [151.0955593, -33.9121063]}, "properties": {"name": "1 LOFTUS STREET CAMPSIE 2194", "locID": "LOC000187091738", "tech": "HFC", "upgrade": "NULL_NA"}}, {"type": "Feature", "geometry": {"type": "Point", "coordinates": [151.10184084, -33.92240018]}, "properties": {"name": "1 MACKINDER STREET CAMPSIE 2194", "locID": "LOC000160764553", "tech": "FTTP", "upgrade": "NULL_NA"}}, {"type": "Feature", "geometry": {"type": "Point", "coordinates": [151.10268887, -33.91486588]}, "properties": {"name": "1 MARLOWE STREET CAMPSIE 2194", "locID": "LOC000025527330", "tech": "HFC", "upgrade": "NULL_NA"}}, {"type": "Feature", "geometry": {"type": "Point", "coordinates": [151.09785238, -33.91809353]}, "properties": {"name": "1 MCKENZIE STREET CAMPSIE 2194", "locID": "LOC000015547045", "tech": "HFC", "upgrade": "NULL_NA"}}, {"type": "Feature", "geometry": {"type": "Point", "coordinates": [151.10241228, -33.91563502]}, "properties": {"name": "1 MCKERN STREET CAMPSIE 2194", "locID": "LOC000086813689", "tech": "HFC", "upgrade": "NULL_NA"}}, {"type": "Feature", "geometry": {"type": "Point", "coordinates": [151.10751897, -33.9171308]}, "properties": {"name": "1 MESSITER STREET CAMPSIE 2194", "locID": "LOC000017375669", "tech": "FTTP", "upgrade": "NULL_NA"}}, {"type": "Feature", "geometry": {"type": "Point", "coordinates": [151.10697228, -33.90429682]}, "properties": {"name": "1 MOORE STREET CAMPSIE 2194", "locID": "LOC000003928664", "tech": "HFC", "upgrade": "NULL_NA"}}, {"type": "Feature", "geometry": {"type": "Point", "coordinates": [151.10414712, -33.91872632]}, "properties": {"name": "1 NICHOLAS AVENUE CAMPSIE 2194", "locID": "LOC000001629882", "tech": "HFC", "upgrade": "NULL_NA"}}, {"type": "Feature", "geometry": {"type": "Point", "coordinates": [151.11331651, -33.90853553]}, "properties": {"name": "1 NOWRA STREET CAMPSIE 2194", "locID": "LOC000090785967", "tech": "FTTP", "upgrade": "NULL_NA"}}, {"type": "Feature", "geometry": {"type": "Point", "coordinates": [151.10918483, -33.91027754]}, "properties": {"name": "1 OSWALD STREET CAMPSIE 2194", "locID": "LOC000078825945", "tech": "FTTP", "upgrade": "NULL_NA"}}, {"type": "Feature", "geometry": {"type": "Point", "coordinates": [151.09700414, -33.91664187]}, "properties": {"name": "1 PALMER STREET CAMPSIE 2194", "locID": "LOC000058789086", "tech": "HFC", "upgrade": "NULL_NA"}}, {"type": "Feature", "geometry": {"type": "Point", "coordinates": [151.10691891, -33.91071435]}, "properties": {"name": "1 PARK STREET CAMPSIE 2194", "locID": "LOC000011371258", "tech": "FTTC", "upgrade": "FTTP_SA"}}, {"type": "Feature", "geometry": {"type": "Point", "coordinates": [151.10779419, -33.91532128]}, "properties": {"name": "1 PERRY STREET CAMPSIE 2194", "locID": "LOC000107227632", "tech": "FTTP", "upgrade": "NULL_NA"}}, {"type": "Feature", "geometry": {"type": "Point", "coordinates": [151.10650902, -33.91753858]}, "properties": {"name": "1 ROBERTSON STREET CAMPSIE 2194", "locID": "LOC000059021556", "tech": "FTTP", "upgrade": "NULL_NA"}}, {"type": "Feature", "geometry": {"type": "Point", "coordinates": [151.1057185, -33.91830073]}, "properties": {"name": "1 SCAHILL STREET CAMPSIE 2194", "locID": "LOC000009692656", "tech": "FTTP", "upgrade": "NULL_NA"}}, {"type": "Feature", "geometry": {"type": "Point", "coordinates": [151.09699009, -33.90904632]}, "properties": {"name": "1 SECOND AVENUE CAMPSIE 2194", "locID": "LOC000109834622", "tech": "HFC", "upgrade": "NULL_NA"}}, {"type": "Feature", "geometry": {"type": "Point", "coordinates": [151.10267133, -33.90381433]}, "properties": {"name": "1 SEVENTH AVENUE CAMPSIE 2194", "locID": "LOC000003810037", "tech": "HFC", "upgrade": "NULL_NA"}}, {"type": "Feature", "geometry": {"type": "Point", "coordinates": [151.10543541, -33.91649719]}, "properties": {"name": "1 STANLEY STREET CAMPSIE 2194", "locID": "LOC000090416916", "tech": "FTTP", "upgrade": "NULL_NA"}}, {"type": "Feature", "geometry": {"type": "Point", "coordinates": [151.10184084, -33.92240018]}, "properties": {"name": "1 SUNBEAM STREET CAMPSIE 2194", "locID": "LOC000160764609", "tech": "FTTP", "upgrade": "NULL_NA"}}, {"type": "Feature", "geometry": {"type": "Point", "coordinates": [151.10485391, -33.90366482]}, "properties": {"name": "1 TENNYSON STREET CAMPSIE 2194", "locID": "LOC000100413592", "tech": "HFC", "upgrade": "NULL_NA"}}, {"type": "Feature", "geometry": {"type": "Point", "coordinates": [151.09844786, -33.90870697]}, "properties": {"name": "1 THIRD AVENUE CAMPSIE 2194", "locID": "LOC000087954142", "tech": "HFC", "upgrade": "NULL_NA"}}, {"type": "Feature", "geometry": {"type": "Point", "coordinates": [151.09737738, -33.91591196]}, "properties": {"name": "1 THORNCRAFT PARADE CAMPSIE 2194", "locID": "LOC000100193226", "tech": "HFC", "upgrade": "NULL_NA"}}, {"type": "Feature", "geometry": {"type": "Point", "coordinates": [151.1006333, -33.92044769]}, "properties": {"name": "1 TROY STREET CAMPSIE 2194", "locID": "LOC000095900018", "tech": "HFC", "upgrade": "NULL_NA"}}, {"type": "Feature", "geometry": {"type": "Point", "coordinates": [151.10857839, -33.9160766]}, "properties": {"name": "1 UNA STREET CAMPSIE 2194", "locID": "LOC000088701860", "tech": "FTTP", "upgrade": "NULL_NA"}}, {"type": "Feature", "geometry": {"type": "Point", "coordinates": [151.10717488, -33.91421297]}, "properties": {"name": "1 UNARA STREET CAMPSIE 2194", "locID": "LOC000093776266", "tech": "FTTP", "upgrade": "NULL_NA"}}, {"type": "Feature", "geometry": {"type": "Point", "coordinates": [151.10350079, -33.91891105]}, "properties": {"name": "1 VICLIFFE AVENUE CAMPSIE 2194", "locID": "LOC000158354635", "tech": "HFC", "upgrade": "NULL_NA"}}, {"type": "Feature", "geometry": {"type": "Point", "coordinates": [151.10342465, -33.9227531]}, "properties": {"name": "1 VICTA STREET CAMPSIE 2194", "locID": "LOC000140773358", "tech": "FTTP", "upgrade": "NULL_NA"}}, {"type": "Feature", "geometry": {"type": "Point", "coordinates": [151.10242689, -33.91961598]}, "properties": {"name": "1 VIKING STREET CAMPSIE 2194", "locID": "LOC000099942533", "tech": "HFC", "upgrade": "NULL_NA"}}, {"type": "Feature", "geometry": {"type": "Point", "coordinates": [151.10158298, -33.92005379]}, "properties": {"name": "1 WADE STREET CAMPSIE 2194", "locID": "LOC000077080843", "tech": "HFC", "upgrade": "NULL_NA"}}, {"type": "Feature", "geometry": {"type": "Point", "coordinates": [151.10164067, -33.91021418]}, "properties": {"name": "1 WILFRED AVENUE CAMPSIE 2194", "locID": "LOC000075615962", "tech": "FTTN", "upgrade": "FTTP_SA"}}, {"type": "Feature", "geometry": {"type": "Point", "coordinates": [151.1053689, -33.90567558]}, "properties": {"name": "1-3 DRYDEN STREET CAMPSIE 2194", "locID": "LOC000082739872", "tech": "HFC", "upgrade": "NULL_NA"}}, {"type": "Feature", "geometry": {"type": "Point", "coordinates": [151.09717946, -33.91015838]}, "properties": {"name": "1-3 HARCOURT AVENUE CAMPSIE 2194", "locID": "LOC000039837213", "tech": "HFC", "upgrade": "NULL_NA"}}, {"type": "Feature", "geometry": {"type": "Point", "coordinates": [151.10652547, -33.91303341]}, "properties": {"name": "1-3 HILL STREET CAMPSIE 2194", "locID": "LOC000061990894", "tech": "FTTP", "upgrade": "NULL_NA"}}, {"type": "Feature", "geometry": {"type": "Point", "coordinates": [151.10179392, -33.90973368]}, "properties": {"name": "1-3 LONDON STREET CAMPSIE 2194", "locID": "LOC000036328917", "tech": "HFC", "upgrade": "NULL_NA"}}, {"type": "Feature", "geometry": {"type": "Point", "coordinates": [151.10875955, -33.9035153]}, "properties": {"name": "10 ADAM STREET CAMPSIE 2194", "locID": "LOC000055247646", "tech": "HFC", "upgrade": "NULL_NA"}}, {"type": "Feature", "geometry": {"type": "Point", "coordinates": [151.09397891, -33.91122755]}, "properties": {"name": "10 ALBERT STREET CAMPSIE 2194", "locID": "LOC000025327352", "tech": "HFC", "upgrade": "NULL_NA"}}, {"type": "Feature", "geometry": {"type": "Point", "coordinates": [151.09302254, -33.91228202]}, "properties": {"name": "10 ALMA AVENUE CAMPSIE 2194", "locID": "LOC000075764523", "tech": "HFC", "upgrade": "NULL_NA"}}, {"type": "Feature", "geometry": {"type": "Point", "coordinates": [151.10330916, -33.91234231]}, "properties": {"name": "10 AMY STREET CAMPSIE 2194", "locID": "LOC000161341247", "tech": "FTTC", "upgrade": "NULL_NA"}}, {"type": "Feature", "geometry": {"type": "Point", "coordinates": [151.1018269, -33.91750435]}, "properties": {"name": "10 BEAUMONT STREET CAMPSIE 2194", "locID": "LOC000140276471", "tech": "HFC", "upgrade": "NULL_NA"}}, {"type": "Feature", "geometry": {"type": "Point", "coordinates": [151.10557841, -33.91894562]}, "properties": {"name": "10 BEXLEY ROAD CAMPSIE 2194", "locID": "LOC000040182023", "tech": "FTTP", "upgrade": "NULL_NA"}}, {"type": "Feature", "geometry": {"type": "Point", "coordinates": [151.10519679, -33.90631394]}, "properties": {"name": "10 BROWNING STREET CAMPSIE 2194", "locID": "LOC000079999613", "tech": "HFC", "upgrade": "NULL_NA"}}, {"type": "Feature", "geometry": {"type": "Point", "coordinates": [151.10689128, -33.90501]}, "properties": {"name": "10 BURNS STREET CAMPSIE 2194", "locID": "LOC000044511260", "tech": "HFC", "upgrade": "NULL_NA"}}, {"type": "Feature", "geometry": {"type": "Point", "coordinates": [151.10623571, -33.90330749]}, "properties": {"name": "10 BYRON STREET CAMPSIE 2194", "locID": "LOC000078099036", "tech": "HFC", "upgrade": "NULL_NA"}}, {"type": "Feature", "geometry": {"type": "Point", "coordinates": [151.10218952, -33.915203]}, "properties": {"name": "10 CLAREMONT STREET CAMPSIE 2194", "locID": "LOC000087963822", "tech": "HFC", "upgrade": "NULL_NA"}}, {"type": "Feature", "geometry": {"type": "Point", "coordinates": [151.11107985, -33.90661264]}, "properties": {"name": "10 CLISSOLD PARADE CAMPSIE 2194", "locID": "LOC000063850402", "tech": "HFC", "upgrade": "NULL_NA"}}, {"type": "Feature", "geometry": {"type": "Point", "coordinates": [151.10996217, -33.90630205]}, "properties": {"name": "10 COWPER STREET CAMPSIE 2194", "locID": "LOC000022299948", "tech": "HFC", "upgrade": "NULL_NA"}}, {"type": "Feature", "geometry": {"type": "Point", "coordinates": [151.1060811, -33.90570766]}, "properties": {"name": "10 DRYDEN STREET CAMPSIE 2194", "locID": "LOC000030123777", "tech": "HFC", "upgrade": "NULL_NA"}}, {"type": "Feature", "geometry": {"type": "Point", "coordinates": [151.10575971, -33.91110749]}, "properties": {"name": "10 DUKE STREET CAMPSIE 2194", "locID": "LOC000003121581", "tech": "FTTP", "upgrade": "NULL_NA"}}, {"type": "Feature", "geometry": {"type": "Point", "coordinates": [151.0996085, -33.92144516]}, "properties": {"name": "10 ELIZABETH STREET CAMPSIE 2194", "locID": "LOC000078803465", "tech": "HFC", "upgrade": "NULL_NA"}}, {"type": "Feature", "geometry": {"type": "Point", "coordinates": [151.10630622, -33.9125121]}, "properties": {"name": "10 EVALINE STREET CAMPSIE 2194", "locID": "LOC000024752553", "tech": "HFC", "upgrade": "NULL_NA"}}, {"type": "Feature", "geometry": {"type": "Point", "coordinates": [151.09731928, -33.91796528]}, "properties": {"name": "10 FITZROY STREET CAMPSIE 2194", "locID": "LOC000060754269", "tech": "HFC", "upgrade": "NULL_NA"}}, {"type": "Feature", "geometry": {"type": "Point", "coordinates": [151.10316353, -33.9180012]}, "properties": {"name": "10 FLETCHER STREET CAMPSIE 2194", "locID": "LOC000054404796", "tech": "HFC", "upgrade": "NULL_NA"}}, {"type": "Feature", "geometry": {"type": "Point", "coordinates": [151.09893755, -33.90812352]}, "properties": {"name": "10 FOURTH AVENUE CAMPSIE 2194", "locID": "LOC100080794237", "tech": "HFC", "upgrade": "NULL_NA"}}, {"type": "Feature", "geometry": {"type": "Point", "coordinates": [151.11183494, -33.90738735]}, "properties": {"name": "10 FREDERICK STREET CAMPSIE 2194", "locID": "LOC000034517108", "tech": "HFC", "upgrade": "NULL_NA"}}, {"type": "Feature", "geometry": {"type": "Point", "coordinates": [151.10985662, -33.90537369]}, "properties": {"name": "10 GORDON STREET CAMPSIE 2194", "locID": "LOC000101401660", "tech": "HFC", "upgrade": "NULL_NA"}}, {"type": "Feature", "geometry": {"type": "Point", "coordinates": [151.10908004, -33.91093264]}, "properties": {"name": "10 GOULD STREET CAMPSIE 2194", "locID": "LOC000015977511", "tech": "FTTP", "upgrade": "NULL_NA"}}, {"type": "Feature", "geometry": {"type": "Point", "coordinates": [151.10542015, -33.91131301]}, "properties": {"name": "10 HAROLD STREET CAMPSIE 2194", "locID": "LOC000100952040", "tech": "FTTC", "upgrade": "FTTP_SA"}}, {"type": "Feature", "geometry": {"type": "Point", "coordinates": [151.09497049, -33.91268406]}, "properties": {"name": "10 LINCOLN STREET CAMPSIE 2194", "locID": "LOC000042814095", "tech": "HFC", "upgrade": "NULL_NA"}}, {"type": "Feature", "geometry": {"type": "Point", "coordinates": [151.10928618, -33.90440931]}, "properties": {"name": "10 LINDSAY STREET CAMPSIE 2194", "locID": "LOC000101903122", "tech": "HFC", "upgrade": "NULL_NA"}}, {"type": "Feature", "geometry": {"type": "Point", "coordinates": [151.09675657, -33.91034899]}, "properties": {"name": "10 LOCH STREET CAMPSIE 2194", "locID": "LOC000040073617", "tech": "HFC", "upgrade": "NULL_NA"}}, {"type": "Feature", "geometry": {"type": "Point", "coordinates": [151.09658289, -33.91266401]}, "properties": {"name": "10 LOFTUS STREET CAMPSIE 2194", "locID": "LOC000017072899", "tech": "HFC", "upgrade": "NULL_NA"}}, {"type": "Feature", "geometry": {"type": "Point", "coordinates": [151.10261422, -33.90984599]}, "properties": {"name": "10 LONDON STREET CAMPSIE 2194", "locID": "LOC000138675229", "tech": "HFC", "upgrade": "NULL_NA"}}, {"type": "Feature", "geometry": {"type": "Point", "coordinates": [151.10337611, -33.91540298]}, "properties": {"name": "10 MARLOWE STREET CAMPSIE 2194", "locID": "LOC000001560153", "tech": "HFC", "upgrade": "NULL_NA"}}, {"type": "Feature", "geometry": {"type": "Point", "coordinates": [151.1019968, -33.91634543]}, "properties": {"name": "10 MCKERN STREET CAMPSIE 2194", "locID": "LOC000042022824", "tech": "HFC", "upgrade": "NULL_NA"}}, {"type": "Feature", "geometry": {"type": "Point", "coordinates": [151.10837904, -33.917353]}, "properties": {"name": "10 MESSITER STREET CAMPSIE 2194", "locID": "LOC000086148300", "tech": "FTTP", "upgrade": "NULL_NA"}}, {"type": "Feature", "geometry": {"type": "Point", "coordinates": [151.10754155, -33.90410815]}, "properties": {"name": "10 MOORE STREET CAMPSIE 2194", "locID": "LOC000062190483", "tech": "HFC", "upgrade": "NULL_NA"}}, {"type": "Feature", "geometry": {"type": "Point", "coordinates": [151.10484036, -33.9190186]}, "properties": {"name": "10 NICHOLAS AVENUE CAMPSIE 2194", "locID": "LOC000053969165", "tech": "HFC", "upgrade": "NULL_NA"}}, {"type": "Feature", "geometry": {"type": "Point", "coordinates": [151.10908324, -33.90889921]}, "properties": {"name": "10 NORTH PARADE CAMPSIE 2194", "locID": "LOC000054294756", "tech": "FTTN", "upgrade": "NULL_NA"}}, {"type": "Feature", "geometry": {"type": "Point", "coordinates": [151.11250376, -33.9084493]}, "properties": {"name": "10 NOWRA STREET CAMPSIE 2194", "locID": "LOC000077159001", "tech": "FTTP", "upgrade": "NULL_NA"}}, {"type": "Feature", "geometry": {"type": "Point", "coordinates": [151.11005577, -33.9105353]}, "properties": {"name": "10 OSWALD STREET CAMPSIE 2194", "locID": "LOC000098160353", "tech": "FTTP", "upgrade": "NULL_NA"}}, {"type": "Feature", "geometry": {"type": "Point", "coordinates": [151.10784232, -33.91100048]}, "properties": {"name": "10 PARK STREET CAMPSIE 2194", "locID": "LOC000057920696", "tech": "FTTP", "upgrade": "NULL_NA"}}, {"type": "Feature", "geometry": {"type": "Point", "coordinates": [151.10732507, -33.91625106]}, "properties": {"name": "10 PERRY STREET CAMPSIE 2194", "locID": "LOC000180796424", "tech": "FTTP", "upgrade": "NULL_NA"}}, {"type": "Feature", "geometry": {"type": "Point", "coordinates": [151.10734452, -33.91770161]}, "properties": {"name": "10 ROBERTSON STREET CAMPSIE 2194", "locID": "LOC000037930216", "tech": "FTTP", "upgrade": "NULL_NA"}}, {"type": "Feature", "geometry": {"type": "Point", "coordinates": [151.10660374, -33.9185591]}, "properties": {"name": "10 SCAHILL STREET CAMPSIE 2194", "locID": "LOC000028667679", "tech": "FTTP", "upgrade": "NULL_NA"}}, {"type": "Feature", "geometry": {"type": "Point", "coordinates": [151.10200035, -33.90461281]}, "properties": {"name": "10 SEVENTH AVENUE CAMPSIE 2194", "locID": "LOC000068056650", "tech": "HFC", "upgrade": "NULL_NA"}}, {"type": "Feature", "geometry": {"type": "Point", "coordinates": [151.10436076, -33.90702598]}, "properties": {"name": "10 SHAKESPEARE STREET CAMPSIE 2194", "locID": "LOC000008347237", "tech": "HFC", "upgrade": "NULL_NA"}}, {"type": "Feature", "geometry": {"type": "Point", "coordinates": [151.10575828, -33.90369171]}, "properties": {"name": "10 SHELLEY STREET CAMPSIE 2194", "locID": "LOC000036263025", "tech": "HFC", "upgrade": "NULL_NA"}}, {"type": "Feature", "geometry": {"type": "Point", "coordinates": [151.10167213, -33.90769479]}, "properties": {"name": "10 SIXTH AVENUE CAMPSIE 2194", "locID": "LOC000088502995", "tech": "FTTC", "upgrade": "FTTP_SA"}}, {"type": "Feature", "geometry": {"type": "Point", "coordinates": [151.10578646, -33.91621518]}, "properties": {"name": "10 STANLEY STREET CAMPSIE 2194", "locID": "LOC000096023645", "tech": "FTTP", "upgrade": "NULL_NA"}}, {"type": "Feature", "geometry": {"type": "Point", "coordinates": [151.10387436, -33.90413627]}, "properties": {"name": "10 TENNYSON STREET CAMPSIE 2194", "locID": "LOC000041977203", "tech": "HFC", "upgrade": "NULL_NA"}}, {"type": "Feature", "geometry": {"type": "Point", "coordinates": [151.09824088, -33.9171178]}, "properties": {"name": "10 THORNCRAFT PARADE CAMPSIE 2194", "locID": "LOC000139475680", "tech": "HFC", "upgrade": "NULL_NA"}}, {"type": "Feature", "geometry": {"type": "Point", "coordinates": [151.10148798, -33.92070423]}, "properties": {"name": "10 TROY STREET CAMPSIE 2194", "locID": "LOC000017990601", "tech": "HFC", "upgrade": "NULL_NA"}}, {"type": "Feature", "geometry": {"type": "Point", "coordinates": [151.09680315, -33.91772879]}, "properties": {"name": "10 TUDOR STREET CAMPSIE 2194", "locID": "LOC000049662746", "tech": "HFC", "upgrade": "NULL_NA"}}, {"type": "Feature", "geometry": {"type": "Point", "coordinates": [151.10704266, -33.91500807]}, "properties": {"name": "10 UNARA STREET CAMPSIE 2194", "locID": "LOC000086342905", "tech": "FTTP", "upgrade": "NULL_NA"}}, {"type": "Feature", "geometry": {"type": "Point", "coordinates": [151.10483134, -33.92027932]}, "properties": {"name": "10 VICLIFFE AVENUE CAMPSIE 2194", "locID": "LOC000036173816", "tech": "HFC", "upgrade": "NULL_NA"}}, {"type": "Feature", "geometry": {"type": "Point", "coordinates": [151.10344319, -33.92205736]}, "properties": {"name": "10 VICTA STREET CAMPSIE 2194", "locID": "LOC000137739527", "tech": "FTTP", "upgrade": "NULL_NA"}}, {"type": "Feature", "geometry": {"type": "Point", "coordinates": [151.10322497, -33.91971525]}, "properties": {"name": "10 VIKING STREET CAMPSIE 2194", "locID": "LOC000035896924", "tech": "HFC", "upgrade": "NULL_NA"}}, {"type": "Feature", "geometry": {"type": "Point", "coordinates": [151.10233345, -33.92020585]}, "properties": {"name": "10 WADE STREET CAMPSIE 2194", "locID": "LOC000044038020", "tech": "HFC", "upgrade": "NULL_NA"}}, {"type": "Feature", "geometry": {"type": "Point", "coordinates": [151.10291011, -33.90338644]}, "properties": {"name": "10-12 BEAMISH STREET CAMPSIE 2194", "locID": "LOC000034770231", "tech": "HFC", "upgrade": "NULL_NA"}}, {"type": "Feature", "geometry": {"type": "Point", "coordinates": [151.1018269, -33.91750435]}, "properties": {"name": "10-12 BEAUMONT STREET CAMPSIE 2194", "locID": "LOC000188029572", "tech": "FTTP", "upgrade": "NULL_NA"}}, {"type": "Feature", "geometry": {"type": "Point", "coordinates": [151.09743369, -33.9083453]}, "properties": {"name": "10-12 THIRD AVENUE CAMPSIE 2194", "locID": "LOC000031997245", "tech": "HFC", "upgrade": "NULL_NA"}}, {"type": "Feature", "geometry": {"type": "Point", "coordinates": [151.10008669, -33.90735889]}, "properties": {"name": "10-20 FIFTH AVENUE CAMPSIE 2194", "locID": "LOC000008045243", "tech": "FTTN", "upgrade": "NULL_NA"}}, {"type": "Feature", "geometry": {"type": "Point", "coordinates": [151.10369269, -33.9106432]}, "properties": {"name": "100 BEAMISH STREET CAMPSIE 2194", "locID": "LOC000158339033", "tech": "FTTC", "upgrade": "FTTP_SA"}}, {"type": "Feature", "geometry": {"type": "Point", "coordinates": [151.09598101, -33.91200402]}, "properties": {"name": "100 CAMPSIE STREET CAMPSIE 2194", "locID": "LOC000010914698", "tech": "HFC", "upgrade": "NULL_NA"}}, {"type": "Feature", "geometry": {"type": "Point", "coordinates": [151.10478943, -33.90921106]}, "properties": {"name": "100 CLISSOLD PARADE CAMPSIE 2194", "locID": "LOC000057244570", "tech": "HFC", "upgrade": "NULL_NA"}}, {"type": "Feature", "geometry": {"type": "Point", "coordinates": [151.10095056, -33.91463427]}, "properties": {"name": "100 EVALINE STREET CAMPSIE 2194", "locID": "LOC000004231783", "tech": "HFC", "upgrade": "NULL_NA"}}, {"type": "Feature", "geometry": {"type": "Point", "coordinates": [151.09762189, -33.90983088]}, "properties": {"name": "100 NINTH AVENUE CAMPSIE 2194", "locID": "LOC000052371534", "tech": "HFC", "upgrade": "NULL_NA"}}, {"type": "Feature", "geometry": {"type": "Point", "coordinates": [151.1067629, -33.90415204]}, "properties": {"name": "101 BRIGHTON AVENUE CAMPSIE 2194", "locID": "LOC000051383990", "tech": "HFC", "upgrade": "NULL_NA"}}, {"type": "Feature", "geometry": {"type": "Point", "coordinates": [151.10451897, -33.90868358]}, "properties": {"name": "101 CLISSOLD PARADE CAMPSIE 2194", "locID": "LOC000075432721", "tech": "HFC", "upgrade": "NULL_NA"}}, {"type": "Feature", "geometry": {"type": "Point", "coordinates": [151.10906084, -33.91540412]}, "properties": {"name": "101 DUKE STREET CAMPSIE 2194", "locID": "LOC000003167736", "tech": "FTTP", "upgrade": "NULL_NA"}}, {"type": "Feature", "geometry": {"type": "Point", "coordinates": [151.10013791, -33.91425908]}, "properties": {"name": "101 EVALINE STREET CAMPSIE 2194", "locID": "LOC000140281533", "tech": "HFC", "upgrade": "NULL_NA"}}, {"type": "Feature", "geometry": {"type": "Point", "coordinates": [151.09684457, -33.90945338]}, "properties": {"name": "101 NINTH AVENUE CAMPSIE 2194", "locID": "LOC000041605539", "tech": "HFC", "upgrade": "NULL_NA"}}, {"type": "Feature", "geometry": {"type": "Point", "coordinates": [151.0945662, -33.90567969]}, "properties": {"name": "101 SEVENTH AVENUE CAMPSIE 2194", "locID": "LOC000065272654", "tech": "HFC", "upgrade": "NULL_NA"}}, {"type": "Feature", "geometry": {"type": "Point", "coordinates": [151.10909648, -33.91546752]}, "properties": {"name": "101A DUKE STREET CAMPSIE 2194", "locID": "LOC000003149173", "tech": "FTTP", "upgrade": "NULL_NA"}}, {"type": "Feature", "geometry": {"type": "Point", "coordinates": [151.10369269, -33.9106432]}, "properties": {"name": "102 BEAMISH STREET CAMPSIE 2194", "locID": "LOC000186290066", "tech": "FTTB", "upgrade": "NULL_NA"}}, {"type": "Feature", "geometry": {"type": "Point", "coordinates": [151.09530448, -33.9124459]}, "properties": {"name": "102 CAMPSIE STREET CAMPSIE 2194", "locID": "LOC000103534606", "tech": "HFC", "upgrade": "NULL_NA"}}, {"type": "Feature", "geometry": {"type": "Point", "coordinates": [151.10463632, -33.90926061]}, "properties": {"name": "102 CLISSOLD PARADE CAMPSIE 2194", "locID": "LOC000095747975", "tech": "HFC", "upgrade": "NULL_NA"}}, {"type": "Feature", "geometry": {"type": "Point", "coordinates": [151.10830924, -33.91543446]}, "properties": {"name": "102 DUKE STREET CAMPSIE 2194", "locID": "LOC000070876188", "tech": "FTTP", "upgrade": "NULL_NA"}}, {"type": "Feature", "geometry": {"type": "Point", "coordinates": [151.10085524, -33.91467653]}, "properties": {"name": "102 EVALINE STREET CAMPSIE 2194", "locID": "LOC000103534606", "tech": "HFC", "upgrade": "NULL_NA"}}, {"type": "Feature", "geometry": {"type": "Point", "coordinates": [151.09731369, -33.9099102]}, "properties": {"name": "102 NINTH AVENUE CAMPSIE 2194", "locID": "LOC000115368008", "tech": "HFC", "upgrade": "NULL_NA"}}, {"type": "Feature", "geometry": {"type": "Point", "coordinates": [151.10666971, -33.90423398]}, "properties": {"name": "103 BRIGHTON AVENUE CAMPSIE 2194", "locID": "LOC000040221235", "tech": "HFC", "upgrade": "NULL_NA"}}, {"type": "Feature", "geometry": {"type": "Point", "coordinates": [151.0944598, -33.90570255]}, "properties": {"name": "103 SEVENTH AVENUE CAMPSIE 2194", "locID": "LOC000069084545", "tech": "HFC", "upgrade": "NULL_NA"}}, {"type": "Feature", "geometry": {"type": "Point", "coordinates": [151.09988803, -33.91435754]}, "properties": {"name": "103-105 EVALINE STREET CAMPSIE 2194", "locID": "LOC000042931089", "tech": "HFC", "upgrade": "NULL_NA"}}, {"type": "Feature", "geometry": {"type": "Point", "coordinates": [151.10917989, -33.91562201]}, "properties": {"name": "103-107 DUKE STREET CAMPSIE 2194", "locID": "LOC000066771835", "tech": "FTTP", "upgrade": "NULL_NA"}}, {"type": "Feature", "geometry": {"type": "Point", "coordinates": [151.10369269, -33.9106432]}, "properties": {"name": "104 BEAMISH STREET CAMPSIE 2194", "locID": "LOC000177366624", "tech": "FTTC", "upgrade": "NULL_NA"}}, {"type": "Feature", "geometry": {"type": "Point", "coordinates": [151.09490627, -33.91236456]}, "properties": {"name": "104 CAMPSIE STREET CAMPSIE 2194", "locID": "LOC000015604282", "tech": "HFC", "upgrade": "NULL_NA"}}, {"type": "Feature", "geometry": {"type": "Point", "coordinates": [151.10837098, -33.91555332]}, "properties": {"name": "104 DUKE STREET CAMPSIE 2194", "locID": "LOC000033643255", "tech": "FTTP", "upgrade": "NULL_NA"}}, {"type": "Feature", "geometry": {"type": "Point", "coordinates": [151.10075823, -33.9147159]}, "properties": {"name": "104 EVALINE STREET CAMPSIE 2194", "locID": "LOC000090665182", "tech": "HFC", "upgrade": "NULL_NA"}}, {"type": "Feature", "geometry": {"type": "Point", "coordinates": [151.09728306, -33.90989315]}, "properties": {"name": "104 NINTH AVENUE CAMPSIE 2194", "locID": "LOC000158351030", "tech": "HFC", "upgrade": "NULL_NA"}}, {"type": "Feature", "geometry": {"type": "Point", "coordinates": [151.10440364, -33.90932766]}, "properties": {"name": "104-106 CLISSOLD PARADE CAMPSIE 2194", "locID": "LOC000158344953", "tech": "HFC", "upgrade": "NULL_NA"}}, {"type": "Feature", "geometry": {"type": "Point", "coordinates": [151.09490627, -33.91236456]}, "properties": {"name": "104A CAMPSIE STREET CAMPSIE 2194", "locID": "LOC000020383799", "tech": "FTTB", "upgrade": "NULL_NA"}}, {"type": "Feature", "geometry": {"type": "Point", "coordinates": [151.10657463, -33.90431035]}, "properties": {"name": "105 BRIGHTON AVENUE CAMPSIE 2194", "locID": "LOC000048201077", "tech": "HFC", "upgrade": "NULL_NA"}}, {"type": "Feature", "geometry": {"type": "Point", "coordinates": [151.09435776, -33.90573389]}, "properties": {"name": "105 SEVENTH AVENUE CAMPSIE 2194", "locID": "LOC000096134609", "tech": "HFC", "upgrade": "NULL_NA"}}, {"type": "Feature", "geometry": {"type": "Point", "coordinates": [151.09704538, -33.91099525]}, "properties": {"name": "105-111 CAMPSIE STREET CAMPSIE 2194", "locID": "LOC000042067240", "tech": "HFC", "upgrade": "NULL_NA"}}, {"type": "Feature", "geometry": {"type": "Point", "coordinates": [151.1028592, -33.90768662]}, "properties": {"name": "106 BEAMISH STREET CAMPSIE 2194", "locID": "LOC000102181577", "tech": "FTTC", "upgrade": "FTTP_SA"}}, {"type": "Feature", "geometry": {"type": "Point", "coordinates": [151.09482003, -33.91247849]}, "properties": {"name": "106 CAMPSIE STREET CAMPSIE 2194", "locID": "LOC000028812648", "tech": "HFC", "upgrade": "NULL_NA"}}, {"type": "Feature", "geometry": {"type": "Point", "coordinates": [151.1006591, -33.91475297]}, "properties": {"name": "106 EVALINE STREET CAMPSIE 2194", "locID": "LOC000098753639", "tech": "HFC", "upgrade": "NULL_NA"}}, {"type": "Feature", "geometry": {"type": "Point", "coordinates": [151.09844933, -33.90934273]}, "properties": {"name": "106 NINTH AVENUE CAMPSIE 2194", "locID": "LOC000115368012", "tech": "HFC", "upgrade": "NULL_NA"}}, {"type": "Feature", "geometry": {"type": "Point", "coordinates": [151.10846311, -33.91571062]}, "properties": {"name": "106-108 DUKE STREET CAMPSIE 2194", "locID": "LOC000028688282", "tech": "FTTP", "upgrade": "NULL_NA"}}, {"type": "Feature", "geometry": {"type": "Point", "coordinates": [151.10648584, -33.90439461]}, "properties": {"name": "107 BRIGHTON AVENUE CAMPSIE 2194", "locID": "LOC000008083988", "tech": "HFC", "upgrade": "NULL_NA"}}, {"type": "Feature", "geometry": {"type": "Point", "coordinates": [151.10416055, -33.90884272]}, "properties": {"name": "107 CLISSOLD PARADE CAMPSIE 2194", "locID": "LOC000063956452", "tech": "HFC", "upgrade": "NULL_NA"}}, {"type": "Feature", "geometry": {"type": "Point", "coordinates": [151.09425402, -33.9057513]}, "properties": {"name": "107 SEVENTH AVENUE CAMPSIE 2194", "locID": "LOC000010063469", "tech": "HFC", "upgrade": "NULL_NA"}}, {"type": "Feature", "geometry": {"type": "Point", "coordinates": [151.09964559, -33.91445251]}, "properties": {"name": "107-111 EVALINE STREET CAMPSIE 2194", "locID": "LOC000075166537", "tech": "HFC", "upgrade": "NULL_NA"}}, {"type": "Feature", "geometry": {"type": "Point", "coordinates": [151.10288858, -33.90781946]}, "properties": {"name": "108 BEAMISH STREET CAMPSIE 2194", "locID": "LOC000031229137", "tech": "FTTC", "upgrade": "FTTP_SA"}}, {"type": "Feature", "geometry": {"type": "Point", "coordinates": [151.10697028, -33.90225397]}, "properties": {"name": "108 BRIGHTON AVENUE CAMPSIE 2194", "locID": "LOC000079815913", "tech": "HFC", "upgrade": "NULL_NA"}}, {"type": "Feature", "geometry": {"type": "Point", "coordinates": [151.09468843, -33.91253014]}, "properties": {"name": "108 CAMPSIE STREET CAMPSIE 2194", "locID": "LOC000029652778", "tech": "HFC", "upgrade": "NULL_NA"}}, {"type": "Feature", "geometry": {"type": "Point", "coordinates": [151.10418046, -33.90942062]}, "properties": {"name": "108 CLISSOLD PARADE CAMPSIE 2194", "locID": "LOC000097361874", "tech": "HFC", "upgrade": "NULL_NA"}}, {"type": "Feature", "geometry": {"type": "Point", "coordinates": [151.09717119, -33.90989896]}, "properties": {"name": "108 NINTH AVENUE CAMPSIE 2194", "locID": "LOC000064355013", "tech": "HFC", "upgrade": "NULL_NA"}}, {"type": "Feature", "geometry": {"type": "Point", "coordinates": [151.10051231, -33.9148092]}, "properties": {"name": "108-110 EVALINE STREET CAMPSIE 2194", "locID": "LOC000002994537", "tech": "HFC", "upgrade": "NULL_NA"}}, {"type": "Feature", "geometry": {"type": "Point", "coordinates": [151.10418046, -33.90942062]}, "properties": {"name": "108A CLISSOLD PARADE CAMPSIE 2194", "locID": "LOC000158345213", "tech": "HFC", "upgrade": "NULL_NA"}}, {"type": "Feature", "geometry": {"type": "Point", "coordinates": [151.10638768, -33.90445651]}, "properties": {"name": "109 BRIGHTON AVENUE CAMPSIE 2194", "locID": "LOC000074981163", "tech": "HFC", "upgrade": "NULL_NA"}}, {"type": "Feature", "geometry": {"type": "Point", "coordinates": [151.10409878, -33.90886602]}, "properties": {"name": "109 CLISSOLD PARADE CAMPSIE 2194", "locID": "LOC000015571471", "tech": "HFC", "upgrade": "NULL_NA"}}, {"type": "Feature", "geometry": {"type": "Point", "coordinates": [151.09415402, -33.90579527]}, "properties": {"name": "109 SEVENTH AVENUE CAMPSIE 2194", "locID": "LOC000031354470", "tech": "HFC", "upgrade": "NULL_NA"}}, {"type": "Feature", "geometry": {"type": "Point", "coordinates": [151.09464895, -33.91291083]}, "properties": {"name": "10A LINCOLN STREET CAMPSIE 2194", "locID": "LOC000042607506", "tech": "HFC", "upgrade": "NULL_NA"}}, {"type": "Feature", "geometry": {"type": "Point", "coordinates": [151.10337611, -33.91540298]}, "properties": {"name": "10A MARLOWE STREET CAMPSIE 2194", "locID": "LOC000158350621", "tech": "HFC", "upgrade": "NULL_NA"}}, {"type": "Feature", "geometry": {"type": "Point", "coordinates": [151.10841532, -33.91741693]}, "properties": {"name": "10A MESSITER STREET CAMPSIE 2194", "locID": "LOC000086565942", "tech": "FTTP", "upgrade": "NULL_NA"}}, {"type": "Feature", "geometry": {"type": "Point", "coordinates": [151.11246792, -33.90839001]}, "properties": {"name": "10A NOWRA STREET CAMPSIE 2194", "locID": "LOC000076780424", "tech": "FTTP", "upgrade": "NULL_NA"}}, {"type": "Feature", "geometry": {"type": "Point", "coordinates": [151.09472984, -33.91278639]}, "properties": {"name": "10B LINCOLN STREET CAMPSIE 2194", "locID": "LOC000042950724", "tech": "HFC", "upgrade": "NULL_NA"}}, {"type": "Feature", "geometry": {"type": "Point", "coordinates": [151.09501619, -33.91252007]}, "properties": {"name": "10C LINCOLN STREET CAMPSIE 2194", "locID": "LOC000112274999", "tech": "HFC", "upgrade": "NULL_NA"}}, {"type": "Feature", "geometry": {"type": "Point", "coordinates": [151.10918494, -33.90399092]}, "properties": {"name": "11 ADAM STREET CAMPSIE 2194", "locID": "LOC000002244068", "tech": "HFC", "upgrade": "NULL_NA"}}, {"type": "Feature", "geometry": {"type": "Point", "coordinates": [151.10309774, -33.912034]}, "properties": {"name": "11 AMY STREET CAMPSIE 2194", "locID": "LOC000158337095", "tech": "FTTC", "upgrade": "FTTP_SA"}}, {"type": "Feature", "geometry": {"type": "Point", "coordinates": [151.10314343, -33.91084777]}, "properties": {"name": "11 ANGLO ROAD CAMPSIE 2194", "locID": "LOC000158337497", "tech": "FTTC", "upgrade": "NULL_NA"}}, {"type": "Feature", "geometry": {"type": "Point", "coordinates": [151.10368732, -33.90326945]}, "properties": {"name": "11 BEAMISH STREET CAMPSIE 2194", "locID": "LOC000043713062", "tech": "HFC", "upgrade": "NULL_NA"}}, {"type": "Feature", "geometry": {"type": "Point", "coordinates": [151.10169883, -33.91685908]}, "properties": {"name": "11 BEAUMONT STREET CAMPSIE 2194", "locID": "LOC000087219116", "tech": "HFC", "upgrade": "NULL_NA"}}, {"type": "Feature", "geometry": {"type": "Point", "coordinates": [151.1121864, -33.90771594]}, "properties": {"name": "11 BELLOMBI STREET CAMPSIE 2194", "locID": "LOC000013303487", "tech": "FTTP", "upgrade": "NULL_NA"}}, {"type": "Feature", "geometry": {"type": "Point", "coordinates": [151.10466095, -33.90665603]}, "properties": {"name": "11 BROWNING STREET CAMPSIE 2194", "locID": "LOC000069108468", "tech": "HFC", "upgrade": "NULL_NA"}}, {"type": "Feature", "geometry": {"type": "Point", "coordinates": [151.10641506, -33.90544612]}, "properties": {"name": "11 BURNS STREET CAMPSIE 2194", "locID": "LOC000010079871", "tech": "HFC", "upgrade": "NULL_NA"}}, {"type": "Feature", "geometry": {"type": "Point", "coordinates": [151.10600287, -33.90276197]}, "properties": {"name": "11 BYRON STREET CAMPSIE 2194", "locID": "LOC000090470735", "tech": "HFC", "upgrade": "NULL_NA"}}, {"type": "Feature", "geometry": {"type": "Point", "coordinates": [151.09845718, -33.91079662]}, "properties": {"name": "11 CAMPSIE STREET CAMPSIE 2194", "locID": "LOC000042367500", "tech": "HFC", "upgrade": "NULL_NA"}}, {"type": "Feature", "geometry": {"type": "Point", "coordinates": [151.11074607, -33.90612825]}, "properties": {"name": "11 CLISSOLD PARADE CAMPSIE 2194", "locID": "LOC000108380289", "tech": "HFC", "upgrade": "NULL_NA"}}, {"type": "Feature", "geometry": {"type": "Point", "coordinates": [151.10779367, -33.90378861]}, "properties": {"name": "11 COWPER STREET CAMPSIE 2194", "locID": "LOC000010876536", "tech": "HFC", "upgrade": "NULL_NA"}}, {"type": "Feature", "geometry": {"type": "Point", "coordinates": [151.10670622, -33.92102883]}, "properties": {"name": "11 CROSS STREET CAMPSIE 2194", "locID": "LOC000040342971", "tech": "FTTP", "upgrade": "NULL_NA"}}, {"type": "Feature", "geometry": {"type": "Point", "coordinates": [151.10649139, -33.91088218]}, "properties": {"name": "11 DUKE STREET CAMPSIE 2194", "locID": "LOC000032289880", "tech": "FTTC", "upgrade": "NULL_NA"}}, {"type": "Feature", "geometry": {"type": "Point", "coordinates": [151.09903157, -33.92216276]}, "properties": {"name": "11 ELIZABETH STREET CAMPSIE 2194", "locID": "LOC000047354393", "tech": "HFC", "upgrade": "NULL_NA"}}, {"type": "Feature", "geometry": {"type": "Point", "coordinates": [151.09475072, -33.90743305]}, "properties": {"name": "11 FIRST AVENUE CAMPSIE 2194", "locID": "LOC000066622393", "tech": "HFC", "upgrade": "NULL_NA"}}, {"type": "Feature", "geometry": {"type": "Point", "coordinates": [151.09700793, -33.91754156]}, "properties": {"name": "11 FITZROY STREET CAMPSIE 2194", "locID": "LOC000009706115", "tech": "HFC", "upgrade": "NULL_NA"}}, {"type": "Feature", "geometry": {"type": "Point", "coordinates": [151.10170961, -33.91796005]}, "properties": {"name": "11 FLETCHER STREET CAMPSIE 2194", "locID": "LOC000004672031", "tech": "HFC", "upgrade": "NULL_NA"}}, {"type": "Feature", "geometry": {"type": "Point", "coordinates": [151.09973387, -33.90795763]}, "properties": {"name": "11 FOURTH AVENUE CAMPSIE 2194", "locID": "LOC000012394944", "tech": "HFC", "upgrade": "NULL_NA"}}, {"type": "Feature", "geometry": {"type": "Point", "coordinates": [151.11105209, -33.90705905]}, "properties": {"name": "11 FREDERICK STREET CAMPSIE 2194", "locID": "LOC000051354009", "tech": "HFC", "upgrade": "NULL_NA"}}, {"type": "Feature", "geometry": {"type": "Point", "coordinates": [151.11030595, -33.90588597]}, "properties": {"name": "11 GORDON STREET CAMPSIE 2194", "locID": "LOC000047579433", "tech": "HFC", "upgrade": "NULL_NA"}}, {"type": "Feature", "geometry": {"type": "Point", "coordinates": [151.10846377, -33.91117042]}, "properties": {"name": "11 GOULD STREET CAMPSIE 2194", "locID": "LOC000053357938", "tech": "FTTP", "upgrade": "NULL_NA"}}, {"type": "Feature", "geometry": {"type": "Point", "coordinates": [151.09841741, -33.92306377]}, "properties": {"name": "11 HARP STREET CAMPSIE 2194", "locID": "LOC000164367804", "tech": "FTTP", "upgrade": "NULL_NA"}}, {"type": "Feature", "geometry": {"type": "Point", "coordinates": [151.10608614, -33.91321706]}, "properties": {"name": "11 HILL STREET CAMPSIE 2194", "locID": "LOC000065058513", "tech": "FTTP", "upgrade": "NULL_NA"}}, {"type": "Feature", "geometry": {"type": "Point", "coordinates": [151.09518608, -33.91193657]}, "properties": {"name": "11 LINCOLN STREET CAMPSIE 2194", "locID": "LOC000017333482", "tech": "HFC", "upgrade": "NULL_NA"}}, {"type": "Feature", "geometry": {"type": "Point", "coordinates": [151.10972768, -33.9049092]}, "properties": {"name": "11 LINDSAY STREET CAMPSIE 2194", "locID": "LOC000107470533", "tech": "HFC", "upgrade": "NULL_NA"}}, {"type": "Feature", "geometry": {"type": "Point", "coordinates": [151.09685333, -33.91208618]}, "properties": {"name": "11 LOCH STREET CAMPSIE 2194", "locID": "LOC000042380310", "tech": "HFC", "upgrade": "NULL_NA"}}, {"type": "Feature", "geometry": {"type": "Point", "coordinates": [151.0958053, -33.91261873]}, "properties": {"name": "11 LOFTUS STREET CAMPSIE 2194", "locID": "LOC000005531789", "tech": "HFC", "upgrade": "NULL_NA"}}, {"type": "Feature", "geometry": {"type": "Point", "coordinates": [151.1026497, -33.91542643]}, "properties": {"name": "11 MARLOWE STREET CAMPSIE 2194", "locID": "LOC000099278838", "tech": "HFC", "upgrade": "NULL_NA"}}, {"type": "Feature", "geometry": {"type": "Point", "coordinates": [151.09741051, -33.9182798]}, "properties": {"name": "11 MCKENZIE STREET CAMPSIE 2194", "locID": "LOC000020588936", "tech": "HFC", "upgrade": "NULL_NA"}}, {"type": "Feature", "geometry": {"type": "Point", "coordinates": [151.10157536, -33.91590512]}, "properties": {"name": "11 MCKERN STREET CAMPSIE 2194", "locID": "LOC000064983378", "tech": "HFC", "upgrade": "NULL_NA"}}, {"type": "Feature", "geometry": {"type": "Point", "coordinates": [151.10780494, -33.91763468]}, "properties": {"name": "11 MESSITER STREET CAMPSIE 2194", "locID": "LOC000075696357", "tech": "FTTP", "upgrade": "NULL_NA"}}, {"type": "Feature", "geometry": {"type": "Point", "coordinates": [151.10728301, -33.90484952]}, "properties": {"name": "11 MOORE STREET CAMPSIE 2194", "locID": "LOC000059421598", "tech": "HFC", "upgrade": "NULL_NA"}}, {"type": "Feature", "geometry": {"type": "Point", "coordinates": [151.10431584, -33.91938849]}, "properties": {"name": "11 NICHOLAS AVENUE CAMPSIE 2194", "locID": "LOC000086002275", "tech": "HFC", "upgrade": "NULL_NA"}}, {"type": "Feature", "geometry": {"type": "Point", "coordinates": [151.11308386, -33.90813908]}, "properties": {"name": "11 NOWRA STREET CAMPSIE 2194", "locID": "LOC000094048434", "tech": "FTTP", "upgrade": "NULL_NA"}}, {"type": "Feature", "geometry": {"type": "Point", "coordinates": [151.10961145, -33.91105826]}, "properties": {"name": "11 OSWALD STREET CAMPSIE 2194", "locID": "LOC000097929642", "tech": "FTTP", "upgrade": "NULL_NA"}}, {"type": "Feature", "geometry": {"type": "Point", "coordinates": [151.09646924, -33.91686594]}, "properties": {"name": "11 PALMER STREET CAMPSIE 2194", "locID": "LOC000072384590", "tech": "HFC", "upgrade": "NULL_NA"}}, {"type": "Feature", "geometry": {"type": "Point", "coordinates": [151.10726549, -33.91133941]}, "properties": {"name": "11 PARK STREET CAMPSIE 2194", "locID": "LOC000045185034", "tech": "FTTC", "upgrade": "NULL_NA"}}, {"type": "Feature", "geometry": {"type": "Point", "coordinates": [151.10724059, -33.91556495]}, "properties": {"name": "11 PERRY STREET CAMPSIE 2194", "locID": "LOC000046600547", "tech": "FTTP", "upgrade": "NULL_NA"}}, {"type": "Feature", "geometry": {"type": "Point", "coordinates": [151.10679762, -33.9180385]}, "properties": {"name": "11 ROBERTSON STREET CAMPSIE 2194", "locID": "LOC000067493716", "tech": "FTTP", "upgrade": "NULL_NA"}}, {"type": "Feature", "geometry": {"type": "Point", "coordinates": [151.10600894, -33.91881862]}, "properties": {"name": "11 SCAHILL STREET CAMPSIE 2194", "locID": "LOC000007256897", "tech": "FTTP", "upgrade": "NULL_NA"}}, {"type": "Feature", "geometry": {"type": "Point", "coordinates": [151.09679706, -33.9084872]}, "properties": {"name": "11 SECOND AVENUE CAMPSIE 2194", "locID": "LOC100080794387", "tech": "HFC", "upgrade": "NULL_NA"}}, {"type": "Feature", "geometry": {"type": "Point", "coordinates": [151.10187843, -33.90398019]}, "properties": {"name": "11 SEVENTH AVENUE CAMPSIE 2194", "locID": "LOC000084702484", "tech": "HFC", "upgrade": "NULL_NA"}}, {"type": "Feature", "geometry": {"type": "Point", "coordinates": [151.10374286, -33.90472182]}, "properties": {"name": "11 SHELLEY STREET CAMPSIE 2194", "locID": "LOC000009713686", "tech": "HFC", "upgrade": "NULL_NA"}}, {"type": "Feature", "geometry": {"type": "Point", "coordinates": [151.10507292, -33.91641727]}, "properties": {"name": "11 STANLEY STREET CAMPSIE 2194", "locID": "LOC000005433451", "tech": "FTTP", "upgrade": "NULL_NA"}}, {"type": "Feature", "geometry": {"type": "Point", "coordinates": [151.1041963, -33.90361165]}, "properties": {"name": "11 TENNYSON STREET CAMPSIE 2194", "locID": "LOC000100195953", "tech": "HFC", "upgrade": "NULL_NA"}}, {"type": "Feature", "geometry": {"type": "Point", "coordinates": [151.09746179, -33.91698675]}, "properties": {"name": "11 THORNCRAFT PARADE CAMPSIE 2194", "locID": "LOC000071213074", "tech": "HFC", "upgrade": "NULL_NA"}}, {"type": "Feature", "geometry": {"type": "Point", "coordinates": [151.10098632, -33.92106226]}, "properties": {"name": "11 TROY STREET CAMPSIE 2194", "locID": "LOC000077227188", "tech": "HFC", "upgrade": "NULL_NA"}}, {"type": "Feature", "geometry": {"type": "Point", "coordinates": [151.10654582, -33.91446731]}, "properties": {"name": "11 UNARA STREET CAMPSIE 2194", "locID": "LOC000066686198", "tech": "FTTP", "upgrade": "NULL_NA"}}, {"type": "Feature", "geometry": {"type": "Point", "coordinates": [151.10354608, -33.91939181]}, "properties": {"name": "11 VICLIFFE AVENUE CAMPSIE 2194", "locID": "LOC000070667363", "tech": "HFC", "upgrade": "NULL_NA"}}, {"type": "Feature", "geometry": {"type": "Point", "coordinates": [151.10266286, -33.92003399]}, "properties": {"name": "11 VIKING STREET CAMPSIE 2194", "locID": "LOC000040038384", "tech": "HFC", "upgrade": "NULL_NA"}}, {"type": "Feature", "geometry": {"type": "Point", "coordinates": [151.10194895, -33.9206686]}, "properties": {"name": "11 WADE STREET CAMPSIE 2194", "locID": "LOC000052623126", "tech": "HFC", "upgrade": "NULL_NA"}}, {"type": "Feature", "geometry": {"type": "Point", "coordinates": [151.10882854, -33.90894534]}, "properties": {"name": "11-12 NORTH PARADE CAMPSIE 2194", "locID": "LOC000120253083", "tech": "FTTN", "upgrade": "NULL_NA"}}, {"type": "Feature", "geometry": {"type": "Point", "coordinates": [151.10561934, -33.90620613]}, "properties": {"name": "11-13 DRYDEN STREET CAMPSIE 2194", "locID": "LOC000005475842", "tech": "HFC", "upgrade": "NULL_NA"}}, {"type": "Feature", "geometry": {"type": "Point", "coordinates": [151.1019966, -33.90602142]}, "properties": {"name": "11-13 EIGHTH AVENUE CAMPSIE 2194", "locID": "LOC000088253659", "tech": "FTTC", "upgrade": "NULL_NA"}}, {"type": "Feature", "geometry": {"type": "Point", "coordinates": [151.10264095, -33.90803987]}, "properties": {"name": "11-13 NINTH AVENUE CAMPSIE 2194", "locID": "LOC000042549886", "tech": "HFC", "upgrade": "NULL_NA"}}, {"type": "Feature", "geometry": {"type": "Point", "coordinates": [151.10290592, -33.90790452]}, "properties": {"name": "110 BEAMISH STREET CAMPSIE 2194", "locID": "LOC000044046287", "tech": "FTTB", "upgrade": "NULL_NA"}}, {"type": "Feature", "geometry": {"type": "Point", "coordinates": [151.10688377, -33.90236066]}, "properties": {"name": "110 BRIGHTON AVENUE CAMPSIE 2194", "locID": "LOC000009715013", "tech": "HFC", "upgrade": "NULL_NA"}}, {"type": "Feature", "geometry": {"type": "Point", "coordinates": [151.09455748, -33.91258568]}, "properties": {"name": "110 CAMPSIE STREET CAMPSIE 2194", "locID": "LOC000002275056", "tech": "HFC", "upgrade": "NULL_NA"}}, {"type": "Feature", "geometry": {"type": "Point", "coordinates": [151.10378907, -33.90946186]}, "properties": {"name": "110 CLISSOLD PARADE CAMPSIE 2194", "locID": "LOC000158345221", "tech": "HFC", "upgrade": "NULL_NA"}}, {"type": "Feature", "geometry": {"type": "Point", "coordinates": [151.10864731, -33.91580249]}, "properties": {"name": "110 DUKE STREET CAMPSIE 2194", "locID": "LOC000035977035", "tech": "FTTP", "upgrade": "NULL_NA"}}, {"type": "Feature", "geometry": {"type": "Point", "coordinates": [151.09706474, -33.90992566]}, "properties": {"name": "110 NINTH AVENUE CAMPSIE 2194", "locID": "LOC000093677211", "tech": "HFC", "upgrade": "NULL_NA"}}, {"type": "Feature", "geometry": {"type": "Point", "coordinates": [151.10613151, -33.90467044]}, "properties": {"name": "111 BRIGHTON AVENUE CAMPSIE 2194", "locID": "LOC000065255351", "tech": "HFC", "upgrade": "NULL_NA"}}, {"type": "Feature", "geometry": {"type": "Point", "coordinates": [151.09404496, -33.90579961]}, "properties": {"name": "111 SEVENTH AVENUE CAMPSIE 2194", "locID": "LOC000011418263", "tech": "HFC", "upgrade": "NULL_NA"}}, {"type": "Feature", "geometry": {"type": "Point", "coordinates": [151.10700277, -33.9024748]}, "properties": {"name": "112 BRIGHTON AVENUE CAMPSIE 2194", "locID": "LOC000096779089", "tech": "HFC", "upgrade": "NULL_NA"}}, {"type": "Feature", "geometry": {"type": "Point", "coordinates": [151.09442437, -33.91263352]}, "properties": {"name": "112 CAMPSIE STREET CAMPSIE 2194", "locID": "LOC000018020168", "tech": "HFC", "upgrade": "NULL_NA"}}, {"type": "Feature", "geometry": {"type": "Point", "coordinates": [151.10870128, -33.91589623]}, "properties": {"name": "112 DUKE STREET CAMPSIE 2194", "locID": "LOC000012253091", "tech": "FTTP", "upgrade": "NULL_NA"}}, {"type": "Feature", "geometry": {"type": "Point", "coordinates": [151.1003579, -33.91487654]}, "properties": {"name": "112 EVALINE STREET CAMPSIE 2194", "locID": "LOC000043012461", "tech": "HFC", "upgrade": "NULL_NA"}}, {"type": "Feature", "geometry": {"type": "Point", "coordinates": [151.09697634, -33.90996668]}, "properties": {"name": "112 NINTH AVENUE CAMPSIE 2194", "locID": "LOC000005502031", "tech": "HFC", "upgrade": "NULL_NA"}}, {"type": "Feature", "geometry": {"type": "Point", "coordinates": [151.10604138, -33.90474589]}, "properties": {"name": "113 BRIGHTON AVENUE CAMPSIE 2194", "locID": "LOC000029152398", "tech": "HFC", "upgrade": "NULL_NA"}}, {"type": "Feature", "geometry": {"type": "Point", "coordinates": [151.09655268, -33.9111934]}, "properties": {"name": "113 CAMPSIE STREET CAMPSIE 2194", "locID": "LOC000029858252", "tech": "HFC", "upgrade": "NULL_NA"}}, {"type": "Feature", "geometry": {"type": "Point", "coordinates": [151.10391547, -33.90893929]}, "properties": {"name": "113 CLISSOLD PARADE CAMPSIE 2194", "locID": "LOC000102006642", "tech": "HFC", "upgrade": "NULL_NA"}}, {"type": "Feature", "geometry": {"type": "Point", "coordinates": [151.09941556, -33.91455282]}, "properties": {"name": "113 EVALINE STREET CAMPSIE 2194", "locID": "LOC000073536519", "tech": "HFC", "upgrade": "NULL_NA"}}, {"type": "Feature", "geometry": {"type": "Point", "coordinates": [151.10369269, -33.9106432]}, "properties": {"name": "114 BEAMISH STREET CAMPSIE 2194", "locID": "LOC000158339392", "tech": "FTTB", "upgrade": "NULL_NA"}}, {"type": "Feature", "geometry": {"type": "Point", "coordinates": [151.10699489, -33.90258692]}, "properties": {"name": "114 BRIGHTON AVENUE CAMPSIE 2194", "locID": "LOC000037180812", "tech": "HFC", "upgrade": "NULL_NA"}}, {"type": "Feature", "geometry": {"type": "Point", "coordinates": [151.09429395, -33.91268791]}, "properties": {"name": "114 CAMPSIE STREET CAMPSIE 2194", "locID": "LOC000036200778", "tech": "HFC", "upgrade": "NULL_NA"}}, {"type": "Feature", "geometry": {"type": "Point", "coordinates": [151.1002384, -33.91492328]}, "properties": {"name": "114 EVALINE STREET CAMPSIE 2194", "locID": "LOC000097271045", "tech": "HFC", "upgrade": "NULL_NA"}}, {"type": "Feature", "geometry": {"type": "Point", "coordinates": [151.09689355, -33.90997726]}, "properties": {"name": "114 NINTH AVENUE CAMPSIE 2194", "locID": "LOC000044370750", "tech": "HFC", "upgrade": "NULL_NA"}}, {"type": "Feature", "geometry": {"type": "Point", "coordinates": [151.1059514, -33.90481701]}, "properties": {"name": "115 BRIGHTON AVENUE CAMPSIE 2194", "locID": "LOC000004620205", "tech": "HFC", "upgrade": "NULL_NA"}}, {"type": "Feature", "geometry": {"type": "Point", "coordinates": [151.09641342, -33.91124559]}, "properties": {"name": "115 CAMPSIE STREET CAMPSIE 2194", "locID": "LOC000188029636", "tech": "FTTP", "upgrade": "NULL_NA"}}, {"type": "Feature", "geometry": {"type": "Point", "coordinates": [151.10379191, -33.90898334]}, "properties": {"name": "115 CLISSOLD PARADE CAMPSIE 2194", "locID": "LOC000120253134", "tech": "HFC", "upgrade": "NULL_NA"}}, {"type": "Feature", "geometry": {"type": "Point", "coordinates": [151.09922935, -33.91460958]}, "properties": {"name": "115 EVALINE STREET CAMPSIE 2194", "locID": "LOC000054082680", "tech": "HFC", "upgrade": "NULL_NA"}}, {"type": "Feature", "geometry": {"type": "Point", "coordinates": [151.10369269, -33.9106432]}, "properties": {"name": "116 BEAMISH STREET CAMPSIE 2194", "locID": "LOC000161218509", "tech": "FTTB", "upgrade": "NULL_NA"}}, {"type": "Feature", "geometry": {"type": "Point", "coordinates": [151.10698739, -33.90269754]}, "properties": {"name": "116 BRIGHTON AVENUE CAMPSIE 2194", "locID": "LOC000005508497", "tech": "HFC", "upgrade": "NULL_NA"}}, {"type": "Feature", "geometry": {"type": "Point", "coordinates": [151.09414259, -33.91266994]}, "properties": {"name": "116 CAMPSIE STREET CAMPSIE 2194", "locID": "LOC000042830487", "tech": "HFC", "upgrade": "NULL_NA"}}, {"type": "Feature", "geometry": {"type": "Point", "coordinates": [151.10009938, -33.91497371]}, "properties": {"name": "116 EVALINE STREET CAMPSIE 2194", "locID": "LOC000061190596", "tech": "HFC", "upgrade": "NULL_NA"}}, {"type": "Feature", "geometry": {"type": "Point", "coordinates": [151.1058589, -33.90488976]}, "properties": {"name": "117 BRIGHTON AVENUE CAMPSIE 2194", "locID": "LOC000077503854", "tech": "HFC", "upgrade": "NULL_NA"}}, {"type": "Feature", "geometry": {"type": "Point", "coordinates": [151.0962952, -33.91129769]}, "properties": {"name": "117 CAMPSIE STREET CAMPSIE 2194", "locID": "LOC000065387059", "tech": "HFC", "upgrade": "NULL_NA"}}, {"type": "Feature", "geometry": {"type": "Point", "coordinates": [151.09908279, -33.91467444]}, "properties": {"name": "117 EVALINE STREET CAMPSIE 2194", "locID": "LOC000075752281", "tech": "HFC", "upgrade": "NULL_NA"}}, {"type": "Feature", "geometry": {"type": "Point", "coordinates": [151.10293324, -33.90807289]}, "properties": {"name": "118 BEAMISH STREET CAMPSIE 2194", "locID": "LOC000161218521", "tech": "FTTB", "upgrade": "NULL_NA"}}, {"type": "Feature", "geometry": {"type": "Point", "coordinates": [151.10697951, -33.90280963]}, "properties": {"name": "118 BRIGHTON AVENUE CAMPSIE 2194", "locID": "LOC000039797607", "tech": "HFC", "upgrade": "NULL_NA"}}, {"type": "Feature", "geometry": {"type": "Point", "coordinates": [151.09402942, -33.91274393]}, "properties": {"name": "118 CAMPSIE STREET CAMPSIE 2194", "locID": "LOC000104321437", "tech": "HFC", "upgrade": "NULL_NA"}}, {"type": "Feature", "geometry": {"type": "Point", "coordinates": [151.09992885, -33.91504485]}, "properties": {"name": "118 EVALINE STREET CAMPSIE 2194", "locID": "LOC000013759677", "tech": "HFC", "upgrade": "NULL_NA"}}, {"type": "Feature", "geometry": {"type": "Point", "coordinates": [151.09616225, -33.91017185]}, "properties": {"name": "118 NINTH AVENUE CAMPSIE 2194", "locID": "LOC000045495939", "tech": "HFC", "upgrade": "NULL_NA"}}, {"type": "Feature", "geometry": {"type": "Point", "coordinates": [151.10580024, -33.9050371]}, "properties": {"name": "119 BRIGHTON AVENUE CAMPSIE 2194", "locID": "LOC000059227770", "tech": "HFC", "upgrade": "NULL_NA"}}, {"type": "Feature", "geometry": {"type": "Point", "coordinates": [151.09617931, -33.91134753]}, "properties": {"name": "119 CAMPSIE STREET CAMPSIE 2194", "locID": "LOC000017253828", "tech": "HFC", "upgrade": "NULL_NA"}}, {"type": "Feature", "geometry": {"type": "Point", "coordinates": [151.09897052, -33.91471673]}, "properties": {"name": "119 EVALINE STREET CAMPSIE 2194", "locID": "LOC000078368863", "tech": "HFC", "upgrade": "NULL_NA"}}, {"type": "Feature", "geometry": {"type": "Point", "coordinates": [151.09899078, -33.92293243]}, "properties": {"name": "11A ELIZABETH STREET CAMPSIE 2194", "locID": "LOC000047813216", "tech": "HFC", "upgrade": "NULL_NA"}}, {"type": "Feature", "geometry": {"type": "Point", "coordinates": [151.09472143, -33.90734473]}, "properties": {"name": "11A FIRST AVENUE CAMPSIE 2194", "locID": "LOC000066301255", "tech": "HFC", "upgrade": "NULL_NA"}}, {"type": "Feature", "geometry": {"type": "Point", "coordinates": [151.10162189, -33.91799422]}, "properties": {"name": "11A FLETCHER STREET CAMPSIE 2194", "locID": "LOC000005036757", "tech": "HFC", "upgrade": "NULL_NA"}}, {"type": "Feature", "geometry": {"type": "Point", "coordinates": [151.09973565, -33.92445263]}, "properties": {"name": "11A HARP STREET CAMPSIE 2194", "locID": "LOC000008851984", "tech": "HFC", "upgrade": "NULL_NA"}}, {"type": "Feature", "geometry": {"type": "Point", "coordinates": [151.09514237, -33.91185292]}, "properties": {"name": "11A LINCOLN STREET CAMPSIE 2194", "locID": "LOC000017232519", "tech": "HFC", "upgrade": "NULL_NA"}}, {"type": "Feature", "geometry": {"type": "Point", "coordinates": [151.10716653, -33.91559321]}, "properties": {"name": "11A PERRY STREET CAMPSIE 2194", "locID": "LOC000046684157", "tech": "FTTP", "upgrade": "NULL_NA"}}, {"type": "Feature", "geometry": {"type": "Point", "coordinates": [151.10105692, -33.92118475]}, "properties": {"name": "11A TROY STREET CAMPSIE 2194", "locID": "LOC000077317328", "tech": "HFC", "upgrade": "NULL_NA"}}, {"type": "Feature", "geometry": {"type": "Point", "coordinates": [151.09471207, -33.90764107]}, "properties": {"name": "11B FIRST AVENUE CAMPSIE 2194", "locID": "LOC000066736577", "tech": "HFC", "upgrade": "NULL_NA"}}, {"type": "Feature", "geometry": {"type": "Point", "coordinates": [151.09945528, -33.92420435]}, "properties": {"name": "11B HARP STREET CAMPSIE 2194", "locID": "LOC000008979226", "tech": "HFC", "upgrade": "NULL_NA"}}, {"type": "Feature", "geometry": {"type": "Point", "coordinates": [151.09468052, -33.90754715]}, "properties": {"name": "11C FIRST AVENUE CAMPSIE 2194", "locID": "LOC000066802679", "tech": "HFC", "upgrade": "NULL_NA"}}, {"type": "Feature", "geometry": {"type": "Point", "coordinates": [151.10887588, -33.90345526]}, "properties": {"name": "12 ADAM STREET CAMPSIE 2194", "locID": "LOC000007331581", "tech": "HFC", "upgrade": "NULL_NA"}}, {"type": "Feature", "geometry": {"type": "Point", "coordinates": [151.09307843, -33.91238187]}, "properties": {"name": "12 ALMA AVENUE CAMPSIE 2194", "locID": "LOC000087838429", "tech": "HFC", "upgrade": "NULL_NA"}}, {"type": "Feature", "geometry": {"type": "Point", "coordinates": [151.11159797, -33.90860684]}, "properties": {"name": "12 BELLOMBI STREET CAMPSIE 2194", "locID": "LOC000003203784", "tech": "FTTP", "upgrade": "NULL_NA"}}, {"type": "Feature", "geometry": {"type": "Point", "coordinates": [151.10562691, -33.91902851]}, "properties": {"name": "12 BEXLEY ROAD CAMPSIE 2194", "locID": "LOC000099145840", "tech": "FTTP", "upgrade": "NULL_NA"}}, {"type": "Feature", "geometry": {"type": "Point", "coordinates": [151.10527329, -33.90646752]}, "properties": {"name": "12 BROWNING STREET CAMPSIE 2194", "locID": "LOC000046362927", "tech": "HFC", "upgrade": "NULL_NA"}}, {"type": "Feature", "geometry": {"type": "Point", "coordinates": [151.10694121, -33.90511026]}, "properties": {"name": "12 BURNS STREET CAMPSIE 2194", "locID": "LOC000054505751", "tech": "HFC", "upgrade": "NULL_NA"}}, {"type": "Feature", "geometry": {"type": "Point", "coordinates": [151.10541997, -33.90329935]}, "properties": {"name": "12 BYRON STREET CAMPSIE 2194", "locID": "LOC000002170881", "tech": "HFC", "upgrade": "NULL_NA"}}, {"type": "Feature", "geometry": {"type": "Point", "coordinates": [151.10280862, -33.90926779]}, "properties": {"name": "12 CAMPSIE STREET CAMPSIE 2194", "locID": "LOC000084989133", "tech": "HFC", "upgrade": "NULL_NA"}}, {"type": "Feature", "geometry": {"type": "Point", "coordinates": [151.10211815, -33.91526383]}, "properties": {"name": "12 CLAREMONT STREET CAMPSIE 2194", "locID": "LOC000021411136", "tech": "HFC", "upgrade": "NULL_NA"}}, {"type": "Feature", "geometry": {"type": "Point", "coordinates": [151.11096479, -33.90666512]}, "properties": {"name": "12 CLISSOLD PARADE CAMPSIE 2194", "locID": "LOC000092925979", "tech": "HFC", "upgrade": "NULL_NA"}}, {"type": "Feature", "geometry": {"type": "Point", "coordinates": [151.10963806, -33.92046544]}, "properties": {"name": "12 CROSS STREET CAMPSIE 2194", "locID": "LOC000098892004", "tech": "FTTC", "upgrade": "FTTP_SA"}}, {"type": "Feature", "geometry": {"type": "Point", "coordinates": [151.10613189, -33.90580928]}, "properties": {"name": "12 DRYDEN STREET CAMPSIE 2194", "locID": "LOC000086713743", "tech": "HFC", "upgrade": "NULL_NA"}}, {"type": "Feature", "geometry": {"type": "Point", "coordinates": [151.10584674, -33.91126118]}, "properties": {"name": "12 DUKE STREET CAMPSIE 2194", "locID": "LOC000002989418", "tech": "FTTP", "upgrade": "NULL_NA"}}, {"type": "Feature", "geometry": {"type": "Point", "coordinates": [151.0996845, -33.92156772]}, "properties": {"name": "12 ELIZABETH STREET CAMPSIE 2194", "locID": "LOC000101619365", "tech": "HFC", "upgrade": "NULL_NA"}}, {"type": "Feature", "geometry": {"type": "Point", "coordinates": [151.10616393, -33.91257422]}, "properties": {"name": "12 EVALINE STREET CAMPSIE 2194", "locID": "LOC000085250779", "tech": "FTTP", "upgrade": "NULL_NA"}}, {"type": "Feature", "geometry": {"type": "Point", "coordinates": [151.09724797, -33.91799722]}, "properties": {"name": "12 FITZROY STREET CAMPSIE 2194", "locID": "LOC000081639267", "tech": "HFC", "upgrade": "NULL_NA"}}, {"type": "Feature", "geometry": {"type": "Point", "coordinates": [151.10301313, -33.91806001]}, "properties": {"name": "12 FLETCHER STREET CAMPSIE 2194", "locID": "LOC000003042599", "tech": "HFC", "upgrade": "NULL_NA"}}, {"type": "Feature", "geometry": {"type": "Point", "coordinates": [151.09889264, -33.9079778]}, "properties": {"name": "12 FOURTH AVENUE CAMPSIE 2194", "locID": "LOC000098999614", "tech": "HFC", "upgrade": "NULL_NA"}}, {"type": "Feature", "geometry": {"type": "Point", "coordinates": [151.11174533, -33.90742095]}, "properties": {"name": "12 FREDERICK STREET CAMPSIE 2194", "locID": "LOC000035731278", "tech": "HFC", "upgrade": "NULL_NA"}}, {"type": "Feature", "geometry": {"type": "Point", "coordinates": [151.10997234, -33.90532139]}, "properties": {"name": "12 GORDON STREET CAMPSIE 2194", "locID": "LOC000037394469", "tech": "HFC", "upgrade": "NULL_NA"}}, {"type": "Feature", "geometry": {"type": "Point", "coordinates": [151.1092198, -33.9112109]}, "properties": {"name": "12 GOULD STREET CAMPSIE 2194", "locID": "LOC000038687733", "tech": "FTTP", "upgrade": "NULL_NA"}}, {"type": "Feature", "geometry": {"type": "Point", "coordinates": [151.10547023, -33.91142623]}, "properties": {"name": "12 HAROLD STREET CAMPSIE 2194", "locID": "LOC000158348419", "tech": "FTTB", "upgrade": "NULL_NA"}}, {"type": "Feature", "geometry": {"type": "Point", "coordinates": [151.1061813, -33.91400709]}, "properties": {"name": "12 HILL STREET CAMPSIE 2194", "locID": "LOC000095847022", "tech": "FTTP", "upgrade": "NULL_NA"}}, {"type": "Feature", "geometry": {"type": "Point", "coordinates": [151.09442664, -33.91173629]}, "properties": {"name": "12 LINCOLN STREET CAMPSIE 2194", "locID": "LOC000010945678", "tech": "HFC", "upgrade": "NULL_NA"}}, {"type": "Feature", "geometry": {"type": "Point", "coordinates": [151.10940358, -33.90436475]}, "properties": {"name": "12 LINDSAY STREET CAMPSIE 2194", "locID": "LOC000054935965", "tech": "HFC", "upgrade": "NULL_NA"}}, {"type": "Feature", "geometry": {"type": "Point", "coordinates": [151.09679003, -33.91045086]}, "properties": {"name": "12 LOCH STREET CAMPSIE 2194", "locID": "LOC000092613590", "tech": "HFC", "upgrade": "NULL_NA"}}, {"type": "Feature", "geometry": {"type": "Point", "coordinates": [151.09663689, -33.91276085]}, "properties": {"name": "12 LOFTUS STREET CAMPSIE 2194", "locID": "LOC000100013215", "tech": "HFC", "upgrade": "NULL_NA"}}, {"type": "Feature", "geometry": {"type": "Point", "coordinates": [151.10338125, -33.91553967]}, "properties": {"name": "12 MARLOWE STREET CAMPSIE 2194", "locID": "LOC000062067747", "tech": "HFC", "upgrade": "NULL_NA"}}, {"type": "Feature", "geometry": {"type": "Point", "coordinates": [151.10186111, -33.91640382]}, "properties": {"name": "12 MCKERN STREET CAMPSIE 2194", "locID": "LOC000094715745", "tech": "HFC", "upgrade": "NULL_NA"}}, {"type": "Feature", "geometry": {"type": "Point", "coordinates": [151.10845182, -33.91747658]}, "properties": {"name": "12 MESSITER STREET CAMPSIE 2194", "locID": "LOC000078800013", "tech": "FTTP", "upgrade": "NULL_NA"}}, {"type": "Feature", "geometry": {"type": "Point", "coordinates": [151.10761798, -33.90421176]}, "properties": {"name": "12 MOORE STREET CAMPSIE 2194", "locID": "LOC000087314371", "tech": "HFC", "upgrade": "NULL_NA"}}, {"type": "Feature", "geometry": {"type": "Point", "coordinates": [151.10490675, -33.91911525]}, "properties": {"name": "12 NICHOLAS AVENUE CAMPSIE 2194", "locID": "LOC000042916785", "tech": "HFC", "upgrade": "NULL_NA"}}, {"type": "Feature", "geometry": {"type": "Point", "coordinates": [151.11243047, -33.90832918]}, "properties": {"name": "12 NOWRA STREET CAMPSIE 2194", "locID": "LOC000032065865", "tech": "FTTP", "upgrade": "NULL_NA"}}, {"type": "Feature", "geometry": {"type": "Point", "coordinates": [151.11022135, -33.91082127]}, "properties": {"name": "12 OSWALD STREET CAMPSIE 2194", "locID": "LOC000026334717", "tech": "FTTP", "upgrade": "NULL_NA"}}, {"type": "Feature", "geometry": {"type": "Point", "coordinates": [151.10790242, -33.91109226]}, "properties": {"name": "12 PARK STREET CAMPSIE 2194", "locID": "LOC000104903669", "tech": "FTTP", "upgrade": "NULL_NA"}}, {"type": "Feature", "geometry": {"type": "Point", "coordinates": [151.10732507, -33.91625106]}, "properties": {"name": "12 PERRY STREET CAMPSIE 2194", "locID": "LOC000001524397", "tech": "FTTP", "upgrade": "NULL_NA"}}, {"type": "Feature", "geometry": {"type": "Point", "coordinates": [151.10740211, -33.91779823]}, "properties": {"name": "12 ROBERTSON STREET CAMPSIE 2194", "locID": "LOC000044422682", "tech": "FTTP", "upgrade": "NULL_NA"}}, {"type": "Feature", "geometry": {"type": "Point", "coordinates": [151.1066512, -33.91865187]}, "properties": {"name": "12 SCAHILL STREET CAMPSIE 2194", "locID": "LOC000107428869", "tech": "FTTP", "upgrade": "NULL_NA"}}, {"type": "Feature", "geometry": {"type": "Point", "coordinates": [151.0955468, -33.90829862]}, "properties": {"name": "12 SECOND AVENUE CAMPSIE 2194", "locID": "LOC000158353046", "tech": "HFC", "upgrade": "NULL_NA"}}, {"type": "Feature", "geometry": {"type": "Point", "coordinates": [151.10440614, -33.9071314]}, "properties": {"name": "12 SHAKESPEARE STREET CAMPSIE 2194", "locID": "LOC000005976559", "tech": "HFC", "upgrade": "NULL_NA"}}, {"type": "Feature", "geometry": {"type": "Point", "coordinates": [151.10566635, -33.90376684]}, "properties": {"name": "12 SHELLEY STREET CAMPSIE 2194", "locID": "LOC000030558524", "tech": "HFC", "upgrade": "NULL_NA"}}, {"type": "Feature", "geometry": {"type": "Point", "coordinates": [151.10165643, -33.90760535]}, "properties": {"name": "12 SIXTH AVENUE CAMPSIE 2194", "locID": "LOC000066550103", "tech": "FTTC", "upgrade": "FTTP_SA"}}, {"type": "Feature", "geometry": {"type": "Point", "coordinates": [151.10579003, -33.91632726]}, "properties": {"name": "12 STANLEY STREET CAMPSIE 2194", "locID": "LOC000043005679", "tech": "FTTP", "upgrade": "NULL_NA"}}, {"type": "Feature", "geometry": {"type": "Point", "coordinates": [151.10373769, -33.90412449]}, "properties": {"name": "12 TENNYSON STREET CAMPSIE 2194", "locID": "LOC000029097145", "tech": "HFC", "upgrade": "NULL_NA"}}, {"type": "Feature", "geometry": {"type": "Point", "coordinates": [151.09829878, -33.91722595]}, "properties": {"name": "12 THORNCRAFT PARADE CAMPSIE 2194", "locID": "LOC000015546367", "tech": "HFC", "upgrade": "NULL_NA"}}, {"type": "Feature", "geometry": {"type": "Point", "coordinates": [151.10154417, -33.92079515]}, "properties": {"name": "12 TROY STREET CAMPSIE 2194", "locID": "LOC000185687748", "tech": "HFC", "upgrade": "NULL_NA"}}, {"type": "Feature", "geometry": {"type": "Point", "coordinates": [151.10689427, -33.91506693]}, "properties": {"name": "12 UNARA STREET CAMPSIE 2194", "locID": "LOC000045885218", "tech": "FTTP", "upgrade": "NULL_NA"}}, {"type": "Feature", "geometry": {"type": "Point", "coordinates": [151.10488321, -33.92039107]}, "properties": {"name": "12 VICLIFFE AVENUE CAMPSIE 2194", "locID": "LOC000008744969", "tech": "HFC", "upgrade": "NULL_NA"}}, {"type": "Feature", "geometry": {"type": "Point", "coordinates": [151.10344319, -33.92205736]}, "properties": {"name": "12 VICTA STREET CAMPSIE 2194", "locID": "LOC000137780964", "tech": "FTTP", "upgrade": "NULL_NA"}}, {"type": "Feature", "geometry": {"type": "Point", "coordinates": [151.1032651, -33.91979971]}, "properties": {"name": "12 VIKING STREET CAMPSIE 2194", "locID": "LOC000076349493", "tech": "HFC", "upgrade": "NULL_NA"}}, {"type": "Feature", "geometry": {"type": "Point", "coordinates": [151.10238731, -33.920297]}, "properties": {"name": "12 WADE STREET CAMPSIE 2194", "locID": "LOC000038894830", "tech": "HFC", "upgrade": "NULL_NA"}}, {"type": "Feature", "geometry": {"type": "Point", "coordinates": [151.09381808, -33.91152963]}, "properties": {"name": "12-14 ALBERT STREET CAMPSIE 2194", "locID": "LOC000020671006", "tech": "HFC", "upgrade": "NULL_NA"}}, {"type": "Feature", "geometry": {"type": "Point", "coordinates": [151.10527329, -33.90646752]}, "properties": {"name": "12-14 BROWNING STREET CAMPSIE 2194", "locID": "LOC000158342281", "tech": "HFC", "upgrade": "NULL_NA"}}, {"type": "Feature", "geometry": {"type": "Point", "coordinates": [151.10177895, -33.90465591]}, "properties": {"name": "12-16 SEVENTH AVENUE CAMPSIE 2194", "locID": "LOC000031255820", "tech": "HFC", "upgrade": "NULL_NA"}}, {"type": "Feature", "geometry": {"type": "Point", "coordinates": [151.10293324, -33.90807289]}, "properties": {"name": "120 BEAMISH STREET CAMPSIE 2194", "locID": "LOC000161218545", "tech": "FTTB", "upgrade": "NULL_NA"}}, {"type": "Feature", "geometry": {"type": "Point", "coordinates": [151.10696691, -33.90297979]}, "properties": {"name": "120 BRIGHTON AVENUE CAMPSIE 2194", "locID": "LOC000042847019", "tech": "HFC", "upgrade": "NULL_NA"}}, {"type": "Feature", "geometry": {"type": "Point", "coordinates": [151.09391593, -33.91280104]}, "properties": {"name": "120 CAMPSIE STREET CAMPSIE 2194", "locID": "LOC000085621594", "tech": "HFC", "upgrade": "NULL_NA"}}, {"type": "Feature", "geometry": {"type": "Point", "coordinates": [151.09977054, -33.91510829]}, "properties": {"name": "120 EVALINE STREET CAMPSIE 2194", "locID": "LOC000019854587", "tech": "HFC", "upgrade": "NULL_NA"}}, {"type": "Feature", "geometry": {"type": "Point", "coordinates": [151.09601462, -33.91019733]}, "properties": {"name": "120 NINTH AVENUE CAMPSIE 2194", "locID": "LOC000087411821", "tech": "HFC", "upgrade": "NULL_NA"}}, {"type": "Feature", "geometry": {"type": "Point", "coordinates": [151.10293324, -33.90807289]}, "properties": {"name": "120-122 BEAMISH STREET CAMPSIE 2194", "locID": "LOC000178269313", "tech": "FTTC", "upgrade": "NULL_NA"}}, {"type": "Feature", "geometry": {"type": "Point", "coordinates": [151.09605974, -33.91139192]}, "properties": {"name": "121 CAMPSIE STREET CAMPSIE 2194", "locID": "LOC000018825561", "tech": "HFC", "upgrade": "NULL_NA"}}, {"type": "Feature", "geometry": {"type": "Point", "coordinates": [151.09862048, -33.91486755]}, "properties": {"name": "121-123 EVALINE STREET CAMPSIE 2194", "locID": "LOC000139826400", "tech": "HFC", "upgrade": "NULL_NA"}}, {"type": "Feature", "geometry": {"type": "Point", "coordinates": [151.10293324, -33.90807289]}, "properties": {"name": "122 BEAMISH STREET CAMPSIE 2194", "locID": "LOC000178269313", "tech": "FTTC", "upgrade": "NULL_NA"}}, {"type": "Feature", "geometry": {"type": "Point", "coordinates": [151.09964195, -33.91516153]}, "properties": {"name": "122 EVALINE STREET CAMPSIE 2194", "locID": "LOC000099560692", "tech": "HFC", "upgrade": "NULL_NA"}}, {"type": "Feature", "geometry": {"type": "Point", "coordinates": [151.09591103, -33.91031708]}, "properties": {"name": "122 NINTH AVENUE CAMPSIE 2194", "locID": "LOC000070292350", "tech": "HFC", "upgrade": "NULL_NA"}}, {"type": "Feature", "geometry": {"type": "Point", "coordinates": [151.1056773, -33.90504379]}, "properties": {"name": "123 BRIGHTON AVENUE CAMPSIE 2194", "locID": "LOC000078710530", "tech": "HFC", "upgrade": "NULL_NA"}}, {"type": "Feature", "geometry": {"type": "Point", "coordinates": [151.09594065, -33.91144232]}, "properties": {"name": "123 CAMPSIE STREET CAMPSIE 2194", "locID": "LOC000061542757", "tech": "HFC", "upgrade": "NULL_NA"}}, {"type": "Feature", "geometry": {"type": "Point", "coordinates": [151.09953538, -33.91519992]}, "properties": {"name": "124 EVALINE STREET CAMPSIE 2194", "locID": "LOC000099818106", "tech": "HFC", "upgrade": "NULL_NA"}}, {"type": "Feature", "geometry": {"type": "Point", "coordinates": [151.09578366, -33.91033409]}, "properties": {"name": "124 NINTH AVENUE CAMPSIE 2194", "locID": "LOC000040711142", "tech": "HFC", "upgrade": "NULL_NA"}}, {"type": "Feature", "geometry": {"type": "Point", "coordinates": [151.10281268, -33.90890067]}, "properties": {"name": "124-128 BEAMISH STREET CAMPSIE 2194", "locID": "LOC100058566955", "tech": "FTTB", "upgrade": "NULL_NA"}}, {"type": "Feature", "geometry": {"type": "Point", "coordinates": [151.10559862, -33.90513145]}, "properties": {"name": "125 BRIGHTON AVENUE CAMPSIE 2194", "locID": "LOC000080024886", "tech": "HFC", "upgrade": "NULL_NA"}}, {"type": "Feature", "geometry": {"type": "Point", "coordinates": [151.09583077, -33.91148776]}, "properties": {"name": "125 CAMPSIE STREET CAMPSIE 2194", "locID": "LOC000051888989", "tech": "HFC", "upgrade": "NULL_NA"}}, {"type": "Feature", "geometry": {"type": "Point", "coordinates": [151.09845788, -33.91492578]}, "properties": {"name": "125 EVALINE STREET CAMPSIE 2194", "locID": "LOC000001491945", "tech": "HFC", "upgrade": "NULL_NA"}}, {"type": "Feature", "geometry": {"type": "Point", "coordinates": [151.09559802, -33.91038704]}, "properties": {"name": "126-128 NINTH AVENUE CAMPSIE 2194", "locID": "LOC000074273973", "tech": "HFC", "upgrade": "NULL_NA"}}, {"type": "Feature", "geometry": {"type": "Point", "coordinates": [151.10532718, -33.90532226]}, "properties": {"name": "127 BRIGHTON AVENUE CAMPSIE 2194", "locID": "LOC000030459041", "tech": "HFC", "upgrade": "NULL_NA"}}, {"type": "Feature", "geometry": {"type": "Point", "coordinates": [151.09572626, -33.91151752]}, "properties": {"name": "127 CAMPSIE STREET CAMPSIE 2194", "locID": "LOC000060720616", "tech": "HFC", "upgrade": "NULL_NA"}}, {"type": "Feature", "geometry": {"type": "Point", "coordinates": [151.09828793, -33.91493392]}, "properties": {"name": "127 EVALINE STREET CAMPSIE 2194", "locID": "LOC000102973680", "tech": "HFC", "upgrade": "NULL_NA"}}, {"type": "Feature", "geometry": {"type": "Point", "coordinates": [151.09559802, -33.91038704]}, "properties": {"name": "128A NINTH AVENUE CAMPSIE 2194", "locID": "LOC000113600578", "tech": "HFC", "upgrade": "NULL_NA"}}, {"type": "Feature", "geometry": {"type": "Point", "coordinates": [151.10519654, -33.90543268]}, "properties": {"name": "129 BRIGHTON AVENUE CAMPSIE 2194", "locID": "LOC000100172151", "tech": "HFC", "upgrade": "NULL_NA"}}, {"type": "Feature", "geometry": {"type": "Point", "coordinates": [151.09560354, -33.91157509]}, "properties": {"name": "129 CAMPSIE STREET CAMPSIE 2194", "locID": "LOC000074162409", "tech": "HFC", "upgrade": "NULL_NA"}}, {"type": "Feature", "geometry": {"type": "Point", "coordinates": [151.09812366, -33.91499892]}, "properties": {"name": "129 EVALINE STREET CAMPSIE 2194", "locID": "LOC000045198213", "tech": "HFC", "upgrade": "NULL_NA"}}, {"type": "Feature", "geometry": {"type": "Point", "coordinates": [151.10558938, -33.90323852]}, "properties": {"name": "12A BYRON STREET CAMPSIE 2194", "locID": "LOC000002321316", "tech": "HFC", "upgrade": "NULL_NA"}}, {"type": "Feature", "geometry": {"type": "Point", "coordinates": [151.10262571, -33.90934723]}, "properties": {"name": "12A CAMPSIE STREET CAMPSIE 2194", "locID": "LOC000138675110", "tech": "HFC", "upgrade": "NULL_NA"}}, {"type": "Feature", "geometry": {"type": "Point", "coordinates": [151.11009489, -33.90528047]}, "properties": {"name": "12A GORDON STREET CAMPSIE 2194", "locID": "LOC000037060881", "tech": "HFC", "upgrade": "NULL_NA"}}, {"type": "Feature", "geometry": {"type": "Point", "coordinates": [151.10848501, -33.91753413]}, "properties": {"name": "12A MESSITER STREET CAMPSIE 2194", "locID": "LOC000111048136", "tech": "FTTP", "upgrade": "NULL_NA"}}, {"type": "Feature", "geometry": {"type": "Point", "coordinates": [151.11239228, -33.90826509]}, "properties": {"name": "12A NOWRA STREET CAMPSIE 2194", "locID": "LOC000032199560", "tech": "FTTP", "upgrade": "NULL_NA"}}, {"type": "Feature", "geometry": {"type": "Point", "coordinates": [151.10154417, -33.92079515]}, "properties": {"name": "12A TROY STREET CAMPSIE 2194", "locID": "LOC000030547101", "tech": "HFC", "upgrade": "NULL_NA"}}, {"type": "Feature", "geometry": {"type": "Point", "coordinates": [151.10242406, -33.92035971]}, "properties": {"name": "12A WADE STREET CAMPSIE 2194", "locID": "LOC000039739076", "tech": "HFC", "upgrade": "NULL_NA"}}, {"type": "Feature", "geometry": {"type": "Point", "coordinates": [151.10280862, -33.90926779]}, "properties": {"name": "12B CAMPSIE STREET CAMPSIE 2194", "locID": "LOC000158342544", "tech": "HFC", "upgrade": "NULL_NA"}}, {"type": "Feature", "geometry": {"type": "Point", "coordinates": [151.1066851, -33.91871064]}, "properties": {"name": "12B SCAHILL STREET CAMPSIE 2194", "locID": "LOC000151271727", "tech": "FTTP", "upgrade": "NULL_NA"}}, {"type": "Feature", "geometry": {"type": "Point", "coordinates": [151.10158021, -33.92085694]}, "properties": {"name": "12B TROY STREET CAMPSIE 2194", "locID": "LOC000185687748", "tech": "HFC", "upgrade": "NULL_NA"}}, {"type": "Feature", "geometry": {"type": "Point", "coordinates": [151.10930279, -33.90394692]}, "properties": {"name": "13 ADAM STREET CAMPSIE 2194", "locID": "LOC000031408646", "tech": "HFC", "upgrade": "NULL_NA"}}, {"type": "Feature", "geometry": {"type": "Point", "coordinates": [151.10228951, -33.91233606]}, "properties": {"name": "13 AMY STREET CAMPSIE 2194", "locID": "LOC000176242651", "tech": "HFC", "upgrade": "NULL_NA"}}, {"type": "Feature", "geometry": {"type": "Point", "coordinates": [151.10158965, -33.91688424]}, "properties": {"name": "13 BEAUMONT STREET CAMPSIE 2194", "locID": "LOC000037649498", "tech": "HFC", "upgrade": "NULL_NA"}}, {"type": "Feature", "geometry": {"type": "Point", "coordinates": [151.1120823, -33.90775796]}, "properties": {"name": "13 BELLOMBI STREET CAMPSIE 2194", "locID": "LOC000080893216", "tech": "FTTP", "upgrade": "NULL_NA"}}, {"type": "Feature", "geometry": {"type": "Point", "coordinates": [151.10470543, -33.90675988]}, "properties": {"name": "13 BROWNING STREET CAMPSIE 2194", "locID": "LOC000057771833", "tech": "HFC", "upgrade": "NULL_NA"}}, {"type": "Feature", "geometry": {"type": "Point", "coordinates": [151.10647432, -33.90554569]}, "properties": {"name": "13 BURNS STREET CAMPSIE 2194", "locID": "LOC000030464809", "tech": "HFC", "upgrade": "NULL_NA"}}, {"type": "Feature", "geometry": {"type": "Point", "coordinates": [151.09845718, -33.91079662]}, "properties": {"name": "13 CAMPSIE STREET CAMPSIE 2194", "locID": "LOC000040199575", "tech": "FTTN", "upgrade": "NULL_NA"}}, {"type": "Feature", "geometry": {"type": "Point", "coordinates": [151.11062911, -33.90617839]}, "properties": {"name": "13 CLISSOLD PARADE CAMPSIE 2194", "locID": "LOC000065020034", "tech": "HFC", "upgrade": "NULL_NA"}}, {"type": "Feature", "geometry": {"type": "Point", "coordinates": [151.10782529, -33.90383963]}, "properties": {"name": "13 COWPER STREET CAMPSIE 2194", "locID": "LOC000080614660", "tech": "HFC", "upgrade": "NULL_NA"}}, {"type": "Feature", "geometry": {"type": "Point", "coordinates": [151.10655831, -33.92108813]}, "properties": {"name": "13 CROSS STREET CAMPSIE 2194", "locID": "LOC000091710373", "tech": "FTTP", "upgrade": "NULL_NA"}}, {"type": "Feature", "geometry": {"type": "Point", "coordinates": [151.1065626, -33.91100831]}, "properties": {"name": "13 DUKE STREET CAMPSIE 2194", "locID": "LOC000041644481", "tech": "FTTC", "upgrade": "FTTP_SA"}}, {"type": "Feature", "geometry": {"type": "Point", "coordinates": [151.0992709, -33.92249609]}, "properties": {"name": "13 ELIZABETH STREET CAMPSIE 2194", "locID": "LOC000022391189", "tech": "HFC", "upgrade": "NULL_NA"}}, {"type": "Feature", "geometry": {"type": "Point", "coordinates": [151.10575148, -33.91208785]}, "properties": {"name": "13 EVALINE STREET CAMPSIE 2194", "locID": "LOC000060133950", "tech": "FTTC", "upgrade": "FTTP_SA"}}, {"type": "Feature", "geometry": {"type": "Point", "coordinates": [151.0996955, -33.9078723]}, "properties": {"name": "13 FOURTH AVENUE CAMPSIE 2194", "locID": "LOC000057825401", "tech": "HFC", "upgrade": "NULL_NA"}}, {"type": "Feature", "geometry": {"type": "Point", "coordinates": [151.11093485, -33.90710621]}, "properties": {"name": "13 FREDERICK STREET CAMPSIE 2194", "locID": "LOC000077180466", "tech": "HFC", "upgrade": "NULL_NA"}}, {"type": "Feature", "geometry": {"type": "Point", "coordinates": [151.10867714, -33.91142489]}, "properties": {"name": "13 GOULD STREET CAMPSIE 2194", "locID": "LOC000025461976", "tech": "FTTP", "upgrade": "NULL_NA"}}, {"type": "Feature", "geometry": {"type": "Point", "coordinates": [151.09883722, -33.92456368]}, "properties": {"name": "13 HARP STREET CAMPSIE 2194", "locID": "LOC000091874884", "tech": "HFC", "upgrade": "NULL_NA"}}, {"type": "Feature", "geometry": {"type": "Point", "coordinates": [151.10592828, -33.91327068]}, "properties": {"name": "13 HILL STREET CAMPSIE 2194", "locID": "LOC000090652708", "tech": "FTTP", "upgrade": "NULL_NA"}}, {"type": "Feature", "geometry": {"type": "Point", "coordinates": [151.10984674, -33.90486056]}, "properties": {"name": "13 LINDSAY STREET CAMPSIE 2194", "locID": "LOC000101471313", "tech": "HFC", "upgrade": "NULL_NA"}}, {"type": "Feature", "geometry": {"type": "Point", "coordinates": [151.09690801, -33.91220074]}, "properties": {"name": "13 LOCH STREET CAMPSIE 2194", "locID": "LOC000091841660", "tech": "HFC", "upgrade": "NULL_NA"}}, {"type": "Feature", "geometry": {"type": "Point", "coordinates": [151.09587622, -33.91271534]}, "properties": {"name": "13 LOFTUS STREET CAMPSIE 2194", "locID": "LOC000089021962", "tech": "HFC", "upgrade": "NULL_NA"}}, {"type": "Feature", "geometry": {"type": "Point", "coordinates": [151.10271633, -33.91550073]}, "properties": {"name": "13 MARLOWE STREET CAMPSIE 2194", "locID": "LOC000080834206", "tech": "HFC", "upgrade": "NULL_NA"}}, {"type": "Feature", "geometry": {"type": "Point", "coordinates": [151.10142006, -33.91597213]}, "properties": {"name": "13 MCKERN STREET CAMPSIE 2194", "locID": "LOC000053902776", "tech": "HFC", "upgrade": "NULL_NA"}}, {"type": "Feature", "geometry": {"type": "Point", "coordinates": [151.10786682, -33.91774552]}, "properties": {"name": "13 MESSITER STREET CAMPSIE 2194", "locID": "LOC000002317246", "tech": "FTTP", "upgrade": "NULL_NA"}}, {"type": "Feature", "geometry": {"type": "Point", "coordinates": [151.10733416, -33.90495237]}, "properties": {"name": "13 MOORE STREET CAMPSIE 2194", "locID": "LOC000036203164", "tech": "HFC", "upgrade": "NULL_NA"}}, {"type": "Feature", "geometry": {"type": "Point", "coordinates": [151.10437727, -33.9195006]}, "properties": {"name": "13 NICHOLAS AVENUE CAMPSIE 2194", "locID": "LOC000036277281", "tech": "HFC", "upgrade": "NULL_NA"}}, {"type": "Feature", "geometry": {"type": "Point", "coordinates": [151.1085956, -33.90900854]}, "properties": {"name": "13 NORTH PARADE CAMPSIE 2194", "locID": "LOC000015400570", "tech": "FTTN", "upgrade": "FTTP_SA"}}, {"type": "Feature", "geometry": {"type": "Point", "coordinates": [151.11303644, -33.9080579]}, "properties": {"name": "13 NOWRA STREET CAMPSIE 2194", "locID": "LOC000029160091", "tech": "FTTP", "upgrade": "NULL_NA"}}, {"type": "Feature", "geometry": {"type": "Point", "coordinates": [151.09633848, -33.91691795]}, "properties": {"name": "13 PALMER STREET CAMPSIE 2194", "locID": "LOC000005922036", "tech": "HFC", "upgrade": "NULL_NA"}}, {"type": "Feature", "geometry": {"type": "Point", "coordinates": [151.10733738, -33.91146156]}, "properties": {"name": "13 PARK STREET CAMPSIE 2194", "locID": "LOC000078826748", "tech": "FTTC", "upgrade": "NULL_NA"}}, {"type": "Feature", "geometry": {"type": "Point", "coordinates": [151.11047422, -33.91230155]}, "properties": {"name": "13 REDMAN STREET CAMPSIE 2194", "locID": "LOC000042003623", "tech": "FTTP", "upgrade": "NULL_NA"}}, {"type": "Feature", "geometry": {"type": "Point", "coordinates": [151.10686992, -33.91818326]}, "properties": {"name": "13 ROBERTSON STREET CAMPSIE 2194", "locID": "LOC000179129662", "tech": "FTTP", "upgrade": "NULL_NA"}}, {"type": "Feature", "geometry": {"type": "Point", "coordinates": [151.10607186, -33.91892172]}, "properties": {"name": "13 SCAHILL STREET CAMPSIE 2194", "locID": "LOC000072105762", "tech": "FTTP", "upgrade": "NULL_NA"}}, {"type": "Feature", "geometry": {"type": "Point", "coordinates": [151.09675331, -33.90833303]}, "properties": {"name": "13 SECOND AVENUE CAMPSIE 2194", "locID": "LOC000080113936", "tech": "HFC", "upgrade": "NULL_NA"}}, {"type": "Feature", "geometry": {"type": "Point", "coordinates": [151.10170837, -33.90401361]}, "properties": {"name": "13 SEVENTH AVENUE CAMPSIE 2194", "locID": "LOC000053074635", "tech": "FTTP", "upgrade": "NULL_NA"}}, {"type": "Feature", "geometry": {"type": "Point", "coordinates": [151.10226975, -33.90718184]}, "properties": {"name": "13 SIXTH AVENUE CAMPSIE 2194", "locID": "LOC000018934918", "tech": "FTTC", "upgrade": "FTTP_SA"}}, {"type": "Feature", "geometry": {"type": "Point", "coordinates": [151.10507617, -33.91650043]}, "properties": {"name": "13 STANLEY STREET CAMPSIE 2194", "locID": "LOC000029133624", "tech": "FTTP", "upgrade": "NULL_NA"}}, {"type": "Feature", "geometry": {"type": "Point", "coordinates": [151.10406902, -33.90360029]}, "properties": {"name": "13 TENNYSON STREET CAMPSIE 2194", "locID": "LOC000101458672", "tech": "HFC", "upgrade": "NULL_NA"}}, {"type": "Feature", "geometry": {"type": "Point", "coordinates": [151.09751027, -33.91708193]}, "properties": {"name": "13 THORNCRAFT PARADE CAMPSIE 2194", "locID": "LOC000084135078", "tech": "HFC", "upgrade": "NULL_NA"}}, {"type": "Feature", "geometry": {"type": "Point", "coordinates": [151.10640295, -33.91452838]}, "properties": {"name": "13 UNARA STREET CAMPSIE 2194", "locID": "LOC000051915965", "tech": "FTTP", "upgrade": "NULL_NA"}}, {"type": "Feature", "geometry": {"type": "Point", "coordinates": [151.10360999, -33.91949411]}, "properties": {"name": "13 VICLIFFE AVENUE CAMPSIE 2194", "locID": "LOC000074947256", "tech": "HFC", "upgrade": "NULL_NA"}}, {"type": "Feature", "geometry": {"type": "Point", "coordinates": [151.10270865, -33.92011502]}, "properties": {"name": "13 VIKING STREET CAMPSIE 2194", "locID": "LOC000095695528", "tech": "HFC", "upgrade": "NULL_NA"}}, {"type": "Feature", "geometry": {"type": "Point", "coordinates": [151.1020181, -33.9207923]}, "properties": {"name": "13 WADE STREET CAMPSIE 2194", "locID": "LOC000047597796", "tech": "HFC", "upgrade": "NULL_NA"}}, {"type": "Feature", "geometry": {"type": "Point", "coordinates": [151.10295383, -33.9109118]}, "properties": {"name": "13-15 ANGLO ROAD CAMPSIE 2194", "locID": "LOC000177763208", "tech": "FTTB", "upgrade": "NULL_NA"}}, {"type": "Feature", "geometry": {"type": "Point", "coordinates": [151.10975139, -33.91130347]}, "properties": {"name": "13-17 OSWALD STREET CAMPSIE 2194", "locID": "LOC000044348281", "tech": "FTTP", "upgrade": "NULL_NA"}}, {"type": "Feature", "geometry": {"type": "Point", "coordinates": [151.09540679, -33.91043451]}, "properties": {"name": "130 NINTH AVENUE CAMPSIE 2194", "locID": "LOC000100027001", "tech": "HFC", "upgrade": "NULL_NA"}}, {"type": "Feature", "geometry": {"type": "Point", "coordinates": [151.09913751, -33.91535651]}, "properties": {"name": "130-132 EVALINE STREET CAMPSIE 2194", "locID": "LOC000106310609", "tech": "HFC", "upgrade": "NULL_NA"}}, {"type": "Feature", "geometry": {"type": "Point", "coordinates": [151.09547688, -33.91162433]}, "properties": {"name": "131 CAMPSIE STREET CAMPSIE 2194", "locID": "LOC000015531151", "tech": "HFC", "upgrade": "NULL_NA"}}, {"type": "Feature", "geometry": {"type": "Point", "coordinates": [151.09799195, -33.91512072]}, "properties": {"name": "131 EVALINE STREET CAMPSIE 2194", "locID": "LOC000109811783", "tech": "HFC", "upgrade": "NULL_NA"}}, {"type": "Feature", "geometry": {"type": "Point", "coordinates": [151.09536394, -33.91124916]}, "properties": {"name": "131A CAMPSIE STREET CAMPSIE 2194", "locID": "LOC000057172470", "tech": "HFC", "upgrade": "NULL_NA"}}, {"type": "Feature", "geometry": {"type": "Point", "coordinates": [151.10295372, -33.90861947]}, "properties": {"name": "132 BEAMISH STREET CAMPSIE 2194", "locID": "LOC000138675031", "tech": "HFC", "upgrade": "NULL_NA"}}, {"type": "Feature", "geometry": {"type": "Point", "coordinates": [151.10578622, -33.904556]}, "properties": {"name": "132 BRIGHTON AVENUE CAMPSIE 2194", "locID": "LOC000041707254", "tech": "HFC", "upgrade": "NULL_NA"}}, {"type": "Feature", "geometry": {"type": "Point", "coordinates": [151.09527927, -33.910456]}, "properties": {"name": "132 NINTH AVENUE CAMPSIE 2194", "locID": "LOC000046044755", "tech": "HFC", "upgrade": "NULL_NA"}}, {"type": "Feature", "geometry": {"type": "Point", "coordinates": [151.09527927, -33.910456]}, "properties": {"name": "132A NINTH AVENUE CAMPSIE 2194", "locID": "LOC000045797247", "tech": "HFC", "upgrade": "NULL_NA"}}, {"type": "Feature", "geometry": {"type": "Point", "coordinates": [151.10495825, -33.90561211]}, "properties": {"name": "133 BRIGHTON AVENUE CAMPSIE 2194", "locID": "LOC000175222226", "tech": "HFC", "upgrade": "NULL_NA"}}, {"type": "Feature", "geometry": {"type": "Point", "coordinates": [151.0953139, -33.91168208]}, "properties": {"name": "133 CAMPSIE STREET CAMPSIE 2194", "locID": "LOC000083149827", "tech": "HFC", "upgrade": "NULL_NA"}}, {"type": "Feature", "geometry": {"type": "Point", "coordinates": [151.0978705, -33.91517145]}, "properties": {"name": "133 EVALINE STREET CAMPSIE 2194", "locID": "LOC000046351405", "tech": "HFC", "upgrade": "NULL_NA"}}, {"type": "Feature", "geometry": {"type": "Point", "coordinates": [151.1029914, -33.90872188]}, "properties": {"name": "134 BEAMISH STREET CAMPSIE 2194", "locID": "LOC000175219989", "tech": "HFC", "upgrade": "NULL_NA"}}, {"type": "Feature", "geometry": {"type": "Point", "coordinates": [151.10687541, -33.90337326]}, "properties": {"name": "134 BRIGHTON AVENUE CAMPSIE 2194", "locID": "LOC000120253217", "tech": "HFC", "upgrade": "NULL_NA"}}, {"type": "Feature", "geometry": {"type": "Point", "coordinates": [151.09515341, -33.91049515]}, "properties": {"name": "134 NINTH AVENUE CAMPSIE 2194", "locID": "LOC000057039592", "tech": "HFC", "upgrade": "NULL_NA"}}, {"type": "Feature", "geometry": {"type": "Point", "coordinates": [151.1029914, -33.90872188]}, "properties": {"name": "134-138 BEAMISH STREET CAMPSIE 2194", "locID": "LOC000175219894", "tech": "HFC", "upgrade": "NULL_NA"}}, {"type": "Feature", "geometry": {"type": "Point", "coordinates": [151.09515341, -33.91049515]}, "properties": {"name": "134A NINTH AVENUE CAMPSIE 2194", "locID": "LOC000057168211", "tech": "HFC", "upgrade": "NULL_NA"}}, {"type": "Feature", "geometry": {"type": "Point", "coordinates": [151.10485402, -33.90556613]}, "properties": {"name": "135 BRIGHTON AVENUE CAMPSIE 2194", "locID": "LOC000106314592", "tech": "HFC", "upgrade": "NULL_NA"}}, {"type": "Feature", "geometry": {"type": "Point", "coordinates": [151.09465038, -33.91190076]}, "properties": {"name": "135 CAMPSIE STREET CAMPSIE 2194", "locID": "LOC000065192993", "tech": "HFC", "upgrade": "NULL_NA"}}, {"type": "Feature", "geometry": {"type": "Point", "coordinates": [151.09779027, -33.91520465]}, "properties": {"name": "135 EVALINE STREET CAMPSIE 2194", "locID": "LOC000060050587", "tech": "HFC", "upgrade": "NULL_NA"}}, {"type": "Feature", "geometry": {"type": "Point", "coordinates": [151.10671854, -33.90342421]}, "properties": {"name": "136 BRIGHTON AVENUE CAMPSIE 2194", "locID": "LOC000120253238", "tech": "HFC", "upgrade": "NULL_NA"}}, {"type": "Feature", "geometry": {"type": "Point", "coordinates": [151.09894239, -33.915442]}, "properties": {"name": "136 EVALINE STREET CAMPSIE 2194", "locID": "LOC000027106998", "tech": "HFC", "upgrade": "NULL_NA"}}, {"type": "Feature", "geometry": {"type": "Point", "coordinates": [151.09502288, -33.9105208]}, "properties": {"name": "136 NINTH AVENUE CAMPSIE 2194", "locID": "LOC000063467104", "tech": "HFC", "upgrade": "NULL_NA"}}, {"type": "Feature", "geometry": {"type": "Point", "coordinates": [151.09502288, -33.9105208]}, "properties": {"name": "136A NINTH AVENUE CAMPSIE 2194", "locID": "LOC000063467104", "tech": "HFC", "upgrade": "NULL_NA"}}, {"type": "Feature", "geometry": {"type": "Point", "coordinates": [151.09502288, -33.9105208]}, "properties": {"name": "136B NINTH AVENUE CAMPSIE 2194", "locID": "LOC000063407366", "tech": "HFC", "upgrade": "NULL_NA"}}, {"type": "Feature", "geometry": {"type": "Point", "coordinates": [151.10373238, -33.90769461]}, "properties": {"name": "137 BEAMISH STREET CAMPSIE 2194", "locID": "LOC000067673771", "tech": "HFC", "upgrade": "NULL_NA"}}, {"type": "Feature", "geometry": {"type": "Point", "coordinates": [151.09452729, -33.91197123]}, "properties": {"name": "137 CAMPSIE STREET CAMPSIE 2194", "locID": "LOC000022193886", "tech": "HFC", "upgrade": "NULL_NA"}}, {"type": "Feature", "geometry": {"type": "Point", "coordinates": [151.1029914, -33.90872188]}, "properties": {"name": "138 BEAMISH STREET CAMPSIE 2194", "locID": "LOC000175219894", "tech": "HFC", "upgrade": "NULL_NA"}}, {"type": "Feature", "geometry": {"type": "Point", "coordinates": [151.0987302, -33.91550962]}, "properties": {"name": "138 EVALINE STREET CAMPSIE 2194", "locID": "LOC000050113914", "tech": "HFC", "upgrade": "NULL_NA"}}, {"type": "Feature", "geometry": {"type": "Point", "coordinates": [151.09491306, -33.91071797]}, "properties": {"name": "138 NINTH AVENUE CAMPSIE 2194", "locID": "LOC000042724901", "tech": "HFC", "upgrade": "NULL_NA"}}, {"type": "Feature", "geometry": {"type": "Point", "coordinates": [151.10380263, -33.90789996]}, "properties": {"name": "139 BEAMISH STREET CAMPSIE 2194", "locID": "LOC000158339521", "tech": "HFC", "upgrade": "NULL_NA"}}, {"type": "Feature", "geometry": {"type": "Point", "coordinates": [151.10477596, -33.90577864]}, "properties": {"name": "139 BRIGHTON AVENUE CAMPSIE 2194", "locID": "LOC000103366979", "tech": "HFC", "upgrade": "NULL_NA"}}, {"type": "Feature", "geometry": {"type": "Point", "coordinates": [151.09439493, -33.912017]}, "properties": {"name": "139 CAMPSIE STREET CAMPSIE 2194", "locID": "LOC000011753399", "tech": "HFC", "upgrade": "NULL_NA"}}, {"type": "Feature", "geometry": {"type": "Point", "coordinates": [151.10582302, -33.90276345]}, "properties": {"name": "13A BYRON STREET CAMPSIE 2194", "locID": "LOC000078941128", "tech": "HFC", "upgrade": "NULL_NA"}}, {"type": "Feature", "geometry": {"type": "Point", "coordinates": [151.11039375, -33.90584779]}, "properties": {"name": "13A GORDON STREET CAMPSIE 2194", "locID": "LOC000097243486", "tech": "HFC", "upgrade": "NULL_NA"}}, {"type": "Feature", "geometry": {"type": "Point", "coordinates": [151.10683419, -33.91812135]}, "properties": {"name": "13A ROBERTSON STREET CAMPSIE 2194", "locID": "LOC000069432679", "tech": "FTTP", "upgrade": "NULL_NA"}}, {"type": "Feature", "geometry": {"type": "Point", "coordinates": [151.09649103, -33.90821396]}, "properties": {"name": "13A SECOND AVENUE CAMPSIE 2194", "locID": "LOC000080036142", "tech": "HFC", "upgrade": "NULL_NA"}}, {"type": "Feature", "geometry": {"type": "Point", "coordinates": [151.09791187, -33.90773682]}, "properties": {"name": "13A THIRD AVENUE CAMPSIE 2194", "locID": "LOC000175216663", "tech": "HFC", "upgrade": "NULL_NA"}}, {"type": "Feature", "geometry": {"type": "Point", "coordinates": [151.10588878, -33.9027628]}, "properties": {"name": "13B BYRON STREET CAMPSIE 2194", "locID": "LOC000078950055", "tech": "HFC", "upgrade": "NULL_NA"}}, {"type": "Feature", "geometry": {"type": "Point", "coordinates": [151.11045399, -33.90582297]}, "properties": {"name": "13B GORDON STREET CAMPSIE 2194", "locID": "LOC000099216693", "tech": "HFC", "upgrade": "NULL_NA"}}, {"type": "Feature", "geometry": {"type": "Point", "coordinates": [151.10686992, -33.91818326]},