{"type": "FeatureCollection", "features": [{"type": "Feature", "geometry": {"type": "Point", "coordinates": [150.92147382, -31.07793918]}, "properties": {"name": "1 ADAM STREET NORTH TAMWORTH 2340", "locID": "LOC000012445022", "tech": "FTTN", "upgrade": "NULL_NA"}}, {"type": "Feature", "geometry": {"type": "Point", "coordinates": [150.9018365, -31.04706361]}, "properties": {"name": "1 ALSACE PLACE NORTH TAMWORTH 2340", "locID": "LOC000188361030", "tech": "FTTP", "upgrade": "NULL_NA"}}, {"type": "Feature", "geometry": {"type": "Point", "coordinates": [150.93849106, -31.05557816]}, "properties": {"name": "1 BENTWING PLACE NORTH TAMWORTH 2340", "locID": "LOC000120857627", "tech": "FTTN", "upgrade": "NULL_NA"}}, {"type": "Feature", "geometry": {"type": "Point", "coordinates": [150.93341383, -31.07496483]}, "properties": {"name": "1 BERNICE PLACE NORTH TAMWORTH 2340", "locID": "LOC000034059775", "tech": "FTTN", "upgrade": "NULL_NA"}}, {"type": "Feature", "geometry": {"type": "Point", "coordinates": [150.93131877, -31.05369752]}, "properties": {"name": "1 BILOBA WAY NORTH TAMWORTH 2340", "locID": "LOC000010623014", "tech": "FTTN", "upgrade": "NULL_NA"}}, {"type": "Feature", "geometry": {"type": "Point", "coordinates": [150.92313882, -31.08139901]}, "properties": {"name": "1 BLIGH STREET NORTH TAMWORTH 2340", "locID": "LOC000102845008", "tech": "FTTN", "upgrade": "NULL_NA"}}, {"type": "Feature", "geometry": {"type": "Point", "coordinates": [150.94374488, -31.07472902]}, "properties": {"name": "1 BORROWDALE CLOSE NORTH TAMWORTH 2340", "locID": "LOC000167762725", "tech": "FTTP", "upgrade": "NULL_NA"}}, {"type": "Feature", "geometry": {"type": "Point", "coordinates": [150.91768046, -31.07208409]}, "properties": {"name": "1 BRADLEY PLACE NORTH TAMWORTH 2340", "locID": "LOC000092340358", "tech": "FTTN", "upgrade": "NULL_NA"}}, {"type": "Feature", "geometry": {"type": "Point", "coordinates": [150.91245641, -31.04975438]}, "properties": {"name": "1 BROADWAY DRIVE NORTH TAMWORTH 2340", "locID": "LOC000077639015", "tech": "FTTN", "upgrade": "NULL_NA"}}, {"type": "Feature", "geometry": {"type": "Point", "coordinates": [150.93219653, -31.05321609]}, "properties": {"name": "1 BRUSHTAIL DRIVE NORTH TAMWORTH 2340", "locID": "LOC000035887562", "tech": "FTTN", "upgrade": "NULL_NA"}}, {"type": "Feature", "geometry": {"type": "Point", "coordinates": [150.89998672, -31.04398454]}, "properties": {"name": "1 BURGUNDY WAY NORTH TAMWORTH 2340", "locID": "LOC000143659067", "tech": "FTTP", "upgrade": "NULL_NA"}}, {"type": "Feature", "geometry": {"type": "Point", "coordinates": [150.93322321, -31.04958095]}, "properties": {"name": "1 CARRAI CLOSE NORTH TAMWORTH 2340", "locID": "LOC000171309514", "tech": "WIRELESS", "upgrade": "NULL_NA"}}, {"type": "Feature", "geometry": {"type": "Point", "coordinates": [150.92570338, -31.079983]}, "properties": {"name": "1 CARTHAGE STREET NORTH TAMWORTH 2340", "locID": "LOC000005516233", "tech": "FTTN", "upgrade": "NULL_NA"}}, {"type": "Feature", "geometry": {"type": "Point", "coordinates": [150.92956905, -31.04767606]}, "properties": {"name": "1 CASUARINA DRIVE NORTH TAMWORTH 2340", "locID": "LOC000098693030", "tech": "FTTN", "upgrade": "NULL_NA"}}, {"type": "Feature", "geometry": {"type": "Point", "coordinates": [150.89953955, -31.04463481]}, "properties": {"name": "1 CHARDONNAY DRIVE NORTH TAMWORTH 2340", "locID": "LOC000143659014", "tech": "FTTP", "upgrade": "NULL_NA"}}, {"type": "Feature", "geometry": {"type": "Point", "coordinates": [150.93021265, -31.07941608]}, "properties": {"name": "1 COHEN LANE NORTH TAMWORTH 2340", "locID": "LOC000105069720", "tech": "FTTN", "upgrade": "NULL_NA"}}, {"type": "Feature", "geometry": {"type": "Point", "coordinates": [150.92949531, -31.07947054]}, "properties": {"name": "1 COHEN STREET NORTH TAMWORTH 2340", "locID": "LOC000105413780", "tech": "FTTN", "upgrade": "NULL_NA"}}, {"type": "Feature", "geometry": {"type": "Point", "coordinates": [150.89972545, -31.04674908]}, "properties": {"name": "1 COLOMBARD DRIVE NORTH TAMWORTH 2340", "locID": "LOC000159429394", "tech": "FTTP", "upgrade": "NULL_NA"}}, {"type": "Feature", "geometry": {"type": "Point", "coordinates": [150.91093664, -31.07126292]}, "properties": {"name": "1 CONIMBLA CRESCENT NORTH TAMWORTH 2340", "locID": "LOC000033995026", "tech": "FTTN", "upgrade": "NULL_NA"}}, {"type": "Feature", "geometry": {"type": "Point", "coordinates": [150.90098123, -31.04567132]}, "properties": {"name": "1 CORVINA CLOSE NORTH TAMWORTH 2340", "locID": "LOC000181002751", "tech": "FTTP", "upgrade": "NULL_NA"}}, {"type": "Feature", "geometry": {"type": "Point", "coordinates": [150.91980024, -31.07771543]}, "properties": {"name": "1 COWPER CLOSE NORTH TAMWORTH 2340", "locID": "LOC000152347091", "tech": "FTTN", "upgrade": "NULL_NA"}}, {"type": "Feature", "geometry": {"type": "Point", "coordinates": [150.92272563, -31.07806072]}, "properties": {"name": "1 DEAN STREET NORTH TAMWORTH 2340", "locID": "LOC000078931174", "tech": "FTTN", "upgrade": "NULL_NA"}}, {"type": "Feature", "geometry": {"type": "Point", "coordinates": [150.93567539, -31.07478587]}, "properties": {"name": "1 DEKALB STREET NORTH TAMWORTH 2340", "locID": "LOC000075701427", "tech": "FTTN", "upgrade": "NULL_NA"}}, {"type": "Feature", "geometry": {"type": "Point", "coordinates": [150.93171826, -31.0812011]}, "properties": {"name": "1 DOWELL AVENUE NORTH TAMWORTH 2340", "locID": "LOC000094839267", "tech": "FTTN", "upgrade": "NULL_NA"}}, {"type": "Feature", "geometry": {"type": "Point", "coordinates": [150.93089996, -31.07955341]}, "properties": {"name": "1 ELIZABETH STREET NORTH TAMWORTH 2340", "locID": "LOC000052107367", "tech": "FTTN", "upgrade": "NULL_NA"}}, {"type": "Feature", "geometry": {"type": "Point", "coordinates": [150.93652996, -31.0741462]}, "properties": {"name": "1 ERROL PLACE NORTH TAMWORTH 2340", "locID": "LOC000093341655", "tech": "FTTN", "upgrade": "NULL_NA"}}, {"type": "Feature", "geometry": {"type": "Point", "coordinates": [150.90971891, -31.05221373]}, "properties": {"name": "1 FARINGDON STREET NORTH TAMWORTH 2340", "locID": "LOC000140577829", "tech": "FTTP", "upgrade": "NULL_NA"}}, {"type": "Feature", "geometry": {"type": "Point", "coordinates": [150.92773037, -31.05074979]}, "properties": {"name": "1 FLAGSTAFF ROAD NORTH TAMWORTH 2340", "locID": "LOC000025870146", "tech": "FTTN", "upgrade": "NULL_NA"}}, {"type": "Feature", "geometry": {"type": "Point", "coordinates": [150.90883358, -31.07210969]}, "properties": {"name": "1 FRANCIS AVENUE NORTH TAMWORTH 2340", "locID": "LOC000190895136", "tech": "FTTN", "upgrade": "NULL_NA"}}, {"type": "Feature", "geometry": {"type": "Point", "coordinates": [150.90939622, -31.05144502]}, "properties": {"name": "1 GRAND MEADOWS DRIVE NORTH TAMWORTH 2340", "locID": "LOC000138552620", "tech": "FTTP", "upgrade": "NULL_NA"}}, {"type": "Feature", "geometry": {"type": "Point", "coordinates": [150.92379094, -31.07928936]}, "properties": {"name": "1 GRIFFIN AVENUE NORTH TAMWORTH 2340", "locID": "LOC000099039767", "tech": "FTTN", "upgrade": "NULL_NA"}}, {"type": "Feature", "geometry": {"type": "Point", "coordinates": [150.91989724, -31.07670578]}, "properties": {"name": "1 HUNT STREET NORTH TAMWORTH 2340", "locID": "LOC000065115873", "tech": "FTTN", "upgrade": "NULL_NA"}}, {"type": "Feature", "geometry": {"type": "Point", "coordinates": [150.93222552, -31.07980388]}, "properties": {"name": "1 HYMAN STREET NORTH TAMWORTH 2340", "locID": "LOC000023982822", "tech": "FTTN", "upgrade": "NULL_NA"}}, {"type": "Feature", "geometry": {"type": "Point", "coordinates": [150.91019024, -31.04761502]}, "properties": {"name": "1 IDYLLIC STREET NORTH TAMWORTH 2340", "locID": "LOC000187999168", "tech": "FTTP", "upgrade": "NULL_NA"}}, {"type": "Feature", "geometry": {"type": "Point", "coordinates": [150.91174839, -31.0700824]}, "properties": {"name": "1 KAPUTAR CLOSE NORTH TAMWORTH 2340", "locID": "LOC000152348971", "tech": "FTTN", "upgrade": "NULL_NA"}}, {"type": "Feature", "geometry": {"type": "Point", "coordinates": [150.90960927, -31.05174879]}, "properties": {"name": "1 KINGHAM STREET NORTH TAMWORTH 2340", "locID": "LOC000140577770", "tech": "FTTP", "upgrade": "NULL_NA"}}, {"type": "Feature", "geometry": {"type": "Point", "coordinates": [150.91084638, -31.07556312]}, "properties": {"name": "1 LAKE PLACE NORTH TAMWORTH 2340", "locID": "LOC000169631740", "tech": "FTTN", "upgrade": "NULL_NA"}}, {"type": "Feature", "geometry": {"type": "Point", "coordinates": [150.92882956, -31.08242049]}, "properties": {"name": "1 MACQUARIE STREET NORTH TAMWORTH 2340", "locID": "LOC000073266739", "tech": "FTTN", "upgrade": "NULL_NA"}}, {"type": "Feature", "geometry": {"type": "Point", "coordinates": [150.93077861, -31.07935903]}, "properties": {"name": "1 MARTIN STREET NORTH TAMWORTH 2340", "locID": "LOC000043006739", "tech": "FTTN", "upgrade": "NULL_NA"}}, {"type": "Feature", "geometry": {"type": "Point", "coordinates": [150.90814445, -31.07293528]}, "properties": {"name": "1 MCKAY PLACE NORTH TAMWORTH 2340", "locID": "LOC000152352614", "tech": "FTTN", "upgrade": "NULL_NA"}}, {"type": "Feature", "geometry": {"type": "Point", "coordinates": [150.90749707, -31.07191019]}, "properties": {"name": "1 MULCONDA CLOSE NORTH TAMWORTH 2340", "locID": "LOC000172595682", "tech": "FTTN", "upgrade": "NULL_NA"}}, {"type": "Feature", "geometry": {"type": "Point", "coordinates": [150.93266728, -31.08073626]}, "properties": {"name": "1 NAPIER STREET NORTH TAMWORTH 2340", "locID": "LOC000077610138", "tech": "FTTN", "upgrade": "NULL_NA"}}, {"type": "Feature", "geometry": {"type": "Point", "coordinates": [150.91732115, -31.07203379]}, "properties": {"name": "1 OLIVER STREET NORTH TAMWORTH 2340", "locID": "LOC000101460253", "tech": "FTTN", "upgrade": "NULL_NA"}}, {"type": "Feature", "geometry": {"type": "Point", "coordinates": [150.92636607, -31.07732763]}, "properties": {"name": "1 OXLEY STREET NORTH TAMWORTH 2340", "locID": "LOC000040762429", "tech": "FTTN", "upgrade": "NULL_NA"}}, {"type": "Feature", "geometry": {"type": "Point", "coordinates": [150.92209073, -31.07646546]}, "properties": {"name": "1 PATTERSON STREET NORTH TAMWORTH 2340", "locID": "LOC000003198577", "tech": "FTTN", "upgrade": "NULL_NA"}}, {"type": "Feature", "geometry": {"type": "Point", "coordinates": [150.9185249, -31.07748411]}, "properties": {"name": "1 PIPER STREET NORTH TAMWORTH 2340", "locID": "LOC000172016895", "tech": "FTTN", "upgrade": "NULL_NA"}}, {"type": "Feature", "geometry": {"type": "Point", "coordinates": [150.90754674, -31.0512285]}, "properties": {"name": "1 RIESLING ROAD NORTH TAMWORTH 2340", "locID": "LOC000047192765", "tech": "NULL", "upgrade": "NULL_NA"}}, {"type": "Feature", "geometry": {"type": "Point", "coordinates": [150.91492386, -31.07615388]}, "properties": {"name": "1 RIVERVIEW STREET NORTH TAMWORTH 2340", "locID": "LOC000054534860", "tech": "FTTN", "upgrade": "NULL_NA"}}, {"type": "Feature", "geometry": {"type": "Point", "coordinates": [150.90312724, -31.04663148]}, "properties": {"name": "1 SAUVIGNON CLOSE NORTH TAMWORTH 2340", "locID": "LOC000188360927", "tech": "FTTP", "upgrade": "NULL_NA"}}, {"type": "Feature", "geometry": {"type": "Point", "coordinates": [150.94265787, -31.07380561]}, "properties": {"name": "1 SCARBOROUGH CLOSE NORTH TAMWORTH 2340", "locID": "LOC000153459837", "tech": "FTTP", "upgrade": "NULL_NA"}}, {"type": "Feature", "geometry": {"type": "Point", "coordinates": [150.94379806, -31.0744167]}, "properties": {"name": "1 SEALARK WAY NORTH TAMWORTH 2340", "locID": "ChIJPa8mPlufCmsRpFdAiH_zn2E", "tech": "FTTP", "upgrade": "UNKNOWN"}}, {"type": "Feature", "geometry": {"type": "Point", "coordinates": [150.91437227, -31.05281531]}, "properties": {"name": "1 SHERBORNE STREET NORTH TAMWORTH 2340", "locID": "LOC000161217333", "tech": "FTTP", "upgrade": "NULL_NA"}}, {"type": "Feature", "geometry": {"type": "Point", "coordinates": [150.90557476, -31.05127093]}, "properties": {"name": "1 SHIRAZ ROAD NORTH TAMWORTH 2340", "locID": "LOC000152348406", "tech": "NULL", "upgrade": "NULL_NA"}}, {"type": "Feature", "geometry": {"type": "Point", "coordinates": [150.9266269, -31.07650622]}, "properties": {"name": "1 SMITH STREET NORTH TAMWORTH 2340", "locID": "LOC000053304857", "tech": "FTTN", "upgrade": "NULL_NA"}}, {"type": "Feature", "geometry": {"type": "Point", "coordinates": [150.91096508, -31.07221304]}, "properties": {"name": "1 SWAN STREET NORTH TAMWORTH 2340", "locID": "LOC000083899665", "tech": "FTTN", "upgrade": "NULL_NA"}}, {"type": "Feature", "geometry": {"type": "Point", "coordinates": [150.93239257, -31.07592005]}, "properties": {"name": "1 TEROLE AVENUE NORTH TAMWORTH 2340", "locID": "LOC000057492230", "tech": "FTTN", "upgrade": "NULL_NA"}}, {"type": "Feature", "geometry": {"type": "Point", "coordinates": [150.90086447, -31.04746915]}, "properties": {"name": "1 TRAMINER DRIVE NORTH TAMWORTH 2340", "locID": "LOC000188361095", "tech": "FTTP", "upgrade": "NULL_NA"}}, {"type": "Feature", "geometry": {"type": "Point", "coordinates": [150.90244695, -31.04514428]}, "properties": {"name": "1 TUSCANY BOULEVARD NORTH TAMWORTH 2340", "locID": "LOC000181005248", "tech": "FTTP", "upgrade": "NULL_NA"}}, {"type": "Feature", "geometry": {"type": "Point", "coordinates": [150.92912619, -31.08025047]}, "properties": {"name": "1 UPPER STREET NORTH TAMWORTH 2340", "locID": "LOC000036212849", "tech": "FTTN", "upgrade": "NULL_NA"}}, {"type": "Feature", "geometry": {"type": "Point", "coordinates": [150.91722606, -31.07268721]}, "properties": {"name": "1 VENTNOR DRIVE NORTH TAMWORTH 2340", "locID": "LOC000168091977", "tech": "FTTN", "upgrade": "NULL_NA"}}, {"type": "Feature", "geometry": {"type": "Point", "coordinates": [150.90860412, -31.0513808]}, "properties": {"name": "1 VERDELHO DRIVE NORTH TAMWORTH 2340", "locID": "LOC000022375670", "tech": "NULL", "upgrade": "NULL_NA"}}, {"type": "Feature", "geometry": {"type": "Point", "coordinates": [150.93389613, -31.07836778]}, "properties": {"name": "1 VICTORIA STREET NORTH TAMWORTH 2340", "locID": "LOC000016387825", "tech": "FTTN", "upgrade": "NULL_NA"}}, {"type": "Feature", "geometry": {"type": "Point", "coordinates": [150.91070271, -31.07032819]}, "properties": {"name": "1 WARRABAH CLOSE NORTH TAMWORTH 2340", "locID": "LOC000066691106", "tech": "FTTN", "upgrade": "NULL_NA"}}, {"type": "Feature", "geometry": {"type": "Point", "coordinates": [150.91109185, -31.07114413]}, "properties": {"name": "1 WARRUMBUNGLE CLOSE NORTH TAMWORTH 2340", "locID": "LOC000111247980", "tech": "FTTN", "upgrade": "NULL_NA"}}, {"type": "Feature", "geometry": {"type": "Point", "coordinates": [150.91226108, -31.07022257]}, "properties": {"name": "1 WOLLEMI CLOSE NORTH TAMWORTH 2340", "locID": "LOC000192219358", "tech": "FTTN", "upgrade": "NULL_NA"}}, {"type": "Feature", "geometry": {"type": "Point", "coordinates": [150.92284397, -31.08157709]}, "properties": {"name": "1-3 BLIGH STREET NORTH TAMWORTH 2340", "locID": "LOC000029969162", "tech": "FTTN", "upgrade": "NULL_NA"}}, {"type": "Feature", "geometry": {"type": "Point", "coordinates": [150.90226763, -31.04785566]}, "properties": {"name": "10 ALSACE PLACE NORTH TAMWORTH 2340", "locID": "LOC000188361048", "tech": "FTTP", "upgrade": "NULL_NA"}}, {"type": "Feature", "geometry": {"type": "Point", "coordinates": [150.90677409, -31.07040426]}, "properties": {"name": "10 BELLAS WAY NORTH TAMWORTH 2340", "locID": "LOC000176530139", "tech": "FTTP", "upgrade": "NULL_NA"}}, {"type": "Feature", "geometry": {"type": "Point", "coordinates": [150.94125337, -31.05661641]}, "properties": {"name": "10 BENTWING PLACE NORTH TAMWORTH 2340", "locID": "LOC000120859705", "tech": "FTTN", "upgrade": "NULL_NA"}}, {"type": "Feature", "geometry": {"type": "Point", "coordinates": [150.93299828, -31.07444273]}, "properties": {"name": "10 BERNICE PLACE NORTH TAMWORTH 2340", "locID": "LOC000077509878", "tech": "FTTN", "upgrade": "NULL_NA"}}, {"type": "Feature", "geometry": {"type": "Point", "coordinates": [150.92467438, -31.07964907]}, "properties": {"name": "10 BLIGH STREET NORTH TAMWORTH 2340", "locID": "LOC000002304824", "tech": "FTTN", "upgrade": "NULL_NA"}}, {"type": "Feature", "geometry": {"type": "Point", "coordinates": [150.94255806, -31.07469066]}, "properties": {"name": "10 BORROWDALE CLOSE NORTH TAMWORTH 2340", "locID": "LOC000167762328", "tech": "FTTP", "upgrade": "NULL_NA"}}, {"type": "Feature", "geometry": {"type": "Point", "coordinates": [150.91672953, -31.07234748]}, "properties": {"name": "10 BRADLEY PLACE NORTH TAMWORTH 2340", "locID": "LOC000007938522", "tech": "FTTN", "upgrade": "NULL_NA"}}, {"type": "Feature", "geometry": {"type": "Point", "coordinates": [150.92238607, -31.08047483]}, "properties": {"name": "10 BREWERY LANE NORTH TAMWORTH 2340", "locID": "LOC000185324191", "tech": "FTTN", "upgrade": "NULL_NA"}}, {"type": "Feature", "geometry": {"type": "Point", "coordinates": [150.93468834, -31.05449241]}, "properties": {"name": "10 BRUSHTAIL DRIVE NORTH TAMWORTH 2340", "locID": "LOC000120859722", "tech": "FTTN", "upgrade": "NULL_NA"}}, {"type": "Feature", "geometry": {"type": "Point", "coordinates": [150.93563812, -31.05097541]}, "properties": {"name": "10 CARRAI CLOSE NORTH TAMWORTH 2340", "locID": "LOC000138677604", "tech": "WIRELESS", "upgrade": "NULL_NA"}}, {"type": "Feature", "geometry": {"type": "Point", "coordinates": [150.92883335, -31.0492992]}, "properties": {"name": "10 CASUARINA DRIVE NORTH TAMWORTH 2340", "locID": "LOC000091565434", "tech": "FTTN", "upgrade": "NULL_NA"}}, {"type": "Feature", "geometry": {"type": "Point", "coordinates": [150.9289273, -31.0786951]}, "properties": {"name": "10 COHEN STREET NORTH TAMWORTH 2340", "locID": "LOC000032978419", "tech": "FTTN", "upgrade": "NULL_NA"}}, {"type": "Feature", "geometry": {"type": "Point", "coordinates": [150.91208557, -31.07096079]}, "properties": {"name": "10 CONIMBLA CRESCENT NORTH TAMWORTH 2340", "locID": "LOC000110129651", "tech": "FTTN", "upgrade": "NULL_NA"}}, {"type": "Feature", "geometry": {"type": "Point", "coordinates": [150.91232056, -31.07163371]}, "properties": {"name": "10 CONWAY CLOSE NORTH TAMWORTH 2340", "locID": "LOC000173605866", "tech": "FTTP", "upgrade": "NULL_NA"}}, {"type": "Feature", "geometry": {"type": "Point", "coordinates": [150.91926745, -31.077898]}, "properties": {"name": "10 COWPER CLOSE NORTH TAMWORTH 2340", "locID": "LOC000022220993", "tech": "FTTN", "upgrade": "NULL_NA"}}, {"type": "Feature", "geometry": {"type": "Point", "coordinates": [150.93642853, -31.07511652]}, "properties": {"name": "10 DARUKA ROAD NORTH TAMWORTH 2340", "locID": "LOC000039943487", "tech": "FTTN", "upgrade": "NULL_NA"}}, {"type": "Feature", "geometry": {"type": "Point", "coordinates": [150.92238752, -31.07694497]}, "properties": {"name": "10 DEAN STREET NORTH TAMWORTH 2340", "locID": "LOC000049247826", "tech": "FTTN", "upgrade": "NULL_NA"}}, {"type": "Feature", "geometry": {"type": "Point", "coordinates": [150.93692061, -31.07439076]}, "properties": {"name": "10 DEKALB STREET NORTH TAMWORTH 2340", "locID": "LOC000098131505", "tech": "FTTN", "upgrade": "NULL_NA"}}, {"type": "Feature", "geometry": {"type": "Point", "coordinates": [150.93270735, -31.08134978]}, "properties": {"name": "10 DOWELL AVENUE NORTH TAMWORTH 2340", "locID": "LOC000091971702", "tech": "FTTN", "upgrade": "NULL_NA"}}, {"type": "Feature", "geometry": {"type": "Point", "coordinates": [150.9326004, -31.07935833]}, "properties": {"name": "10 ELIZABETH STREET NORTH TAMWORTH 2340", "locID": "LOC000078577712", "tech": "FTTN", "upgrade": "NULL_NA"}}, {"type": "Feature", "geometry": {"type": "Point", "coordinates": [150.93640562, -31.07345713]}, "properties": {"name": "10 ERROL PLACE NORTH TAMWORTH 2340", "locID": "LOC000076681723", "tech": "FTTN", "upgrade": "NULL_NA"}}, {"type": "Feature", "geometry": {"type": "Point", "coordinates": [150.91284684, -31.0504543]}, "properties": {"name": "10 EVESHAM CIRCUIT NORTH TAMWORTH 2340", "locID": "ChIJVSU8pByfCmsRBrmQaxZGVZQ", "tech": "FTTP", "upgrade": "UNKNOWN"}}, {"type": "Feature", "geometry": {"type": "Point", "coordinates": [150.90916896, -31.05257813]}, "properties": {"name": "10 FARINGDON STREET NORTH TAMWORTH 2340", "locID": "LOC000140577829", "tech": "FTTP", "upgrade": "NULL_NA"}}, {"type": "Feature", "geometry": {"type": "Point", "coordinates": [150.93000241, -31.05203131]}, "properties": {"name": "10 FLAGSTAFF ROAD NORTH TAMWORTH 2340", "locID": "LOC000179269583", "tech": "FTTP", "upgrade": "NULL_NA"}}, {"type": "Feature", "geometry": {"type": "Point", "coordinates": [150.90966351, -31.07271735]}, "properties": {"name": "10 FRANCIS AVENUE NORTH TAMWORTH 2340", "locID": "LOC000190181981", "tech": "FTTN", "upgrade": "NULL_NA"}}, {"type": "Feature", "geometry": {"type": "Point", "coordinates": [150.91872529, -31.07575295]}, "properties": {"name": "10 GORMAN STREET NORTH TAMWORTH 2340", "locID": "LOC000120867804", "tech": "FTTN", "upgrade": "NULL_NA"}}, {"type": "Feature", "geometry": {"type": "Point", "coordinates": [150.91043627, -31.05111709]}, "properties": {"name": "10 GRAND MEADOWS DRIVE NORTH TAMWORTH 2340", "locID": "LOC000182768082", "tech": "FTTP", "upgrade": "NULL_NA"}}, {"type": "Feature", "geometry": {"type": "Point", "coordinates": [150.92586439, -31.0807703]}, "properties": {"name": "10 GRIFFIN AVENUE NORTH TAMWORTH 2340", "locID": "LOC000048376822", "tech": "FTTN", "upgrade": "NULL_NA"}}, {"type": "Feature", "geometry": {"type": "Point", "coordinates": [150.91095376, -31.04852155]}, "properties": {"name": "10 HANBURY PLACE NORTH TAMWORTH 2340", "locID": "LOC000054721836", "tech": "FTTN", "upgrade": "NULL_NA"}}, {"type": "Feature", "geometry": {"type": "Point", "coordinates": [150.9112549, -31.04731584]}, "properties": {"name": "10 HOMESTEAD CIRCUIT NORTH TAMWORTH 2340", "locID": "LOC000192882490", "tech": "FTTP", "upgrade": "NULL_NA"}}, {"type": "Feature", "geometry": {"type": "Point", "coordinates": [150.9203836, -31.0771815]}, "properties": {"name": "10 HUNT STREET NORTH TAMWORTH 2340", "locID": "LOC000078664776", "tech": "FTTN", "upgrade": "NULL_NA"}}, {"type": "Feature", "geometry": {"type": "Point", "coordinates": [150.93187339, -31.07806159]}, "properties": {"name": "10 HYMAN STREET NORTH TAMWORTH 2340", "locID": "LOC000003058901", "tech": "FTTN", "upgrade": "NULL_NA"}}, {"type": "Feature", "geometry": {"type": "Point", "coordinates": [150.91059914, -31.04810077]}, "properties": {"name": "10 IDYLLIC STREET NORTH TAMWORTH 2340", "locID": "LOC000187999286", "tech": "FTTP", "upgrade": "NULL_NA"}}, {"type": "Feature", "geometry": {"type": "Point", "coordinates": [150.93422025, -31.07940848]}, "properties": {"name": "10 JANISON STREET NORTH TAMWORTH 2340", "locID": "LOC000028045599", "tech": "FTTN", "upgrade": "NULL_NA"}}, {"type": "Feature", "geometry": {"type": "Point", "coordinates": [150.92139475, -31.08017327]}, "properties": {"name": "10 JEWRY STREET NORTH TAMWORTH 2340", "locID": "LOC000120859820", "tech": "FTTN", "upgrade": "NULL_NA"}}, {"type": "Feature", "geometry": {"type": "Point", "coordinates": [150.91154161, -31.06913113]}, "properties": {"name": "10 KAPUTAR CLOSE NORTH TAMWORTH 2340", "locID": "LOC000152348963", "tech": "FTTN", "upgrade": "NULL_NA"}}, {"type": "Feature", "geometry": {"type": "Point", "coordinates": [150.91058692, -31.05233375]}, "properties": {"name": "10 KINGHAM STREET NORTH TAMWORTH 2340", "locID": "LOC000140577886", "tech": "FTTP", "upgrade": "NULL_NA"}}, {"type": "Feature", "geometry": {"type": "Point", "coordinates": [150.9116031, -31.07617846]}, "properties": {"name": "10 LAKE PLACE NORTH TAMWORTH 2340", "locID": "LOC000152351812", "tech": "FTTN", "upgrade": "NULL_NA"}}, {"type": "Feature", "geometry": {"type": "Point", "coordinates": [150.92979229, -31.08143652]}, "properties": {"name": "10 MACQUARIE STREET NORTH TAMWORTH 2340", "locID": "LOC000002242901", "tech": "FTTN", "upgrade": "NULL_NA"}}, {"type": "Feature", "geometry": {"type": "Point", "coordinates": [150.90787376, -31.07187337]}, "properties": {"name": "10 MULCONDA CLOSE NORTH TAMWORTH 2340", "locID": "LOC000076952056", "tech": "FTTN", "upgrade": "NULL_NA"}}, {"type": "Feature", "geometry": {"type": "Point", "coordinates": [150.92345014, -31.0784214]}, "properties": {"name": "10 NORTH STREET NORTH TAMWORTH 2340", "locID": "LOC000054721836", "tech": "FTTN", "upgrade": "NULL_NA"}}, {"type": "Feature", "geometry": {"type": "Point", "coordinates": [150.92460496, -31.08226148]}, "properties": {"name": "10 O'CONNELL STREET NORTH TAMWORTH 2340", "locID": "LOC000045816997", "tech": "FTTN", "upgrade": "NULL_NA"}}, {"type": "Feature", "geometry": {"type": "Point", "coordinates": [150.91647696, -31.07132988]}, "properties": {"name": "10 OLIVER STREET NORTH TAMWORTH 2340", "locID": "ChIJ07wUfiWfCmsR3JdfdGYGamE", "tech": "FTTN", "upgrade": "UNKNOWN"}}, {"type": "Feature", "geometry": {"type": "Point", "coordinates": [150.92741385, -31.07682494]}, "properties": {"name": "10 OXLEY STREET NORTH TAMWORTH 2340", "locID": "LOC000028183149", "tech": "FTTN", "upgrade": "NULL_NA"}}, {"type": "Feature", "geometry": {"type": "Point", "coordinates": [150.92135264, -31.07575174]}, "properties": {"name": "10 PATTERSON STREET NORTH TAMWORTH 2340", "locID": "LOC000022215235", "tech": "FTTN", "upgrade": "NULL_NA"}}, {"type": "Feature", "geometry": {"type": "Point", "coordinates": [150.9181747, -31.07609711]}, "properties": {"name": "10 PIPER STREET NORTH TAMWORTH 2340", "locID": "LOC000082840672", "tech": "FTTN", "upgrade": "NULL_NA"}}, {"type": "Feature", "geometry": {"type": "Point", "coordinates": [150.9293858, -31.08112408]}, "properties": {"name": "10 RAWSON AVENUE NORTH TAMWORTH 2340", "locID": "LOC000071353561", "tech": "FTTN", "upgrade": "NULL_NA"}}, {"type": "Feature", "geometry": {"type": "Point", "coordinates": [150.90690237, -31.05192782]}, "properties": {"name": "10 RIESLING ROAD NORTH TAMWORTH 2340", "locID": "LOC000047192765", "tech": "NULL", "upgrade": "NULL_NA"}}, {"type": "Feature", "geometry": {"type": "Point", "coordinates": [150.91447813, -31.07652858]}, "properties": {"name": "10 RIVERVIEW STREET NORTH TAMWORTH 2340", "locID": "LOC000027111036", "tech": "FTTN", "upgrade": "NULL_NA"}}, {"type": "Feature", "geometry": {"type": "Point", "coordinates": [150.94379806, -31.0744167]}, "properties": {"name": "10 SCARBOROUGH CLOSE NORTH TAMWORTH 2340", "locID": "LOC000167762288", "tech": "FTTP", "upgrade": "NULL_NA"}}, {"type": "Feature", "geometry": {"type": "Point", "coordinates": [150.90508611, -31.05318096]}, "properties": {"name": "10 SEMILLON DRIVE NORTH TAMWORTH 2340", "locID": "LOC000120859883", "tech": "NULL", "upgrade": "NULL_NA"}}, {"type": "Feature", "geometry": {"type": "Point", "coordinates": [150.91500718, -31.05366087]}, "properties": {"name": "10 SHERBORNE STREET NORTH TAMWORTH 2340", "locID": "LOC000170655568", "tech": "FTTP", "upgrade": "NULL_NA"}}, {"type": "Feature", "geometry": {"type": "Point", "coordinates": [150.90586519, -31.05228426]}, "properties": {"name": "10 SHIRAZ ROAD NORTH TAMWORTH 2340", "locID": "LOC000152348336", "tech": "NULL", "upgrade": "NULL_NA"}}, {"type": "Feature", "geometry": {"type": "Point", "coordinates": [150.91129099, -31.07380489]}, "properties": {"name": "10 SWAN STREET NORTH TAMWORTH 2340", "locID": "ChIJYUK1EymfCmsRnJSJC598hw4", "tech": "FTTN", "upgrade": "UNKNOWN"}}, {"type": "Feature", "geometry": {"type": "Point", "coordinates": [150.93392346, -31.07465724]}, "properties": {"name": "10 TEROLE AVENUE NORTH TAMWORTH 2340", "locID": "LOC000065130867", "tech": "FTTN", "upgrade": "NULL_NA"}}, {"type": "Feature", "geometry": {"type": "Point", "coordinates": [150.90213639, -31.04675859]}, "properties": {"name": "10 TRAMINER DRIVE NORTH TAMWORTH 2340", "locID": "ChIJO7dfrPyeCmsRdhuSZgtnTfg", "tech": "FTTP", "upgrade": "UNKNOWN"}}, {"type": "Feature", "geometry": {"type": "Point", "coordinates": [150.90152086, -31.04547433]}, "properties": {"name": "10 TUSCANY BOULEVARD NORTH TAMWORTH 2340", "locID": "LOC000181005194", "tech": "FTTP", "upgrade": "NULL_NA"}}, {"type": "Feature", "geometry": {"type": "Point", "coordinates": [150.93130551, -31.08148273]}, "properties": {"name": "10 UPPER STREET NORTH TAMWORTH 2340", "locID": "LOC000038042714", "tech": "FTTN", "upgrade": "NULL_NA"}}, {"type": "Feature", "geometry": {"type": "Point", "coordinates": [150.9163653, -31.07365961]}, "properties": {"name": "10 VENTNOR DRIVE NORTH TAMWORTH 2340", "locID": "LOC000107928597", "tech": "FTTN", "upgrade": "NULL_NA"}}, {"type": "Feature", "geometry": {"type": "Point", "coordinates": [150.9079048, -31.05066377]}, "properties": {"name": "10 VERDELHO DRIVE NORTH TAMWORTH 2340", "locID": "LOC000083943668", "tech": "NULL", "upgrade": "NULL_NA"}}, {"type": "Feature", "geometry": {"type": "Point", "coordinates": [150.93334024, -31.07755004]}, "properties": {"name": "10 VICTORIA STREET NORTH TAMWORTH 2340", "locID": "LOC000041568736", "tech": "FTTN", "upgrade": "NULL_NA"}}, {"type": "Feature", "geometry": {"type": "Point", "coordinates": [150.9130489, -31.07074911]}, "properties": {"name": "10 WOLLEMI CLOSE NORTH TAMWORTH 2340", "locID": "LOC000179446531", "tech": "FTTP", "upgrade": "NULL_NA"}}, {"type": "Feature", "geometry": {"type": "Point", "coordinates": [150.92345014, -31.0784214]}, "properties": {"name": "10-12 NORTH STREET NORTH TAMWORTH 2340", "locID": "LOC000187999238", "tech": "FTTP", "upgrade": "NULL_NA"}}, {"type": "Feature", "geometry": {"type": "Point", "coordinates": [150.91630176, -31.07400779]}, "properties": {"name": "100 JOHNSTON STREET NORTH TAMWORTH 2340", "locID": "LOC000018473709", "tech": "FTTN", "upgrade": "NULL_NA"}}, {"type": "Feature", "geometry": {"type": "Point", "coordinates": [150.92395313, -31.07994865]}, "properties": {"name": "100 MARIUS STREET NORTH TAMWORTH 2340", "locID": "LOC000063928186", "tech": "FTTN", "upgrade": "NULL_NA"}}, {"type": "Feature", "geometry": {"type": "Point", "coordinates": [150.93084014, -31.07986783]}, "properties": {"name": "100 NORTH STREET NORTH TAMWORTH 2340", "locID": "LOC000030541116", "tech": "FTTN", "upgrade": "NULL_NA"}}, {"type": "Feature", "geometry": {"type": "Point", "coordinates": [150.93004006, -31.07779259]}, "properties": {"name": "100 PIPER STREET NORTH TAMWORTH 2340", "locID": "LOC000152345237", "tech": "FTTN", "upgrade": "NULL_NA"}}, {"type": "Feature", "geometry": {"type": "Point", "coordinates": [150.90014932, -31.04612938]}, "properties": {"name": "100 VERDELHO DRIVE NORTH TAMWORTH 2340", "locID": "LOC000159429318", "tech": "FTTP", "upgrade": "NULL_NA"}}, {"type": "Feature", "geometry": {"type": "Point", "coordinates": [150.93004006, -31.07779259]}, "properties": {"name": "100-102 PIPER STREET NORTH TAMWORTH 2340", "locID": "LOC000152345237", "tech": "FTTN", "upgrade": "NULL_NA"}}, {"type": "Feature", "geometry": {"type": "Point", "coordinates": [150.93095835, -31.07404439]}, "properties": {"name": "101 BLIGH STREET NORTH TAMWORTH 2340", "locID": "LOC000013969317", "tech": "FTTN", "upgrade": "NULL_NA"}}, {"type": "Feature", "geometry": {"type": "Point", "coordinates": [150.92079816, -31.07583718]}, "properties": {"name": "101 JOHNSTON STREET NORTH TAMWORTH 2340", "locID": "LOC000044031542", "tech": "FTTN", "upgrade": "NULL_NA"}}, {"type": "Feature", "geometry": {"type": "Point", "coordinates": [150.91647707, -31.07703058]}, "properties": {"name": "101 PEEL STREET NORTH TAMWORTH 2340", "locID": "LOC000059530830", "tech": "FTTN", "upgrade": "NULL_NA"}}, {"type": "Feature", "geometry": {"type": "Point", "coordinates": [150.93105478, -31.07876953]}, "properties": {"name": "101 PIPER STREET NORTH TAMWORTH 2340", "locID": "LOC000010059591", "tech": "FTTN", "upgrade": "NULL_NA"}}, {"type": "Feature", "geometry": {"type": "Point", "coordinates": [150.89956075, -31.04618404]}, "properties": {"name": "101 VERDELHO DRIVE NORTH TAMWORTH 2340", "locID": "LOC000159429432", "tech": "FTTP", "upgrade": "NULL_NA"}}, {"type": "Feature", "geometry": {"type": "Point", "coordinates": [150.91649538, -31.07403535]}, "properties": {"name": "102 JOHNSTON STREET NORTH TAMWORTH 2340", "locID": "LOC000074868520", "tech": "FTTN", "upgrade": "NULL_NA"}}, {"type": "Feature", "geometry": {"type": "Point", "coordinates": [150.9309681, -31.0798855]}, "properties": {"name": "102 NORTH STREET NORTH TAMWORTH 2340", "locID": "LOC000009619533", "tech": "FTTN", "upgrade": "NULL_NA"}}, {"type": "Feature", "geometry": {"type": "Point", "coordinates": [150.93004006, -31.07779259]}, "properties": {"name": "102 PIPER STREET NORTH TAMWORTH 2340", "locID": "LOC000152345237", "tech": "FTTN", "upgrade": "NULL_NA"}}, {"type": "Feature", "geometry": {"type": "Point", "coordinates": [150.90010505, -31.04593992]}, "properties": {"name": "102 VERDELHO DRIVE NORTH TAMWORTH 2340", "locID": "LOC000159429302", "tech": "FTTP", "upgrade": "NULL_NA"}}, {"type": "Feature", "geometry": {"type": "Point", "coordinates": [150.92122634, -31.07529902]}, "properties": {"name": "103 JOHNSTON STREET NORTH TAMWORTH 2340", "locID": "LOC000050537873", "tech": "FTTN", "upgrade": "NULL_NA"}}, {"type": "Feature", "geometry": {"type": "Point", "coordinates": [150.91622261, -31.07726812]}, "properties": {"name": "103 PEEL STREET NORTH TAMWORTH 2340", "locID": "LOC000190692039", "tech": "FTTN", "upgrade": "NULL_NA"}}, {"type": "Feature", "geometry": {"type": "Point", "coordinates": [150.93130877, -31.07882802]}, "properties": {"name": "103 PIPER STREET NORTH TAMWORTH 2340", "locID": "LOC000031646326", "tech": "FTTN", "upgrade": "NULL_NA"}}, {"type": "Feature", "geometry": {"type": "Point", "coordinates": [150.89952171, -31.04597213]}, "properties": {"name": "103 VERDELHO DRIVE NORTH TAMWORTH 2340", "locID": "LOC000159429445", "tech": "FTTP", "upgrade": "NULL_NA"}}, {"type": "Feature", "geometry": {"type": "Point", "coordinates": [150.9315765, -31.07887144]}, "properties": {"name": "103A PIPER STREET NORTH TAMWORTH 2340", "locID": "LOC000031367884", "tech": "FTTN", "upgrade": "NULL_NA"}}, {"type": "Feature", "geometry": {"type": "Point", "coordinates": [150.93173038, -31.07889337]}, "properties": {"name": "103B PIPER STREET NORTH TAMWORTH 2340", "locID": "LOC000031662492", "tech": "FTTN", "upgrade": "NULL_NA"}}, {"type": "Feature", "geometry": {"type": "Point", "coordinates": [150.9166841, -31.07406222]}, "properties": {"name": "104 JOHNSTON STREET NORTH TAMWORTH 2340", "locID": "LOC000009692562", "tech": "FTTN", "upgrade": "NULL_NA"}}, {"type": "Feature", "geometry": {"type": "Point", "coordinates": [150.92420754, -31.08054248]}, "properties": {"name": "104 MARIUS STREET NORTH TAMWORTH 2340", "locID": "LOC000086514635", "tech": "FTTN", "upgrade": "NULL_NA"}}, {"type": "Feature", "geometry": {"type": "Point", "coordinates": [150.9310965, -31.07990324]}, "properties": {"name": "104 NORTH STREET NORTH TAMWORTH 2340", "locID": "LOC000054546048", "tech": "FTTN", "upgrade": "NULL_NA"}}, {"type": "Feature", "geometry": {"type": "Point", "coordinates": [150.93026834, -31.07813678]}, "properties": {"name": "104 PIPER STREET NORTH TAMWORTH 2340", "locID": "LOC000076585213", "tech": "FTTN", "upgrade": "NULL_NA"}}, {"type": "Feature", "geometry": {"type": "Point", "coordinates": [150.90006978, -31.04573578]}, "properties": {"name": "104 VERDELHO DRIVE NORTH TAMWORTH 2340", "locID": "LOC000159426691", "tech": "FTTP", "upgrade": "NULL_NA"}}, {"type": "Feature", "geometry": {"type": "Point", "coordinates": [150.92143772, -31.07532913]}, "properties": {"name": "105 JOHNSTON STREET NORTH TAMWORTH 2340", "locID": "LOC000061757162", "tech": "FTTN", "upgrade": "NULL_NA"}}, {"type": "Feature", "geometry": {"type": "Point", "coordinates": [150.91670417, -31.07737831]}, "properties": {"name": "105 PEEL STREET NORTH TAMWORTH 2340", "locID": "LOC000038759952", "tech": "FTTN", "upgrade": "NULL_NA"}}, {"type": "Feature", "geometry": {"type": "Point", "coordinates": [150.93187819, -31.07891445]}, "properties": {"name": "105 PIPER STREET NORTH TAMWORTH 2340", "locID": "LOC000064854998", "tech": "FTTN", "upgrade": "NULL_NA"}}, {"type": "Feature", "geometry": {"type": "Point", "coordinates": [150.8995042, -31.04575939]}, "properties": {"name": "105 VERDELHO DRIVE NORTH TAMWORTH 2340", "locID": "LOC000159429450", "tech": "FTTP", "upgrade": "NULL_NA"}}, {"type": "Feature", "geometry": {"type": "Point", "coordinates": [150.91687151, -31.0740889]}, "properties": {"name": "106 JOHNSTON STREET NORTH TAMWORTH 2340", "locID": "LOC000043882739", "tech": "FTTN", "upgrade": "NULL_NA"}}, {"type": "Feature", "geometry": {"type": "Point", "coordinates": [150.92433859, -31.08068467]}, "properties": {"name": "106 MARIUS STREET NORTH TAMWORTH 2340", "locID": "LOC000064526658", "tech": "FTTN", "upgrade": "NULL_NA"}}, {"type": "Feature", "geometry": {"type": "Point", "coordinates": [150.93121834, -31.07992005]}, "properties": {"name": "106 NORTH STREET NORTH TAMWORTH 2340", "locID": "LOC000109878125", "tech": "FTTN", "upgrade": "NULL_NA"}}, {"type": "Feature", "geometry": {"type": "Point", "coordinates": [150.93049235, -31.07814617]}, "properties": {"name": "106 PIPER STREET NORTH TAMWORTH 2340", "locID": "LOC000029670504", "tech": "FTTN", "upgrade": "NULL_NA"}}, {"type": "Feature", "geometry": {"type": "Point", "coordinates": [150.90003938, -31.04547902]}, "properties": {"name": "106 VERDELHO DRIVE NORTH TAMWORTH 2340", "locID": "LOC000159426689", "tech": "FTTP", "upgrade": "NULL_NA"}}, {"type": "Feature", "geometry": {"type": "Point", "coordinates": [150.93067165, -31.07816845]}, "properties": {"name": "106A PIPER STREET NORTH TAMWORTH 2340", "locID": "LOC000029642932", "tech": "FTTN", "upgrade": "NULL_NA"}}, {"type": "Feature", "geometry": {"type": "Point", "coordinates": [150.93085649, -31.07817413]}, "properties": {"name": "106B PIPER STREET NORTH TAMWORTH 2340", "locID": "LOC000029958950", "tech": "FTTN", "upgrade": "NULL_NA"}}, {"type": "Feature", "geometry": {"type": "Point", "coordinates": [150.9309077, -31.07838406]}, "properties": {"name": "106C PIPER STREET NORTH TAMWORTH 2340", "locID": "LOC000029537950", "tech": "FTTN", "upgrade": "NULL_NA"}}, {"type": "Feature", "geometry": {"type": "Point", "coordinates": [150.92164597, -31.07541207]}, "properties": {"name": "107 JOHNSTON STREET NORTH TAMWORTH 2340", "locID": "LOC000063296460", "tech": "FTTN", "upgrade": "NULL_NA"}}, {"type": "Feature", "geometry": {"type": "Point", "coordinates": [150.91689014, -31.07749069]}, "properties": {"name": "107 PEEL STREET NORTH TAMWORTH 2340", "locID": "LOC000089404599", "tech": "FTTN", "upgrade": "NULL_NA"}}, {"type": "Feature", "geometry": {"type": "Point", "coordinates": [150.93266507, -31.07902022]}, "properties": {"name": "107 PIPER STREET NORTH TAMWORTH 2340", "locID": "LOC000035923284", "tech": "FTTN", "upgrade": "NULL_NA"}}, {"type": "Feature", "geometry": {"type": "Point", "coordinates": [150.91705298, -31.07411474]}, "properties": {"name": "108 JOHNSTON STREET NORTH TAMWORTH 2340", "locID": "LOC000009201595", "tech": "FTTN", "upgrade": "NULL_NA"}}, {"type": "Feature", "geometry": {"type": "Point", "coordinates": [150.92455322, -31.08076618]}, "properties": {"name": "108 MARIUS STREET NORTH TAMWORTH 2340", "locID": "LOC000087457040", "tech": "FTTN", "upgrade": "NULL_NA"}}, {"type": "Feature", "geometry": {"type": "Point", "coordinates": [150.93133583, -31.07818145]}, "properties": {"name": "108 PIPER STREET NORTH TAMWORTH 2340", "locID": "LOC000040374812", "tech": "FTTN", "upgrade": "NULL_NA"}}, {"type": "Feature", "geometry": {"type": "Point", "coordinates": [150.92133932, -31.04657489]}, "properties": {"name": "109 BROWNS LANE NORTH TAMWORTH 2340", "locID": "LOC000008142902", "tech": "WIRELESS", "upgrade": "NULL_NA"}}, {"type": "Feature", "geometry": {"type": "Point", "coordinates": [150.92184643, -31.07538729]}, "properties": {"name": "109 JOHNSTON STREET NORTH TAMWORTH 2340", "locID": "LOC000105731115", "tech": "FTTN", "upgrade": "NULL_NA"}}, {"type": "Feature", "geometry": {"type": "Point", "coordinates": [150.91748066, -31.07790063]}, "properties": {"name": "109 PEEL STREET NORTH TAMWORTH 2340", "locID": "LOC000013149517", "tech": "FTTN", "upgrade": "NULL_NA"}}, {"type": "Feature", "geometry": {"type": "Point", "coordinates": [150.93282228, -31.07904297]}, "properties": {"name": "109 PIPER STREET NORTH TAMWORTH 2340", "locID": "LOC000098320289", "tech": "FTTN", "upgrade": "NULL_NA"}}, {"type": "Feature", "geometry": {"type": "Point", "coordinates": [150.91214554, -31.07082139]}, "properties": {"name": "10A CONIMBLA CRESCENT NORTH TAMWORTH 2340", "locID": "LOC000120867773", "tech": "FTTN", "upgrade": "NULL_NA"}}, {"type": "Feature", "geometry": {"type": "Point", "coordinates": [150.91872529, -31.07575295]}, "properties": {"name": "10A GORMAN STREET NORTH TAMWORTH 2340", "locID": "LOC000152347795", "tech": "FTTN", "upgrade": "NULL_NA"}}, {"type": "Feature", "geometry": {"type": "Point", "coordinates": [150.92134231, -31.07991325]}, "properties": {"name": "10A JEWRY STREET NORTH TAMWORTH 2340", "locID": "LOC000120867794", "tech": "FTTN", "upgrade": "NULL_NA"}}, {"type": "Feature", "geometry": {"type": "Point", "coordinates": [150.91872529, -31.07575295]}, "properties": {"name": "10B GORMAN STREET NORTH TAMWORTH 2340", "locID": "LOC000120867804", "tech": "FTTN", "upgrade": "NULL_NA"}}, {"type": "Feature", "geometry": {"type": "Point", "coordinates": [150.9028933, -31.04758691]}, "properties": {"name": "11 ALSACE PLACE NORTH TAMWORTH 2340", "locID": "LOC000188360970", "tech": "FTTP", "upgrade": "NULL_NA"}}, {"type": "Feature", "geometry": {"type": "Point", "coordinates": [150.90650672, -31.07092676]}, "properties": {"name": "11 BELLAS WAY NORTH TAMWORTH 2340", "locID": "ChIJ3y99z9eeCmsRDiIlT8-ooHA", "tech": "FTTN", "upgrade": "UNKNOWN"}}, {"type": "Feature", "geometry": {"type": "Point", "coordinates": [150.93402103, -31.05614883]}, "properties": {"name": "11 BILOBA WAY NORTH TAMWORTH 2340", "locID": "LOC000010623014", "tech": "FTTN", "upgrade": "NULL_NA"}}, {"type": "Feature", "geometry": {"type": "Point", "coordinates": [150.92450484, -31.08045406]}, "properties": {"name": "11 BLIGH STREET NORTH TAMWORTH 2340", "locID": "LOC000077070676", "tech": "FTTN", "upgrade": "NULL_NA"}}, {"type": "Feature", "geometry": {"type": "Point", "coordinates": [150.94472865, -31.07479179]}, "properties": {"name": "11 BORROWDALE CLOSE NORTH TAMWORTH 2340", "locID": "LOC000167762675", "tech": "FTTP", "upgrade": "NULL_NA"}}, {"type": "Feature", "geometry": {"type": "Point", "coordinates": [150.91597133, -31.07187456]}, "properties": {"name": "11 BRADLEY PLACE NORTH TAMWORTH 2340", "locID": "LOC000033318887", "tech": "FTTN", "upgrade": "NULL_NA"}}, {"type": "Feature", "geometry": {"type": "Point", "coordinates": [150.93835079, -31.05458655]}, "properties": {"name": "11 BRUSHTAIL DRIVE NORTH TAMWORTH 2340", "locID": "LOC000120870755", "tech": "FTTN", "upgrade": "NULL_NA"}}, {"type": "Feature", "geometry": {"type": "Point", "coordinates": [150.92620213, -31.08033211]}, "properties": {"name": "11 CARTHAGE STREET NORTH TAMWORTH 2340", "locID": "LOC000079148353", "tech": "FTTN", "upgrade": "NULL_NA"}}, {"type": "Feature", "geometry": {"type": "Point", "coordinates": [150.93104443, -31.04957744]}, "properties": {"name": "11 CASUARINA DRIVE NORTH TAMWORTH 2340", "locID": "LOC000024155142", "tech": "FTTN", "upgrade": "NULL_NA"}}, {"type": "Feature", "geometry": {"type": "Point", "coordinates": [150.92951043, -31.07893016]}, "properties": {"name": "11 COHEN STREET NORTH TAMWORTH 2340", "locID": "LOC000056335970", "tech": "FTTN", "upgrade": "NULL_NA"}}, {"type": "Feature", "geometry": {"type": "Point", "coordinates": [150.911703, -31.07026856]}, "properties": {"name": "11 CONIMBLA CRESCENT NORTH TAMWORTH 2340", "locID": "LOC000039834835", "tech": "FTTN", "upgrade": "NULL_NA"}}, {"type": "Feature", "geometry": {"type": "Point", "coordinates": [150.91303989, -31.0713274]}, "properties": {"name": "11 CONWAY CLOSE NORTH TAMWORTH 2340", "locID": "LOC000173605116", "tech": "FTTP", "upgrade": "NULL_NA"}}, {"type": "Feature", "geometry": {"type": "Point", "coordinates": [150.91919354, -31.0773473]}, "properties": {"name": "11 COWPER CLOSE NORTH TAMWORTH 2340", "locID": "LOC000010872525", "tech": "FTTN", "upgrade": "NULL_NA"}}, {"type": "Feature", "geometry": {"type": "Point", "coordinates": [150.92293746, -31.07697182]}, "properties": {"name": "11 DEAN STREET NORTH TAMWORTH 2340", "locID": "LOC000096643710", "tech": "FTTN", "upgrade": "NULL_NA"}}, {"type": "Feature", "geometry": {"type": "Point", "coordinates": [150.93666483, -31.07487993]}, "properties": {"name": "11 DEKALB STREET NORTH TAMWORTH 2340", "locID": "LOC000028812941", "tech": "FTTN", "upgrade": "NULL_NA"}}, {"type": "Feature", "geometry": {"type": "Point", "coordinates": [150.93223698, -31.08178332]}, "properties": {"name": "11 DOWELL AVENUE NORTH TAMWORTH 2340", "locID": "LOC000072327339", "tech": "FTTN", "upgrade": "NULL_NA"}}, {"type": "Feature", "geometry": {"type": "Point", "coordinates": [150.93254485, -31.07977279]}, "properties": {"name": "11 ELIZABETH STREET NORTH TAMWORTH 2340", "locID": "LOC000047581337", "tech": "FTTN", "upgrade": "NULL_NA"}}, {"type": "Feature", "geometry": {"type": "Point", "coordinates": [150.91190923, -31.05102209]}, "properties": {"name": "11 EVESHAM CIRCUIT NORTH TAMWORTH 2340", "locID": "LOC000187496465", "tech": "FTTP", "upgrade": "NULL_NA"}}, {"type": "Feature", "geometry": {"type": "Point", "coordinates": [150.91053482, -31.05260972]}, "properties": {"name": "11 FARINGDON STREET NORTH TAMWORTH 2340", "locID": "LOC000144009667", "tech": "FTTP", "upgrade": "NULL_NA"}}, {"type": "Feature", "geometry": {"type": "Point", "coordinates": [150.93094765, -31.05109839]}, "properties": {"name": "11 FLAGSTAFF ROAD NORTH TAMWORTH 2340", "locID": "LOC000101747836", "tech": "FTTN", "upgrade": "NULL_NA"}}, {"type": "Feature", "geometry": {"type": "Point", "coordinates": [150.9091238, -31.07183117]}, "properties": {"name": "11 FRANCIS AVENUE NORTH TAMWORTH 2340", "locID": "LOC000192820449", "tech": "FTTN", "upgrade": "NULL_NA"}}, {"type": "Feature", "geometry": {"type": "Point", "coordinates": [150.91897306, -31.07574227]}, "properties": {"name": "11 GORMAN STREET NORTH TAMWORTH 2340", "locID": "ChIJTSLuIC6fCmsRZDo91q4mDqk", "tech": "FTTN", "upgrade": "UNKNOWN"}}, {"type": "Feature", "geometry": {"type": "Point", "coordinates": [150.91053032, -31.05159481]}, "properties": {"name": "11 GRAND MEADOWS DRIVE NORTH TAMWORTH 2340", "locID": "LOC000138557671", "tech": "FTTP", "upgrade": "NULL_NA"}}, {"type": "Feature", "geometry": {"type": "Point", "coordinates": [150.92509255, -31.08062467]}, "properties": {"name": "11 GRIFFIN AVENUE NORTH TAMWORTH 2340", "locID": "LOC000095781083", "tech": "FTTN", "upgrade": "NULL_NA"}}, {"type": "Feature", "geometry": {"type": "Point", "coordinates": [150.91051159, -31.04900744]}, "properties": {"name": "11 HANBURY PLACE NORTH TAMWORTH 2340", "locID": "LOC000066692644", "tech": "FTTN", "upgrade": "NULL_NA"}}, {"type": "Feature", "geometry": {"type": "Point", "coordinates": [150.91032672, -31.046831]}, "properties": {"name": "11 HOMESTEAD CIRCUIT NORTH TAMWORTH 2340", "locID": "LOC000187999175", "tech": "FTTP", "upgrade": "NULL_NA"}}, {"type": "Feature", "geometry": {"type": "Point", "coordinates": [150.93237568, -31.07901622]}, "properties": {"name": "11 HYMAN STREET NORTH TAMWORTH 2340", "locID": "LOC000110105353", "tech": "FTTN", "upgrade": "NULL_NA"}}, {"type": "Feature", "geometry": {"type": "Point", "coordinates": [150.91082383, -31.06956154]}, "properties": {"name": "11 KAPUTAR CLOSE NORTH TAMWORTH 2340", "locID": "LOC000152349040", "tech": "FTTN", "upgrade": "NULL_NA"}}, {"type": "Feature", "geometry": {"type": "Point", "coordinates": [150.91069527, -31.0519011]}, "properties": {"name": "11 KINGHAM STREET NORTH TAMWORTH 2340", "locID": "LOC000140577727", "tech": "FTTP", "upgrade": "NULL_NA"}}, {"type": "Feature", "geometry": {"type": "Point", "coordinates": [150.9114696, -31.07508198]}, "properties": {"name": "11 LAKE PLACE NORTH TAMWORTH 2340", "locID": "LOC000152351877", "tech": "FTTN", "upgrade": "NULL_NA"}}, {"type": "Feature", "geometry": {"type": "Point", "coordinates": [150.92882956, -31.08242049]}, "properties": {"name": "11 MACQUARIE STREET NORTH TAMWORTH 2340", "locID": "LOC000002242901", "tech": "FTTN", "upgrade": "NULL_NA"}}, {"type": "Feature", "geometry": {"type": "Point", "coordinates": [150.90832545, -31.07198383]}, "properties": {"name": "11 MCKAY PLACE NORTH TAMWORTH 2340", "locID": "LOC000192439344", "tech": "FTTN", "upgrade": "NULL_NA"}}, {"type": "Feature", "geometry": {"type": "Point", "coordinates": [150.9056328, -31.07434764]}, "properties": {"name": "11 MULCONDA CLOSE NORTH TAMWORTH 2340", "locID": "LOC000017553219", "tech": "FTTN", "upgrade": "NULL_NA"}}, {"type": "Feature", "geometry": {"type": "Point", "coordinates": [150.93301874, -31.08110688]}, "properties": {"name": "11 NAPIER STREET NORTH TAMWORTH 2340", "locID": "LOC000027216001", "tech": "FTTN", "upgrade": "NULL_NA"}}, {"type": "Feature", "geometry": {"type": "Point", "coordinates": [150.92709975, -31.07989178]}, "properties": {"name": "11 NORTH STREET NORTH TAMWORTH 2340", "locID": "LOC000066692644", "tech": "FTTN", "upgrade": "NULL_NA"}}, {"type": "Feature", "geometry": {"type": "Point", "coordinates": [150.91758794, -31.07116733]}, "properties": {"name": "11 OLIVER STREET NORTH TAMWORTH 2340", "locID": "LOC100074348243", "tech": "FTTN", "upgrade": "NULL_NA"}}, {"type": "Feature", "geometry": {"type": "Point", "coordinates": [150.92728571, -31.07744301]}, "properties": {"name": "11 OXLEY STREET NORTH TAMWORTH 2340", "locID": "LOC000012183210", "tech": "FTTN", "upgrade": "NULL_NA"}}, {"type": "Feature", "geometry": {"type": "Point", "coordinates": [150.92104278, -31.07628136]}, "properties": {"name": "11 PATTERSON STREET NORTH TAMWORTH 2340", "locID": "LOC000059140407", "tech": "FTTN", "upgrade": "NULL_NA"}}, {"type": "Feature", "geometry": {"type": "Point", "coordinates": [150.90997009, -31.07118037]}, "properties": {"name": "11 PEEL STREET NORTH TAMWORTH 2340", "locID": "LOC000019001440", "tech": "FTTN", "upgrade": "NULL_NA"}}, {"type": "Feature", "geometry": {"type": "Point", "coordinates": [150.91955332, -31.07712149]}, "properties": {"name": "11 PIPER STREET NORTH TAMWORTH 2340", "locID": "LOC000047126335", "tech": "FTTN", "upgrade": "NULL_NA"}}, {"type": "Feature", "geometry": {"type": "Point", "coordinates": [150.9286989, -31.08111499]}, "properties": {"name": "11 RAWSON AVENUE NORTH TAMWORTH 2340", "locID": "LOC000003162659", "tech": "FTTN", "upgrade": "NULL_NA"}}, {"type": "Feature", "geometry": {"type": "Point", "coordinates": [150.90744845, -31.05218558]}, "properties": {"name": "11 RIESLING ROAD NORTH TAMWORTH 2340", "locID": "LOC000027129050", "tech": "NULL", "upgrade": "NULL_NA"}}, {"type": "Feature", "geometry": {"type": "Point", "coordinates": [150.91428988, -31.07559506]}, "properties": {"name": "11 RIVERVIEW STREET NORTH TAMWORTH 2340", "locID": "LOC000031264872", "tech": "FTTN", "upgrade": "NULL_NA"}}, {"type": "Feature", "geometry": {"type": "Point", "coordinates": [150.94396723, -31.07341371]}, "properties": {"name": "11 SCARBOROUGH CLOSE NORTH TAMWORTH 2340", "locID": "LOC000153459885", "tech": "FTTP", "upgrade": "NULL_NA"}}, {"type": "Feature", "geometry": {"type": "Point", "coordinates": [150.90547269, -31.05222705]}, "properties": {"name": "11 SEMILLON DRIVE NORTH TAMWORTH 2340", "locID": "LOC000120870857", "tech": "NULL", "upgrade": "NULL_NA"}}, {"type": "Feature", "geometry": {"type": "Point", "coordinates": [150.91501191, -31.05321921]}, "properties": {"name": "11 SHERBORNE STREET NORTH TAMWORTH 2340", "locID": "LOC000170655817", "tech": "FTTP", "upgrade": "NULL_NA"}}, {"type": "Feature", "geometry": {"type": "Point", "coordinates": [150.90659247, -31.05143985]}, "properties": {"name": "11 SHIRAZ ROAD NORTH TAMWORTH 2340", "locID": "LOC000152348423", "tech": "NULL", "upgrade": "NULL_NA"}}, {"type": "Feature", "geometry": {"type": "Point", "coordinates": [150.91078713, -31.07289382]}, "properties": {"name": "11 SWAN STREET NORTH TAMWORTH 2340", "locID": "LOC000169771608", "tech": "FTTN", "upgrade": "NULL_NA"}}, {"type": "Feature", "geometry": {"type": "Point", "coordinates": [150.933211, -31.07552014]}, "properties": {"name": "11 TEROLE AVENUE NORTH TAMWORTH 2340", "locID": "LOC000044279865", "tech": "FTTN", "upgrade": "NULL_NA"}}, {"type": "Feature", "geometry": {"type": "Point", "coordinates": [150.90149722, -31.04671972]}, "properties": {"name": "11 TRAMINER DRIVE NORTH TAMWORTH 2340", "locID": "ChIJWwAlVfueCmsRtonsFQO052g", "tech": "FTTP", "upgrade": "UNKNOWN"}}, {"type": "Feature", "geometry": {"type": "Point", "coordinates": [150.90175719, -31.04591116]}, "properties": {"name": "11 TUSCANY BOULEVARD NORTH TAMWORTH 2340", "locID": "LOC000181005295", "tech": "FTTP", "upgrade": "NULL_NA"}}, {"type": "Feature", "geometry": {"type": "Point", "coordinates": [150.9296657, -31.0807719]}, "properties": {"name": "11 UPPER STREET NORTH TAMWORTH 2340", "locID": "LOC000090066340", "tech": "FTTN", "upgrade": "NULL_NA"}}, {"type": "Feature", "geometry": {"type": "Point", "coordinates": [150.90755043, -31.05122793]}, "properties": {"name": "11 VERDELHO DRIVE NORTH TAMWORTH 2340", "locID": "LOC000114301421", "tech": "NULL", "upgrade": "NULL_NA"}}, {"type": "Feature", "geometry": {"type": "Point", "coordinates": [150.93407049, -31.0774719]}, "properties": {"name": "11 VICTORIA STREET NORTH TAMWORTH 2340", "locID": "LOC000008263628", "tech": "FTTN", "upgrade": "NULL_NA"}}, {"type": "Feature", "geometry": {"type": "Point", "coordinates": [150.91031997, -31.07045577]}, "properties": {"name": "11 WARRUMBUNGLE CLOSE NORTH TAMWORTH 2340", "locID": "LOC000082499699", "tech": "FTTN", "upgrade": "NULL_NA"}}, {"type": "Feature", "geometry": {"type": "Point", "coordinates": [150.91352597, -31.07028937]}, "properties": {"name": "11 WOLLEMI CLOSE NORTH TAMWORTH 2340", "locID": "LOC000179446531", "tech": "FTTP", "upgrade": "NULL_NA"}}, {"type": "Feature", "geometry": {"type": "Point", "coordinates": [150.91729017, -31.07421323]}, "properties": {"name": "110 JOHNSTON STREET NORTH TAMWORTH 2340", "locID": "LOC000032969844", "tech": "FTTN", "upgrade": "NULL_NA"}}, {"type": "Feature", "geometry": {"type": "Point", "coordinates": [150.92468263, -31.08090578]}, "properties": {"name": "110 MARIUS STREET NORTH TAMWORTH 2340", "locID": "LOC000066472368", "tech": "FTTN", "upgrade": "NULL_NA"}}, {"type": "Feature", "geometry": {"type": "Point", "coordinates": [150.93139051, -31.07994583]}, "properties": {"name": "110 NORTH STREET NORTH TAMWORTH 2340", "locID": "LOC000109685602", "tech": "FTTN", "upgrade": "NULL_NA"}}, {"type": "Feature", "geometry": {"type": "Point", "coordinates": [150.93150722, -31.07820656]}, "properties": {"name": "110 PIPER STREET NORTH TAMWORTH 2340", "locID": "LOC000016310558", "tech": "FTTN", "upgrade": "NULL_NA"}}, {"type": "Feature", "geometry": {"type": "Point", "coordinates": [150.90029093, -31.04454792]}, "properties": {"name": "110 VERDELHO DRIVE NORTH TAMWORTH 2340", "locID": "LOC000143659005", "tech": "FTTP", "upgrade": "NULL_NA"}}, {"type": "Feature", "geometry": {"type": "Point", "coordinates": [150.92200488, -31.07540969]}, "properties": {"name": "111 JOHNSTON STREET NORTH TAMWORTH 2340", "locID": "LOC000081871958", "tech": "FTTN", "upgrade": "NULL_NA"}}, {"type": "Feature", "geometry": {"type": "Point", "coordinates": [150.93298025, -31.07906582]}, "properties": {"name": "111 PIPER STREET NORTH TAMWORTH 2340", "locID": "LOC000072342725", "tech": "FTTN", "upgrade": "NULL_NA"}}, {"type": "Feature", "geometry": {"type": "Point", "coordinates": [150.89949314, -31.04495383]}, "properties": {"name": "111 VERDELHO DRIVE NORTH TAMWORTH 2340", "locID": "LOC000159426636", "tech": "FTTP", "upgrade": "NULL_NA"}}, {"type": "Feature", "geometry": {"type": "Point", "coordinates": [150.92200488, -31.07540969]}, "properties": {"name": "111B JOHNSTON STREET NORTH TAMWORTH 2340", "locID": "LOC000081871958", "tech": "FTTN", "upgrade": "NULL_NA"}}, {"type": "Feature", "geometry": {"type": "Point", "coordinates": [150.9189868, -31.07294063]}, "properties": {"name": "112 JOHNSTON STREET NORTH TAMWORTH 2340", "locID": "LOC000152341948", "tech": "FTTN", "upgrade": "NULL_NA"}}, {"type": "Feature", "geometry": {"type": "Point", "coordinates": [150.92485138, -31.08102475]}, "properties": {"name": "112 MARIUS STREET NORTH TAMWORTH 2340", "locID": "LOC000051534271", "tech": "FTTN", "upgrade": "NULL_NA"}}, {"type": "Feature", "geometry": {"type": "Point", "coordinates": [150.93166742, -31.07836468]}, "properties": {"name": "112 PIPER STREET NORTH TAMWORTH 2340", "locID": "LOC000097525982", "tech": "FTTN", "upgrade": "NULL_NA"}}, {"type": "Feature", "geometry": {"type": "Point", "coordinates": [150.90042354, -31.0443893]}, "properties": {"name": "112 VERDELHO DRIVE NORTH TAMWORTH 2340", "locID": "LOC000143658999", "tech": "FTTP", "upgrade": "NULL_NA"}}, {"type": "Feature", "geometry": {"type": "Point", "coordinates": [150.92216056, -31.07543171]}, "properties": {"name": "113 JOHNSTON STREET NORTH TAMWORTH 2340", "locID": "LOC000037368254", "tech": "FTTN", "upgrade": "NULL_NA"}}, {"type": "Feature", "geometry": {"type": "Point", "coordinates": [150.93316343, -31.07909232]}, "properties": {"name": "113 PIPER STREET NORTH TAMWORTH 2340", "locID": "LOC000080866764", "tech": "FTTN", "upgrade": "NULL_NA"}}, {"type": "Feature", "geometry": {"type": "Point", "coordinates": [150.89953244, -31.04480033]}, "properties": {"name": "113 VERDELHO DRIVE NORTH TAMWORTH 2340", "locID": "LOC000159426627", "tech": "FTTP", "upgrade": "NULL_NA"}}, {"type": "Feature", "geometry": {"type": "Point", "coordinates": [150.92483572, -31.08123418]}, "properties": {"name": "114 MARIUS STREET NORTH TAMWORTH 2340", "locID": "LOC000079024841", "tech": "FTTN", "upgrade": "NULL_NA"}}, {"type": "Feature", "geometry": {"type": "Point", "coordinates": [150.93163065, -31.07997697]}, "properties": {"name": "114 NORTH STREET NORTH TAMWORTH 2340", "locID": "LOC000098845907", "tech": "FTTN", "upgrade": "NULL_NA"}}, {"type": "Feature", "geometry": {"type": "Point", "coordinates": [150.93192747, -31.07842346]}, "properties": {"name": "114 PIPER STREET NORTH TAMWORTH 2340", "locID": "LOC000105146644", "tech": "FTTN", "upgrade": "NULL_NA"}}, {"type": "Feature", "geometry": {"type": "Point", "coordinates": [150.90048294, -31.0442504]}, "properties": {"name": "114 VERDELHO DRIVE NORTH TAMWORTH 2340", "locID": "LOC000143658981", "tech": "FTTP", "upgrade": "NULL_NA"}}, {"type": "Feature", "geometry": {"type": "Point", "coordinates": [150.91965211, -31.07902296]}, "properties": {"name": "114-116 PEEL STREET NORTH TAMWORTH 2340", "locID": "ChIJD_ydcTKfCmsRaHdS8nIRKbE", "tech": "FTTP", "upgrade": "UNKNOWN"}}, {"type": "Feature", "geometry": {"type": "Point", "coordinates": [150.91965211, -31.07902296]}, "properties": {"name": "114-122 PEEL STREET NORTH TAMWORTH 2340", "locID": "LOC000189197174", "tech": "FTTP", "upgrade": "NULL_NA"}}, {"type": "Feature", "geometry": {"type": "Point", "coordinates": [150.92483572, -31.08123418]}, "properties": {"name": "114A MARIUS STREET NORTH TAMWORTH 2340", "locID": "LOC000152344925", "tech": "FTTN", "upgrade": "NULL_NA"}}, {"type": "Feature", "geometry": {"type": "Point", "coordinates": [150.92517121, -31.08103188]}, "properties": {"name": "114B MARIUS STREET NORTH TAMWORTH 2340", "locID": "LOC000079024841", "tech": "FTTN", "upgrade": "NULL_NA"}}, {"type": "Feature", "geometry": {"type": "Point", "coordinates": [150.92231453, -31.07545349]}, "properties": {"name": "115 JOHNSTON STREET NORTH TAMWORTH 2340", "locID": "LOC000027854669", "tech": "FTTN", "upgrade": "NULL_NA"}}, {"type": "Feature", "geometry": {"type": "Point", "coordinates": [150.91808292, -31.0788945]}, "properties": {"name": "115 PEEL STREET NORTH TAMWORTH 2340", "locID": "ChIJExnBkC2fCmsRPGHlW8bSsQc", "tech": "FTTN", "upgrade": "UNKNOWN"}}, {"type": "Feature", "geometry": {"type": "Point", "coordinates": [150.93335556, -31.07912011]}, "properties": {"name": "115 PIPER STREET NORTH TAMWORTH 2340", "locID": "LOC000066772170", "tech": "FTTN", "upgrade": "NULL_NA"}}, {"type": "Feature", "geometry": {"type": "Point", "coordinates": [150.92497892, -31.08144342]}, "properties": {"name": "116 MARIUS STREET NORTH TAMWORTH 2340", "locID": "LOC000028791624", "tech": "FTTN", "upgrade": "NULL_NA"}}, {"type": "Feature", "geometry": {"type": "Point", "coordinates": [150.93207165, -31.08005364]}, "properties": {"name": "116 NORTH STREET NORTH TAMWORTH 2340", "locID": "LOC000061456046", "tech": "FTTN", "upgrade": "NULL_NA"}}, {"type": "Feature", "geometry": {"type": "Point", "coordinates": [150.93239108, -31.07844617]}, "properties": {"name": "116 PIPER STREET NORTH TAMWORTH 2340", "locID": "LOC000055426466", "tech": "FTTN", "upgrade": "NULL_NA"}}, {"type": "Feature", "geometry": {"type": "Point", "coordinates": [150.90055985, -31.04410666]}, "properties": {"name": "116 VERDELHO DRIVE NORTH TAMWORTH 2340", "locID": "LOC000143658975", "tech": "FTTP", "upgrade": "NULL_NA"}}, {"type": "Feature", "geometry": {"type": "Point", "coordinates": [150.92348492, -31.075607]}, "properties": {"name": "117 JOHNSTON STREET NORTH TAMWORTH 2340", "locID": "LOC000060941587", "tech": "FTTN", "upgrade": "NULL_NA"}}, {"type": "Feature", "geometry": {"type": "Point", "coordinates": [150.93354074, -31.0791469]}, "properties": {"name": "117 PIPER STREET NORTH TAMWORTH 2340", "locID": "LOC000093342679", "tech": "FTTN", "upgrade": "NULL_NA"}}, {"type": "Feature", "geometry": {"type": "Point", "coordinates": [150.93227449, -31.08008249]}, "properties": {"name": "118 NORTH STREET NORTH TAMWORTH 2340", "locID": "LOC000067514205", "tech": "FTTN", "upgrade": "NULL_NA"}}, {"type": "Feature", "geometry": {"type": "Point", "coordinates": [150.93260585, -31.07847768]}, "properties": {"name": "118 PIPER STREET NORTH TAMWORTH 2340", "locID": "LOC000035581771", "tech": "FTTN", "upgrade": "NULL_NA"}}, {"type": "Feature", "geometry": {"type": "Point", "coordinates": [150.90062527, -31.04395164]}, "properties": {"name": "118 VERDELHO DRIVE NORTH TAMWORTH 2340", "locID": "LOC000143658968", "tech": "FTTP", "upgrade": "NULL_NA"}}, {"type": "Feature", "geometry": {"type": "Point", "coordinates": [150.92366912, -31.07561823]}, "properties": {"name": "119 JOHNSTON STREET NORTH TAMWORTH 2340", "locID": "LOC000045884168", "tech": "FTTN", "upgrade": "NULL_NA"}}, {"type": "Feature", "geometry": {"type": "Point", "coordinates": [150.91869082, -31.07952475]}, "properties": {"name": "119 PEEL STREET NORTH TAMWORTH 2340", "locID": "ChIJP_nlgy2fCmsRSdfJkSYMDI8", "tech": "FTTN", "upgrade": "UNKNOWN"}}, {"type": "Feature", "geometry": {"type": "Point", "coordinates": [150.93374268, -31.07917611]}, "properties": {"name": "119 PIPER STREET NORTH TAMWORTH 2340", "locID": "LOC000032383807", "tech": "FTTN", "upgrade": "NULL_NA"}}, {"type": "Feature", "geometry": {"type": "Point", "coordinates": [150.92293746, -31.07697182]}, "properties": {"name": "11A DEAN STREET NORTH TAMWORTH 2340", "locID": "ChIJCzrabDGfCmsR60VuMjQi5G4", "tech": "FTTN", "upgrade": "UNKNOWN"}}, {"type": "Feature", "geometry": {"type": "Point", "coordinates": [150.9114696, -31.07508198]}, "properties": {"name": "11A LAKE PLACE NORTH TAMWORTH 2340", "locID": "LOC000181193016", "tech": "FTTN", "upgrade": "NULL_NA"}}, {"type": "Feature", "geometry": {"type": "Point", "coordinates": [150.92849714, -31.08125549]}, "properties": {"name": "11A RAWSON AVENUE NORTH TAMWORTH 2340", "locID": "ChIJDz-zsDWfCmsRMzX1xRFD2hw", "tech": "FTTN", "upgrade": "UNKNOWN"}}, {"type": "Feature", "geometry": {"type": "Point", "coordinates": [150.90248695, -31.04794099]}, "properties": {"name": "12 ALSACE PLACE NORTH TAMWORTH 2340", "locID": "LOC000188361030", "tech": "FTTP", "upgrade": "NULL_NA"}}, {"type": "Feature", "geometry": {"type": "Point", "coordinates": [150.92344325, -31.07629524]}, "properties": {"name": "12 BARTON LANE NORTH TAMWORTH 2340", "locID": "LOC000003901696", "tech": "FTTN", "upgrade": "NULL_NA"}}, {"type": "Feature", "geometry": {"type": "Point", "coordinates": [150.90658501, -31.0703662]}, "properties": {"name": "12 BELLAS WAY NORTH TAMWORTH 2340", "locID": "LOC000180883867", "tech": "FTTP", "upgrade": "NULL_NA"}}, {"type": "Feature", "geometry": {"type": "Point", "coordinates": [150.93094497, -31.05694704]}, "properties": {"name": "12 BILOBA WAY NORTH TAMWORTH 2340", "locID": "LOC000029105412", "tech": "FTTN", "upgrade": "NULL_NA"}}, {"type": "Feature", "geometry": {"type": "Point", "coordinates": [150.94249288, -31.07500101]}, "properties": {"name": "12 BORROWDALE CLOSE NORTH TAMWORTH 2340", "locID": "LOC000167762337", "tech": "FTTP", "upgrade": "NULL_NA"}}, {"type": "Feature", "geometry": {"type": "Point", "coordinates": [150.91650253, -31.07231287]}, "properties": {"name": "12 BRADLEY PLACE NORTH TAMWORTH 2340", "locID": "LOC000060160838", "tech": "FTTN", "upgrade": "NULL_NA"}}, {"type": "Feature", "geometry": {"type": "Point", "coordinates": [150.92252909, -31.08062585]}, "properties": {"name": "12 BREWERY LANE NORTH TAMWORTH 2340", "locID": "LOC000089404974", "tech": "FTTN", "upgrade": "NULL_NA"}}, {"type": "Feature", "geometry": {"type": "Point", "coordinates": [150.93568394, -31.05463995]}, "properties": {"name": "12 BRUSHTAIL DRIVE NORTH TAMWORTH 2340", "locID": "LOC000120876813", "tech": "FTTN", "upgrade": "NULL_NA"}}, {"type": "Feature", "geometry": {"type": "Point", "coordinates": [150.9270521, -31.08034981]}, "properties": {"name": "12 CARTHAGE STREET NORTH TAMWORTH 2340", "locID": "LOC000074698810", "tech": "FTTN", "upgrade": "NULL_NA"}}, {"type": "Feature", "geometry": {"type": "Point", "coordinates": [150.92915474, -31.04978436]}, "properties": {"name": "12 CASUARINA DRIVE NORTH TAMWORTH 2340", "locID": "LOC000099476970", "tech": "FTTN", "upgrade": "NULL_NA"}}, {"type": "Feature", "geometry": {"type": "Point", "coordinates": [150.92896691, -31.07859545]}, "properties": {"name": "12 COHEN STREET NORTH TAMWORTH 2340", "locID": "LOC000033927070", "tech": "FTTN", "upgrade": "NULL_NA"}}, {"type": "Feature", "geometry": {"type": "Point", "coordinates": [150.91218961, -31.0706798]}, "properties": {"name": "12 CONIMBLA CRESCENT NORTH TAMWORTH 2340", "locID": "LOC000049549258", "tech": "FTTN", "upgrade": "NULL_NA"}}, {"type": "Feature", "geometry": {"type": "Point", "coordinates": [150.91249426, -31.07167864]}, "properties": {"name": "12 CONWAY CLOSE NORTH TAMWORTH 2340", "locID": "LOC000173605128", "tech": "FTTP", "upgrade": "NULL_NA"}}, {"type": "Feature", "geometry": {"type": "Point", "coordinates": [150.91903823, -31.07787939]}, "properties": {"name": "12 COWPER CLOSE NORTH TAMWORTH 2340", "locID": "LOC000081128376", "tech": "FTTN", "upgrade": "NULL_NA"}}, {"type": "Feature", "geometry": {"type": "Point", "coordinates": [150.93667697, -31.07517027]}, "properties": {"name": "12 DARUKA ROAD NORTH TAMWORTH 2340", "locID": "LOC000055761643", "tech": "FTTN", "upgrade": "NULL_NA"}}, {"type": "Feature", "geometry": {"type": "Point", "coordinates": [150.92241485, -31.07680223]}, "properties": {"name": "12 DEAN STREET NORTH TAMWORTH 2340", "locID": "LOC000029808289", "tech": "FTTN", "upgrade": "NULL_NA"}}, {"type": "Feature", "geometry": {"type": "Point", "coordinates": [150.93717816, -31.07440676]}, "properties": {"name": "12 DEKALB STREET NORTH TAMWORTH 2340", "locID": "LOC000045275831", "tech": "FTTN", "upgrade": "NULL_NA"}}, {"type": "Feature", "geometry": {"type": "Point", "coordinates": [150.93280534, -31.08145589]}, "properties": {"name": "12 DOWELL AVENUE NORTH TAMWORTH 2340", "locID": "LOC000069379763", "tech": "FTTN", "upgrade": "NULL_NA"}}, {"type": "Feature", "geometry": {"type": "Point", "coordinates": [150.93275322, -31.07937995]}, "properties": {"name": "12 ELIZABETH STREET NORTH TAMWORTH 2340", "locID": "LOC000101844045", "tech": "FTTN", "upgrade": "NULL_NA"}}, {"type": "Feature", "geometry": {"type": "Point", "coordinates": [150.93662416, -31.07318656]}, "properties": {"name": "12 ERROL PLACE NORTH TAMWORTH 2340", "locID": "LOC000093341655", "tech": "FTTN", "upgrade": "NULL_NA"}}, {"type": "Feature", "geometry": {"type": "Point", "coordinates": [150.91265051, -31.05063002]}, "properties": {"name": "12 EVESHAM CIRCUIT NORTH TAMWORTH 2340", "locID": "LOC000187496514", "tech": "FTTP", "upgrade": "NULL_NA"}}, {"type": "Feature", "geometry": {"type": "Point", "coordinates": [150.90911826, -31.05285293]}, "properties": {"name": "12 FARINGDON STREET NORTH TAMWORTH 2340", "locID": "LOC000171294727", "tech": "FTTP", "upgrade": "NULL_NA"}}, {"type": "Feature", "geometry": {"type": "Point", "coordinates": [150.93041603, -31.05208911]}, "properties": {"name": "12 FLAGSTAFF ROAD NORTH TAMWORTH 2340", "locID": "LOC000179269596", "tech": "FTTP", "upgrade": "NULL_NA"}}, {"type": "Feature", "geometry": {"type": "Point", "coordinates": [150.90989785, -31.07273706]}, "properties": {"name": "12 FRANCIS AVENUE NORTH TAMWORTH 2340", "locID": "LOC100075206405", "tech": "FTTN", "upgrade": "NULL_NA"}}, {"type": "Feature", "geometry": {"type": "Point", "coordinates": [150.9187592, -31.07557259]}, "properties": {"name": "12 GORMAN STREET NORTH TAMWORTH 2340", "locID": "LOC000059112380", "tech": "FTTN", "upgrade": "NULL_NA"}}, {"type": "Feature", "geometry": {"type": "Point", "coordinates": [150.91067019, -31.05114984]}, "properties": {"name": "12 GRAND MEADOWS DRIVE NORTH TAMWORTH 2340", "locID": "LOC000190374501", "tech": "FTTP", "upgrade": "NULL_NA"}}, {"type": "Feature", "geometry": {"type": "Point", "coordinates": [150.92597602, -31.08088562]}, "properties": {"name": "12 GRIFFIN AVENUE NORTH TAMWORTH 2340", "locID": "LOC000056841802", "tech": "FTTN", "upgrade": "NULL_NA"}}, {"type": "Feature", "geometry": {"type": "Point", "coordinates": [150.91076246, -31.04849477]}, "properties": {"name": "12 HANBURY PLACE NORTH TAMWORTH 2340", "locID": "LOC000002252097", "tech": "FTTN", "upgrade": "NULL_NA"}}, {"type": "Feature", "geometry": {"type": "Point", "coordinates": [150.91142035, -31.0473519]}, "properties": {"name": "12 HOMESTEAD CIRCUIT NORTH TAMWORTH 2340", "locID": "LOC000002252097", "tech": "FTTN", "upgrade": "NULL_NA"}}, {"type": "Feature", "geometry": {"type": "Point", "coordinates": [150.93173303, -31.07788949]}, "properties": {"name": "12 HYMAN STREET NORTH TAMWORTH 2340", "locID": "LOC000046471832", "tech": "FTTN", "upgrade": "NULL_NA"}}, {"type": "Feature", "geometry": {"type": "Point", "coordinates": [150.91075383, -31.04812246]}, "properties": {"name": "12 IDYLLIC STREET NORTH TAMWORTH 2340", "locID": "LOC000187999238", "tech": "FTTP", "upgrade": "NULL_NA"}}, {"type": "Feature", "geometry": {"type": "Point", "coordinates": [150.92153754, -31.0797939]}, "properties": {"name": "12 JEWRY STREET NORTH TAMWORTH 2340", "locID": "LOC000092014683", "tech": "FTTN", "upgrade": "NULL_NA"}}, {"type": "Feature", "geometry": {"type": "Point", "coordinates": [150.91168606, -31.06900096]}, "properties": {"name": "12 KAPUTAR CLOSE NORTH TAMWORTH 2340", "locID": "LOC000152348959", "tech": "FTTN", "upgrade": "NULL_NA"}}, {"type": "Feature", "geometry": {"type": "Point", "coordinates": [150.91080157, -31.05236383]}, "properties": {"name": "12 KINGHAM STREET NORTH TAMWORTH 2340", "locID": "LOC000140577893", "tech": "FTTP", "upgrade": "NULL_NA"}}, {"type": "Feature", "geometry": {"type": "Point", "coordinates": [150.9118591, -31.07616229]}, "properties": {"name": "12 LAKE PLACE NORTH TAMWORTH 2340", "locID": "LOC000152351808", "tech": "FTTN", "upgrade": "NULL_NA"}}, {"type": "Feature", "geometry": {"type": "Point", "coordinates": [150.89946707, -31.04556539]}, "properties": {"name": "12 LAMBRUSCO WAY NORTH TAMWORTH 2340", "locID": "LOC000159426658", "tech": "FTTP", "upgrade": "NULL_NA"}}, {"type": "Feature", "geometry": {"type": "Point", "coordinates": [150.92452624, -31.08340511]}, "properties": {"name": "12 MACQUARIE STREET NORTH TAMWORTH 2340", "locID": "LOC000105354021", "tech": "FTTN", "upgrade": "NULL_NA"}}, {"type": "Feature", "geometry": {"type": "Point", "coordinates": [150.90889178, -31.07180071]}, "properties": {"name": "12 MCKAY PLACE NORTH TAMWORTH 2340", "locID": "LOC000152352971", "tech": "FTTN", "upgrade": "NULL_NA"}}, {"type": "Feature", "geometry": {"type": "Point", "coordinates": [150.90793714, -31.0716645]}, "properties": {"name": "12 MULCONDA CLOSE NORTH TAMWORTH 2340", "locID": "LOC000018049322", "tech": "FTTN", "upgrade": "NULL_NA"}}, {"type": "Feature", "geometry": {"type": "Point", "coordinates": [150.92345014, -31.0784214]}, "properties": {"name": "12 NORTH STREET NORTH TAMWORTH 2340", "locID": "LOC000002252097", "tech": "FTTN", "upgrade": "NULL_NA"}}, {"type": "Feature", "geometry": {"type": "Point", "coordinates": [150.92475664, -31.08215384]}, "properties": {"name": "12 O'CONNELL STREET NORTH TAMWORTH 2340", "locID": "LOC000036727752", "tech": "FTTN", "upgrade": "NULL_NA"}}, {"type": "Feature", "geometry": {"type": "Point", "coordinates": [150.91662446, -31.07110849]}, "properties": {"name": "12 OLIVER STREET NORTH TAMWORTH 2340", "locID": "LOC000152352565", "tech": "FTTN", "upgrade": "NULL_NA"}}, {"type": "Feature", "geometry": {"type": "Point", "coordinates": [150.9275846, -31.07678295]}, "properties": {"name": "12 OXLEY STREET NORTH TAMWORTH 2340", "locID": "LOC000025067772", "tech": "FTTN", "upgrade": "NULL_NA"}}, {"type": "Feature", "geometry": {"type": "Point", "coordinates": [150.921142, -31.07572186]}, "properties": {"name": "12 PATTERSON STREET NORTH TAMWORTH 2340", "locID": "LOC000023891830", "tech": "FTTN", "upgrade": "NULL_NA"}}, {"type": "Feature", "geometry": {"type": "Point", "coordinates": [150.91839436, -31.0761579]}, "properties": {"name": "12 PIPER STREET NORTH TAMWORTH 2340", "locID": "LOC000167840057", "tech": "FTTN", "upgrade": "NULL_NA"}}, {"type": "Feature", "geometry": {"type": "Point", "coordinates": [150.92948409, -31.08122429]}, "properties": {"name": "12 RAWSON AVENUE NORTH TAMWORTH 2340", "locID": "LOC000010384123", "tech": "FTTN", "upgrade": "NULL_NA"}}, {"type": "Feature", "geometry": {"type": "Point", "coordinates": [150.90686796, -31.0521013]}, "properties": {"name": "12 RIESLING ROAD NORTH TAMWORTH 2340", "locID": "LOC000008910807", "tech": "NULL", "upgrade": "NULL_NA"}}, {"type": "Feature", "geometry": {"type": "Point", "coordinates": [150.91435599, -31.07641853]}, "properties": {"name": "12 RIVERVIEW STREET NORTH TAMWORTH 2340", "locID": "LOC000013914841", "tech": "FTTN", "upgrade": "NULL_NA"}}, {"type": "Feature", "geometry": {"type": "Point", "coordinates": [150.94400658, -31.07445642]}, "properties": {"name": "12 SCARBOROUGH CLOSE NORTH TAMWORTH 2340", "locID": "LOC000167762274", "tech": "FTTP", "upgrade": "NULL_NA"}}, {"type": "Feature", "geometry": {"type": "Point", "coordinates": [150.90530327, -31.05321159]}, "properties": {"name": "12 SEMILLON DRIVE NORTH TAMWORTH 2340", "locID": "LOC000120876953", "tech": "NULL", "upgrade": "NULL_NA"}}, {"type": "Feature", "geometry": {"type": "Point", "coordinates": [150.91523826, -31.05370345]}, "properties": {"name": "12 SHERBORNE STREET NORTH TAMWORTH 2340", "locID": "LOC000170655575", "tech": "FTTP", "upgrade": "NULL_NA"}}, {"type": "Feature", "geometry": {"type": "Point", "coordinates": [150.905829, -31.05246834]}, "properties": {"name": "12 SHIRAZ ROAD NORTH TAMWORTH 2340", "locID": "LOC000152348097", "tech": "NULL", "upgrade": "NULL_NA"}}, {"type": "Feature", "geometry": {"type": "Point", "coordinates": [150.91119296, -31.07428173]}, "properties": {"name": "12 SWAN STREET NORTH TAMWORTH 2340", "locID": "ChIJ0XPqbSmfCmsR6XogFketPIM", "tech": "FTTN", "upgrade": "UNKNOWN"}}, {"type": "Feature", "geometry": {"type": "Point", "coordinates": [150.93409586, -31.07455552]}, "properties": {"name": "12 TEROLE AVENUE NORTH TAMWORTH 2340", "locID": "LOC000074961275", "tech": "FTTN", "upgrade": "NULL_NA"}}, {"type": "Feature", "geometry": {"type": "Point", "coordinates": [150.90225463, -31.04659848]}, "properties": {"name": "12 TRAMINER DRIVE NORTH TAMWORTH 2340", "locID": "ChIJEd56rvyeCmsR7C83ij73iFs", "tech": "FTTP", "upgrade": "UNKNOWN"}}, {"type": "Feature", "geometry": {"type": "Point", "coordinates": [150.90119559, -31.04579729]}, "properties": {"name": "12 TUSCANY BOULEVARD NORTH TAMWORTH 2340", "locID": "LOC000181005426", "tech": "FTTP", "upgrade": "NULL_NA"}}, {"type": "Feature", "geometry": {"type": "Point", "coordinates": [150.93143641, -31.08162511]}, "properties": {"name": "12 UPPER STREET NORTH TAMWORTH 2340", "locID": "LOC000026470422", "tech": "FTTN", "upgrade": "NULL_NA"}}, {"type": "Feature", "geometry": {"type": "Point", "coordinates": [150.91617486, -31.07363356]}, "properties": {"name": "12 VENTNOR DRIVE NORTH TAMWORTH 2340", "locID": "LOC000089481587", "tech": "FTTN", "upgrade": "NULL_NA"}}, {"type": "Feature", "geometry": {"type": "Point", "coordinates": [150.90769976, -31.05063403]}, "properties": {"name": "12 VERDELHO DRIVE NORTH TAMWORTH 2340", "locID": "LOC000010666866", "tech": "NULL", "upgrade": "NULL_NA"}}, {"type": "Feature", "geometry": {"type": "Point", "coordinates": [150.93337558, -31.0773694]}, "properties": {"name": "12 VICTORIA STREET NORTH TAMWORTH 2340", "locID": "LOC000029178583", "tech": "FTTN", "upgrade": "NULL_NA"}}, {"type": "Feature", "geometry": {"type": "Point", "coordinates": [150.91337146, -31.07078103]}, "properties": {"name": "12 WOLLEMI CLOSE NORTH TAMWORTH 2340", "locID": "LOC000179446549", "tech": "FTTP", "upgrade": "NULL_NA"}}, {"type": "Feature", "geometry": {"type": "Point", "coordinates": [150.92452624, -31.08340511]}, "properties": {"name": "12-14 MACQUARIE STREET NORTH TAMWORTH 2340", "locID": "ChIJz4648jWfCmsRotxZ2Qc4cng", "tech": "FTTN", "upgrade": "UNKNOWN"}}, {"type": "Feature", "geometry": {"type": "Point", "coordinates": [150.92470659, -31.07931751]}, "properties": {"name": "12-16 BLIGH STREET NORTH TAMWORTH 2340", "locID": "LOC000006559308", "tech": "FTTN", "upgrade": "NULL_NA"}}, {"type": "Feature", "geometry": {"type": "Point", "coordinates": [150.93247961, -31.08011166]}, "properties": {"name": "120 NORTH STREET NORTH TAMWORTH 2340", "locID": "LOC000057270503", "tech": "FTTN", "upgrade": "NULL_NA"}}, {"type": "Feature", "geometry": {"type": "Point", "coordinates": [150.93281609, -31.07843566]}, "properties": {"name": "120 PIPER STREET NORTH TAMWORTH 2340", "locID": "LOC000043006699", "tech": "FTTN", "upgrade": "NULL_NA"}}, {"type": "Feature", "geometry": {"type": "Point", "coordinates": [150.90067728, -31.0437942]}, "properties": {"name": "120 VERDELHO DRIVE NORTH TAMWORTH 2340", "locID": "LOC000143658952", "tech": "FTTP", "upgrade": "NULL_NA"}}, {"type": "Feature", "geometry": {"type": "Point", "coordinates": [150.93397379, -31.07920955]}, "properties": {"name": "121 PIPER STREET NORTH TAMWORTH 2340", "locID": "LOC000081251219", "tech": "FTTN", "upgrade": "NULL_NA"}}, {"type": "Feature", "geometry": {"type": "Point", "coordinates": [150.92416131, -31.07596422]}, "properties": {"name": "121-127 JOHNSTON STREET NORTH TAMWORTH 2340", "locID": "LOC000152345259", "tech": "FTTN", "upgrade": "NULL_NA"}}, {"type": "Feature", "geometry": {"type": "Point", "coordinates": [150.91856503, -31.0798877]}, "properties": {"name": "121-139 PEEL STREET NORTH TAMWORTH 2340", "locID": "LOC000120879681", "tech": "FTTN", "upgrade": "NULL_NA"}}, {"type": "Feature", "geometry": {"type": "Point", "coordinates": [150.92554019, -31.08159144]}, "properties": {"name": "122 MARIUS STREET NORTH TAMWORTH 2340", "locID": "LOC000053643722", "tech": "FTTN", "upgrade": "NULL_NA"}}, {"type": "Feature", "geometry": {"type": "Point", "coordinates": [150.93268778, -31.08014126]}, "properties": {"name": "122 NORTH STREET NORTH TAMWORTH 2340", "locID": "LOC000036444868", "tech": "FTTN", "upgrade": "NULL_NA"}}, {"type": "Feature", "geometry": {"type": "Point", "coordinates": [150.93298152, -31.07850944]}, "properties": {"name": "122 PIPER STREET NORTH TAMWORTH 2340", "locID": "LOC000090834170", "tech": "FTTN", "upgrade": "NULL_NA"}}, {"type": "Feature", "geometry": {"type": "Point", "coordinates": [150.90071965, -31.04364308]}, "properties": {"name": "122 VERDELHO DRIVE NORTH TAMWORTH 2340", "locID": "LOC000143658947", "tech": "FTTP", "upgrade": "NULL_NA"}}, {"type": "Feature", "geometry": {"type": "Point", "coordinates": [150.91876473, -31.04877232]}, "properties": {"name": "123 BROWNS LANE NORTH TAMWORTH 2340", "locID": "LOC000003008625", "tech": "WIRELESS", "upgrade": "NULL_NA"}}, {"type": "Feature", "geometry": {"type": "Point", "coordinates": [150.9269361, -31.05938217]}, "properties": {"name": "123 FOREST ROAD NORTH TAMWORTH 2340", "locID": "LOC000120879739", "tech": "WIRELESS", "upgrade": "NULL_NA"}}, {"type": "Feature", "geometry": {"type": "Point", "coordinates": [150.92641088, -31.06313019]}, "properties": {"name": "123A FOREST ROAD NORTH TAMWORTH 2340", "locID": "LOC000075798493", "tech": "WIRELESS", "upgrade": "NULL_NA"}}, {"type": "Feature", "geometry": {"type": "Point", "coordinates": [150.92641088, -31.06313019]}, "properties": {"name": "123B FOREST ROAD NORTH TAMWORTH 2340", "locID": "LOC000120879739", "tech": "WIRELESS", "upgrade": "NULL_NA"}}, {"type": "Feature", "geometry": {"type": "Point", "coordinates": [150.93289934, -31.08017135]}, "properties": {"name": "124 NORTH STREET NORTH TAMWORTH 2340", "locID": "LOC000035427547", "tech": "FTTN", "upgrade": "NULL_NA"}}, {"type": "Feature", "geometry": {"type": "Point", "coordinates": [150.93314369, -31.07853281]}, "properties": {"name": "124 PIPER STREET NORTH TAMWORTH 2340", "locID": "LOC000078699125", "tech": "FTTN", "upgrade": "NULL_NA"}}, {"type": "Feature", "geometry": {"type": "Point", "coordinates": [150.92014747, -31.07944881]}, "properties": {"name": "124-128 PEEL STREET NORTH TAMWORTH 2340", "locID": "ChIJO5JPbzKfCmsR7xuVQg3moNI", "tech": "FTTN", "upgrade": "UNKNOWN"}}, {"type": "Feature", "geometry": {"type": "Point", "coordinates": [150.93310737, -31.08020094]}, "properties": {"name": "126 NORTH STREET NORTH TAMWORTH 2340", "locID": "LOC000076865870", "tech": "FTTN", "upgrade": "NULL_NA"}}, {"type": "Feature", "geometry": {"type": "Point", "coordinates": [150.93330793, -31.07855647]}, "properties": {"name": "126 PIPER STREET NORTH TAMWORTH 2340", "locID": "LOC000057025027", "tech": "FTTN", "upgrade": "NULL_NA"}}, {"type": "Feature", "geometry": {"type": "Point", "coordinates": [150.93368591, -31.078615]}, "properties": {"name": "128 PIPER STREET NORTH TAMWORTH 2340", "locID": "LOC000067532331", "tech": "FTTN", "upgrade": "NULL_NA"}}, {"type": "Feature", "geometry": {"type": "Point", "coordinates": [150.90313084, -31.0476595]}, "properties": {"name": "13 ALSACE PLACE NORTH TAMWORTH 2340", "locID": "LOC000188360962", "tech": "FTTP", "upgrade": "NULL_NA"}}, {"type": "Feature", "geometry": {"type": "Point", "coordinates": [150.90633603, -31.07090542]}, "properties": {"name": "13 BELLAS WAY NORTH TAMWORTH 2340", "locID": "LOC000191386770", "tech": "FTTN", "upgrade": "NULL_NA"}}, {"type": "Feature", "geometry": {"type": "Point", "coordinates": [150.92462291, -31.08036635]}, "properties": {"name": "13 BLIGH STREET NORTH TAMWORTH 2340", "locID": "LOC000101160790", "tech": "FTTN", "upgrade": "NULL_NA"}}, {"type": "Feature", "geometry": {"type": "Point", "coordinates": [150.94490655, -31.07485555]}, "properties": {"name": "13 BORROWDALE CLOSE NORTH TAMWORTH 2340", "locID": "LOC000167762668", "tech": "FTTP", "upgrade": "NULL_NA"}}, {"type": "Feature", "geometry": {"type": "Point", "coordinates": [150.91565851, -31.0718429]}, "properties": {"name": "13 BRADLEY PLACE NORTH TAMWORTH 2340", "locID": "LOC000086813754", "tech": "FTTN", "upgrade": "NULL_NA"}}, {"type": "Feature", "geometry": {"type": "Point", "coordinates": [150.93156031, -31.04804372]}, "properties": {"name": "13 BROWNS LANE NORTH TAMWORTH 2340", "locID": "LOC000171310671", "tech": "FTTN", "upgrade": "NULL_NA"}}, {"type": "Feature", "geometry": {"type": "Point", "coordinates": [150.92626307, -31.08054736]}, "properties": {"name": "13 CARTHAGE STREET NORTH TAMWORTH 2340", "locID": "LOC000018782598", "tech": "FTTN", "upgrade": "NULL_NA"}}, {"type": "Feature", "geometry": {"type": "Point", "coordinates": [150.93110271, -31.05016028]}, "properties": {"name": "13 CASUARINA DRIVE NORTH TAMWORTH 2340", "locID": "LOC000027868833", "tech": "FTTN", "upgrade": "NULL_NA"}}, {"type": "Feature", "geometry": {"type": "Point", "coordinates": [150.92963222, -31.07874673]}, "properties": {"name": "13 COHEN STREET NORTH TAMWORTH 2340", "locID": "LOC000093802302", "tech": "FTTN", "upgrade": "NULL_NA"}}, {"type": "Feature", "geometry": {"type": "Point", "coordinates": [150.9132487, -31.07139102]}, "properties": {"name": "13 CONWAY CLOSE NORTH TAMWORTH 2340", "locID": "LOC000173605850", "tech": "FTTP", "upgrade": "NULL_NA"}}, {"type": "Feature", "geometry": {"type": "Point", "coordinates": [150.91884262, -31.07732912]}, "properties": {"name": "13 COWPER CLOSE NORTH TAMWORTH 2340", "locID": "LOC000080685610", "tech": "FTTN", "upgrade": "NULL_NA"}}, {"type": "Feature", "geometry": {"type": "Point", "coordinates": [150.92297088, -31.07679157]}, "properties": {"name": "13 DEAN STREET NORTH TAMWORTH 2340", "locID": "LOC000014989752", "tech": "FTTN", "upgrade": "NULL_NA"}}, {"type": "Feature", "geometry": {"type": "Point", "coordinates": [150.93689684, -31.07487546]}, "properties": {"name": "13 DEKALB STREET NORTH TAMWORTH 2340", "locID": "LOC000002407512", "tech": "FTTN", "upgrade": "NULL_NA"}}, {"type": "Feature", "geometry": {"type": "Point", "coordinates": [150.93235969, -31.08189686]}, "properties": {"name": "13 DOWELL AVENUE NORTH TAMWORTH 2340", "locID": "LOC000072635415", "tech": "FTTN", "upgrade": "NULL_NA"}}, {"type": "Feature", "geometry": {"type": "Point", "coordinates": [150.93275369, -31.07980306]}, "properties": {"name": "13 ELIZABETH STREET NORTH TAMWORTH 2340", "locID": "LOC000022372906", "tech": "FTTN", "upgrade": "NULL_NA"}}, {"type": "Feature", "geometry": {"type": "Point", "coordinates": [150.91168176, -31.05099025]}, "properties": {"name": "13 EVESHAM CIRCUIT NORTH TAMWORTH 2340", "locID": "LOC000187496454", "tech": "FTTP", "upgrade": "NULL_NA"}}, {"type": "Feature", "geometry": {"type": "Point", "coordinates": [150.91074942, -31.05263979]}, "properties": {"name": "13 FARINGDON STREET NORTH TAMWORTH 2340", "locID": "LOC000144009651", "tech": "FTTP", "upgrade": "NULL_NA"}}, {"type": "Feature", "geometry": {"type": "Point", "coordinates": [150.93171135, -31.05139531]}, "properties": {"name": "13 FLAGSTAFF ROAD NORTH TAMWORTH 2340", "locID": "LOC000101667666", "tech": "FTTN", "upgrade": "NULL_NA"}}, {"type": "Feature", "geometry": {"type": "Point", "coordinates": [150.90889178, -31.07180071]}, "properties": {"name": "13 FRANCIS AVENUE NORTH TAMWORTH 2340", "locID": "LOC000190894953", "tech": "FTTN", "upgrade": "NULL_NA"}}, {"type": "Feature", "geometry": {"type": "Point", "coordinates": [150.91074751, -31.05162527]}, "properties": {"name": "13 GRAND MEADOWS DRIVE NORTH TAMWORTH 2340", "locID": "LOC000138557685", "tech": "FTTP", "upgrade": "NULL_NA"}}, {"type": "Feature", "geometry": {"type": "Point", "coordinates": [150.92526981, -31.08079762]}, "properties": {"name": "13 GRIFFIN AVENUE NORTH TAMWORTH 2340", "locID": "LOC000022891872", "tech": "FTTN", "upgrade": "NULL_NA"}}, {"type": "Feature", "geometry": {"type": "Point", "coordinates": [150.91026454, -31.04901522]}, "properties": {"name": "13 HANBURY PLACE NORTH TAMWORTH 2340", "locID": "LOC000015400100", "tech": "FTTN", "upgrade": "NULL_NA"}}, {"type": "Feature", "geometry": {"type": "Point", "coordinates": [150.91036595, -31.04661223]}, "properties": {"name": "13 HOMESTEAD CIRCUIT NORTH TAMWORTH 2340", "locID": "LOC000015400100", "tech": "FTTN", "upgrade": "NULL_NA"}}, {"type": "Feature", "geometry": {"type": "Point", "coordinates": [150.92071716, -31.07796841]}, "properties": {"name": "13 HUNT STREET NORTH TAMWORTH 2340", "locID": "LOC000100278321", "tech": "FTTN", "upgrade": "NULL_NA"}}, {"type": "Feature", "geometry": {"type": "Point", "coordinates": [150.93240251, -31.07887215]}, "properties": {"name": "13 HYMAN STREET NORTH TAMWORTH 2340", "locID": "LOC000042710081", "tech": "FTTN", "upgrade": "NULL_NA"}}, {"type": "Feature", "geometry": {"type": "Point", "coordinates": [150.91116823, -31.07383466]}, "properties": {"name": "13 JOHNSTON STREET NORTH TAMWORTH 2340", "locID": "LOC000006436885", "tech": "FTTN", "upgrade": "NULL_NA"}}, {"type": "Feature", "geometry": {"type": "Point", "coordinates": [150.91062979, -31.06938158]}, "properties": {"name": "13 KAPUTAR CLOSE NORTH TAMWORTH 2340", "locID": "LOC000152349055", "tech": "FTTN", "upgrade": "NULL_NA"}}, {"type": "Feature", "geometry": {"type": "Point", "coordinates": [150.91091248, -31.05193156]}, "properties": {"name": "13 KINGHAM STREET NORTH TAMWORTH 2340", "locID": "LOC000140577715", "tech": "FTTP", "upgrade": "NULL_NA"}}, {"type": "Feature", "geometry": {"type": "Point", "coordinates": [150.91184169, -31.07511928]}, "properties": {"name": "13 LAKE PLACE NORTH TAMWORTH 2340", "locID": "LOC000152351883", "tech": "FTTN", "upgrade": "NULL_NA"}}, {"type": "Feature", "geometry": {"type": "Point", "coordinates": [150.92882956, -31.08242049]}, "properties": {"name": "13 MACQUARIE STREET NORTH TAMWORTH 2340", "locID": "EjMxMyBNYWNxdWFyaWUgU3QsIE5vcnRoIFRhbXdvcnRoIE5TVyAyMzQwLCBBdXN0cmFsaWEiMBIuChQKEgm_0KvGNJ8KaxHioh_9umuWfhANKhQKEgkntukENZ8KaxE2dskAFlTFUQ", "tech": "FTTN", "upgrade": "UNKNOWN"}}, {"type": "Feature", "geometry": {"type": "Point", "coordinates": [150.90836056, -31.07179699]}, "properties": {"name": "13 MCKAY PLACE NORTH TAMWORTH 2340", "locID": "ChIJVRdLMiifCmsR3OPOyIQ7fpc", "tech": "FTTN", "upgrade": "UNKNOWN"}}, {"type": "Feature", "geometry": {"type": "Point", "coordinates": [150.90713818, -31.07191673]}, "properties": {"name": "13 MULCONDA CLOSE NORTH TAMWORTH 2340", "locID": "LOC000152352358", "tech": "FTTN", "upgrade": "NULL_NA"}}, {"type": "Feature", "geometry": {"type": "Point", "coordinates": [150.93311676, -31.08121302]}, "properties": {"name": "13 NAPIER STREET NORTH TAMWORTH 2340", "locID": "LOC000040295929", "tech": "FTTN", "upgrade": "NULL_NA"}}, {"type": "Feature", "geometry": {"type": "Point", "coordinates": [150.92723615, -31.07994833]}, "properties": {"name": "13 NORTH STREET NORTH TAMWORTH 2340", "locID": "LOC000015400100", "tech": "FTTN", "upgrade": "NULL_NA"}}, {"type": "Feature", "geometry": {"type": "Point", "coordinates": [150.91768154, -31.07100387]}, "properties": {"name": "13 OLIVER STREET NORTH TAMWORTH 2340", "locID": "LOC000120844433", "tech": "FTTN", "upgrade": "NULL_NA"}}, {"type": "Feature", "geometry": {"type": "Point", "coordinates": [150.92750041, -31.07740829]}, "properties": {"name": "13 OXLEY STREET NORTH TAMWORTH 2340", "locID": "LOC000052599492", "tech": "FTTN", "upgrade": "NULL_NA"}}, {"type": "Feature", "geometry": {"type": "Point", "coordinates": [150.92082612, -31.07629875]}, "properties": {"name": "13 PATTERSON STREET NORTH TAMWORTH 2340", "locID": "LOC000094296351", "tech": "FTTN", "upgrade": "NULL_NA"}}, {"type": "Feature", "geometry": {"type": "Point", "coordinates": [150.91008404, -31.07127953]}, "properties": {"name": "13 PEEL STREET NORTH TAMWORTH 2340", "locID": "LOC000031877887", "tech": "FTTN", "upgrade": "NULL_NA"}}, {"type": "Feature", "geometry": {"type": "Point", "coordinates": [150.9197394, -31.07714803]}, "properties": {"name": "13 PIPER STREET NORTH TAMWORTH 2340", "locID": "LOC000110139349", "tech": "FTTN", "upgrade": "NULL_NA"}}, {"type": "Feature", "geometry": {"type": "Point", "coordinates": [150.92872391, -31.0813133]}, "properties": {"name": "13 RAWSON AVENUE NORTH TAMWORTH 2340", "locID": "LOC000028032582", "tech": "FTTN", "upgrade": "NULL_NA"}}, {"type": "Feature", "geometry": {"type": "Point", "coordinates": [150.90741404, -31.05235906]}, "properties": {"name": "13 RIESLING ROAD NORTH TAMWORTH 2340", "locID": "LOC000043748393", "tech": "NULL", "upgrade": "NULL_NA"}}, {"type": "Feature", "geometry": {"type": "Point", "coordinates": [150.91415234, -31.07546446]}, "properties": {"name": "13 RIVERVIEW STREET NORTH TAMWORTH 2340", "locID": "LOC000080650584", "tech": "FTTN", "upgrade": "NULL_NA"}}, {"type": "Feature", "geometry": {"type": "Point", "coordinates": [150.94421527, -31.07401271]}, "properties": {"name": "13 SCARBOROUGH CLOSE NORTH TAMWORTH 2340", "locID": "LOC000167762773", "tech": "FTTP", "upgrade": "NULL_NA"}}, {"type": "Feature", "geometry": {"type": "Point", "coordinates": [150.9054365, -31.05241112]}, "properties": {"name": "13 SEMILLON DRIVE NORTH TAMWORTH 2340", "locID": "LOC000120844451", "tech": "NULL", "upgrade": "NULL_NA"}}, {"type": "Feature", "geometry": {"type": "Point", "coordinates": [150.91524624, -31.05324271]}, "properties": {"name": "13 SHERBORNE STREET NORTH TAMWORTH 2340", "locID": "LOC000170655791", "tech": "FTTP", "upgrade": "NULL_NA"}}, {"type": "Feature", "geometry": {"type": "Point", "coordinates": [150.90654091, -31.0517009]}, "properties": {"name": "13 SHIRAZ ROAD NORTH TAMWORTH 2340", "locID": "LOC000152348153", "tech": "NULL", "upgrade": "NULL_NA"}}, {"type": "Feature", "geometry": {"type": "Point", "coordinates": [150.91073834, -31.07495239]}, "properties": {"name": "13 SWAN STREET NORTH TAMWORTH 2340", "locID": "ChIJwxYdfCmfCmsRcluP8g-XrjE", "tech": "FTTN", "upgrade": "UNKNOWN"}}, {"type": "Feature", "geometry": {"type": "Point", "coordinates": [150.93336248, -31.07543606]}, "properties": {"name": "13 TEROLE AVENUE NORTH TAMWORTH 2340", "locID": "LOC000005870258", "tech": "FTTN", "upgrade": "NULL_NA"}}, {"type": "Feature", "geometry": {"type": "Point", "coordinates": [150.90163348, -31.04655893]}, "properties": {"name": "13 TRAMINER DRIVE NORTH TAMWORTH 2340", "locID": "ChIJfRCIVfueCmsRckEcm3VC1eA", "tech": "FTTP", "upgrade": "UNKNOWN"}}, {"type": "Feature", "geometry": {"type": "Point", "coordinates": [150.90162579, -31.04605879]}, "properties": {"name": "13 TUSCANY BOULEVARD NORTH TAMWORTH 2340", "locID": "LOC000181005305", "tech": "FTTP", "upgrade": "NULL_NA"}}, {"type": "Feature", "geometry": {"type": "Point", "coordinates": [150.92975501, -31.08087009]}, "properties": {"name": "13 UPPER STREET NORTH TAMWORTH 2340", "locID": "LOC000045380229", "tech": "FTTN", "upgrade": "NULL_NA"}}, {"type": "Feature", "geometry": {"type": "Point", "coordinates": [150.90702512, -31.05115159]}, "properties": {"name": "13 VERDELHO DRIVE NORTH TAMWORTH 2340", "locID": "LOC000152348273", "tech": "NULL", "upgrade": "NULL_NA"}}, {"type": "Feature", "geometry": {"type": "Point", "coordinates": [150.93410448, -31.07729726]}, "properties": {"name": "13 VICTORIA STREET NORTH TAMWORTH 2340", "locID": "LOC000024768722", "tech": "FTTN", "upgrade": "NULL_NA"}}, {"type": "Feature", "geometry": {"type": "Point", "coordinates": [150.91541154, -31.06968679]}, "properties": {"name": "13 WOLLEMI CLOSE NORTH TAMWORTH 2340", "locID": "LOC000179446554", "tech": "FTTP", "upgrade": "NULL_NA"}}, {"type": "Feature", "geometry": {"type": "Point", "coordinates": [150.90702512, -31.05115159]}, "properties": {"name": "13-15 VERDELHO DRIVE NORTH TAMWORTH 2340", "locID": "LOC000152348273", "tech": "NULL", "upgrade": "NULL_NA"}}, {"type": "Feature", "geometry": {"type": "Point", "coordinates": [150.93331466, -31.08023041]}, "properties": {"name": "130 NORTH STREET NORTH TAMWORTH 2340", "locID": "LOC000084080792", "tech": "FTTN", "upgrade": "NULL_NA"}}, {"type": "Feature", "geometry": {"type": "Point", "coordinates": [150.92123039, -31.08046556]}, "properties": {"name": "130 PEEL STREET NORTH TAMWORTH 2340", "locID": "LOC000020401897", "tech": "FTTN", "upgrade": "NULL_NA"}}, {"type": "Feature", "geometry": {"type": "Point", "coordinates": [150.93386906, -31.07864084]}, "properties": {"name": "130 PIPER STREET NORTH TAMWORTH 2340", "locID": "LOC000047372731", "tech": "FTTN", "upgrade": "NULL_NA"}}, {"type": "Feature", "geometry": {"type": "Point", "coordinates": [150.92123039, -31.08046556]}, "properties": {"name": "130-138 PEEL STREET NORTH TAMWORTH 2340", "locID": "ChIJucjv9zKfCmsRec_uA1GiLU0", "tech": "FTTN", "upgrade": "UNKNOWN"}}, {"type": "Feature", "geometry": {"type": "Point", "coordinates": [150.92457452, -31.07591725]}, "properties": {"name": "131 JOHNSTON STREET NORTH TAMWORTH 2340", "locID": "LOC000087248336", "tech": "FTTN", "upgrade": "NULL_NA"}}, {"type": "Feature", "geometry": {"type": "Point", "coordinates": [150.93353172, -31.08026127]}, "properties": {"name": "132 NORTH STREET NORTH TAMWORTH 2340", "locID": "LOC000018484524", "tech": "FTTN", "upgrade": "NULL_NA"}}, {"type": "Feature", "geometry": {"type": "Point", "coordinates": [150.92123039, -31.08046556]}, "properties": {"name": "132 PEEL STREET NORTH TAMWORTH 2340", "locID": "ChIJucjv9zKfCmsRcazuPESbcoI", "tech": "FTTN", "upgrade": "UNKNOWN"}}, {"type": "Feature", "geometry": {"type": "Point", "coordinates": [150.93407458, -31.07866982]}, "properties": {"name": "132 PIPER STREET NORTH TAMWORTH 2340", "locID": "LOC000097888111", "tech": "FTTN", "upgrade": "NULL_NA"}}, {"type": "Feature", "geometry": {"type": "Point", "coordinates": [150.92478883, -31.07581432]}, "properties": {"name": "133 JOHNSTON STREET NORTH TAMWORTH 2340", "locID": "LOC000047863779", "tech": "FTTN", "upgrade": "NULL_NA"}}, {"type": "Feature", "geometry": {"type": "Point", "coordinates": [150.93373748, -31.08029053]}, "properties": {"name": "134 NORTH STREET NORTH TAMWORTH 2340", "locID": "LOC000056073040", "tech": "FTTN", "upgrade": "NULL_NA"}}, {"type": "Feature", "geometry": {"type": "Point", "coordinates": [150.92123039, -31.08046556]}, "properties": {"name": "134 PEEL STREET NORTH TAMWORTH 2340", "locID": "ChIJucjv9zKfCmsRg-kJJMxVveU", "tech": "FTTN", "upgrade": "UNKNOWN"}}, {"type": "Feature", "geometry": {"type": "Point", "coordinates": [150.9342833, -31.07869926]}, "properties": {"name": "134 PIPER STREET NORTH TAMWORTH 2340", "locID": "LOC000017521055", "tech": "FTTN", "upgrade": "NULL_NA"}}, {"type": "Feature", "geometry": {"type": "Point", "coordinates": [150.92497323, -31.07584154]}, "properties": {"name": "135 JOHNSTON STREET NORTH TAMWORTH 2340", "locID": "LOC000057039234", "tech": "FTTN", "upgrade": "NULL_NA"}}, {"type": "Feature", "geometry": {"type": "Point", "coordinates": [150.93394199, -31.08031962]}, "properties": {"name": "136 NORTH STREET NORTH TAMWORTH 2340", "locID": "LOC000086148681", "tech": "FTTN", "upgrade": "NULL_NA"}}, {"type": "Feature", "geometry": {"type": "Point", "coordinates": [150.92123039, -31.08046556]}, "properties": {"name": "136 PEEL STREET NORTH TAMWORTH 2340", "locID": "ChIJucjv9zKfCmsRYugl9qGA9Fs", "tech": "FTTN", "upgrade": "UNKNOWN"}}, {"type": "Feature", "geometry": {"type": "Point", "coordinates": [150.93448081, -31.07872712]}, "properties": {"name": "136 PIPER STREET NORTH TAMWORTH 2340", "locID": "LOC000064793208", "tech": "FTTN", "upgrade": "NULL_NA"}}, {"type": "Feature", "geometry": {"type": "Point", "coordinates": [150.91905979, -31.04714239]}, "properties": {"name": "137 BROWNS LANE NORTH TAMWORTH 2340", "locID": "LOC000057357738", "tech": "WIRELESS", "upgrade": "NULL_NA"}}, {"type": "Feature", "geometry": {"type": "Point", "coordinates": [150.92515895, -31.07586894]}, "properties": {"name": "137 JOHNSTON STREET NORTH TAMWORTH 2340", "locID": "LOC000042148034", "tech": "FTTN", "upgrade": "NULL_NA"}}, {"type": "Feature", "geometry": {"type": "Point", "coordinates": [150.93414714, -31.08034879]}, "properties": {"name": "138 NORTH STREET NORTH TAMWORTH 2340", "locID": "LOC000077639015", "tech": "FTTN", "upgrade": "NULL_NA"}}, {"type": "Feature", "geometry": {"type": "Point", "coordinates": [150.92123039, -31.08046556]}, "properties": {"name": "138 PEEL STREET NORTH TAMWORTH 2340", "locID": "ChIJucjv9zKfCmsRNHTphaoagl0", "tech": "FTTN", "upgrade": "UNKNOWN"}}, {"type": "Feature", "geometry": {"type": "Point", "coordinates": [150.92603397, -31.07779741]},