{"type": "FeatureCollection", "features": [{"type": "Feature", "geometry": {"type": "Point", "coordinates": [150.61625423, -34.89135106]}, "properties": {"name": "1 ABERGELDIE STREET NOWRA 2541", "locID": "LOC000049682911", "tech": "FTTN", "upgrade": "FTTP_SA"}}, {"type": "Feature", "geometry": {"type": "Point", "coordinates": [150.61517805, -34.88562986]}, "properties": {"name": "1 ALLISON AVENUE NOWRA 2541", "locID": "LOC000068607818", "tech": "FTTP", "upgrade": "NULL_NA"}}, {"type": "Feature", "geometry": {"type": "Point", "coordinates": [150.61502776, -34.89260659]}, "properties": {"name": "1 ALLOWRIE CRESCENT NOWRA 2541", "locID": "LOC000087218567", "tech": "FTTN", "upgrade": "NULL_NA"}}, {"type": "Feature", "geometry": {"type": "Point", "coordinates": [150.61304267, -34.88424846]}, "properties": {"name": "1 AMALFI CRESCENT NOWRA 2541", "locID": "LOC000014841816", "tech": "FTTP", "upgrade": "NULL_NA"}}, {"type": "Feature", "geometry": {"type": "Point", "coordinates": [150.59660201, -34.87446361]}, "properties": {"name": "1 ANDERSON AVENUE NOWRA 2541", "locID": "LOC000069107912", "tech": "FTTP", "upgrade": "NULL_NA"}}, {"type": "Feature", "geometry": {"type": "Point", "coordinates": [150.61654395, -34.89348061]}, "properties": {"name": "1 ANTARES CLOSE NOWRA 2541", "locID": "LOC000014117584", "tech": "FTTN", "upgrade": "FTTP_SA"}}, {"type": "Feature", "geometry": {"type": "Point", "coordinates": [150.61212525, -34.88818076]}, "properties": {"name": "1 ARUNTA CLOSE NOWRA 2541", "locID": "LOC000046867815", "tech": "FTTP", "upgrade": "NULL_NA"}}, {"type": "Feature", "geometry": {"type": "Point", "coordinates": [150.61819347, -34.89080917]}, "properties": {"name": "1 ASCALON CLOSE NOWRA 2541", "locID": "LOC000105716270", "tech": "FTTN", "upgrade": "NULL_NA"}}, {"type": "Feature", "geometry": {"type": "Point", "coordinates": [150.59233528, -34.88043396]}, "properties": {"name": "1 BAINBRIGGE CRESCENT NOWRA 2541", "locID": "LOC000079683707", "tech": "FTTP", "upgrade": "NULL_NA"}}, {"type": "Feature", "geometry": {"type": "Point", "coordinates": [150.61694808, -34.89076165]}, "properties": {"name": "1 BARCOO WAY NOWRA 2541", "locID": "LOC000010551084", "tech": "FTTN", "upgrade": "FTTP_SA"}}, {"type": "Feature", "geometry": {"type": "Point", "coordinates": [150.61834117, -34.89189469]}, "properties": {"name": "1 BATEMAN CLOSE NOWRA 2541", "locID": "LOC000084285964", "tech": "FTTN", "upgrade": "FTTP_SA"}}, {"type": "Feature", "geometry": {"type": "Point", "coordinates": [150.60996558, -34.89364383]}, "properties": {"name": "1 BENDIGO CIRCUIT NOWRA 2541", "locID": "LOC000177053376", "tech": "FTTP", "upgrade": "NULL_NA"}}, {"type": "Feature", "geometry": {"type": "Point", "coordinates": [150.59474457, -34.88263475]}, "properties": {"name": "1 BERNADETTE AVENUE NOWRA 2541", "locID": "LOC000121233119", "tech": "FTTP", "upgrade": "NULL_NA"}}, {"type": "Feature", "geometry": {"type": "Point", "coordinates": [150.60066884, -34.87251786]}, "properties": {"name": "1 BERRY STREET NOWRA 2541", "locID": "LOC000022234889", "tech": "FTTP", "upgrade": "NULL_NA"}}, {"type": "Feature", "geometry": {"type": "Point", "coordinates": [150.61529855, -34.88705918]}, "properties": {"name": "1 BISDEE PLACE NOWRA 2541", "locID": "LOC000036642454", "tech": "FTTP", "upgrade": "NULL_NA"}}, {"type": "Feature", "geometry": {"type": "Point", "coordinates": [150.60802423, -34.89154917]}, "properties": {"name": "1 BLACKMORE CLOSE NOWRA 2541", "locID": "LOC000107195488", "tech": "FTTP", "upgrade": "NULL_NA"}}, {"type": "Feature", "geometry": {"type": "Point", "coordinates": [150.60414488, -34.88712514]}, "properties": {"name": "1 BOULTWOOD AVENUE NOWRA 2541", "locID": "LOC000031423880", "tech": "FTTP", "upgrade": "NULL_NA"}}, {"type": "Feature", "geometry": {"type": "Point", "coordinates": [150.60467345, -34.88550971]}, "properties": {"name": "1 BOURNE AVENUE NOWRA 2541", "locID": "LOC000052656435", "tech": "FTTP", "upgrade": "NULL_NA"}}, {"type": "Feature", "geometry": {"type": "Point", "coordinates": [150.60720547, -34.87264929]}, "properties": {"name": "1 BRERETON STREET NOWRA 2541", "locID": "LOC000153781921", "tech": "FTTP", "upgrade": "NULL_NA"}}, {"type": "Feature", "geometry": {"type": "Point", "coordinates": [150.60253921, -34.89068733]}, "properties": {"name": "1 BUNDERRA DRIVE NOWRA 2541", "locID": "LOC000020581348", "tech": "FTTP", "upgrade": "NULL_NA"}}, {"type": "Feature", "geometry": {"type": "Point", "coordinates": [150.59860034, -34.87665859]}, "properties": {"name": "1 BURR AVENUE NOWRA 2541", "locID": "LOC000086085586", "tech": "FTTP", "upgrade": "NULL_NA"}}, {"type": "Feature", "geometry": {"type": "Point", "coordinates": [150.62055046, -34.89222971]}, "properties": {"name": "1 BURRADOO CRESCENT NOWRA 2541", "locID": "LOC000044540318", "tech": "FTTN", "upgrade": "FTTP_SA"}}, {"type": "Feature", "geometry": {"type": "Point", "coordinates": [150.60534563, -34.88663693]}, "properties": {"name": "1 BURT AVENUE NOWRA 2541", "locID": "LOC000001555274", "tech": "FTTP", "upgrade": "NULL_NA"}}, {"type": "Feature", "geometry": {"type": "Point", "coordinates": [150.60759091, -34.87136853]}, "properties": {"name": "1 CAMPBELL PLACE NOWRA 2541", "locID": "LOC000083269328", "tech": "FTTP", "upgrade": "NULL_NA"}}, {"type": "Feature", "geometry": {"type": "Point", "coordinates": [150.59663455, -34.88259803]}, "properties": {"name": "1 CENTRE STREET NOWRA 2541", "locID": "LOC000092459108", "tech": "FTTP", "upgrade": "NULL_NA"}}, {"type": "Feature", "geometry": {"type": "Point", "coordinates": [150.59458819, -34.88277239]}, "properties": {"name": "1 CHRISTINE PLACE NOWRA 2541", "locID": "LOC000098868302", "tech": "FTTP", "upgrade": "NULL_NA"}}, {"type": "Feature", "geometry": {"type": "Point", "coordinates": [150.61604077, -34.88981678]}, "properties": {"name": "1 CLIPPER ROAD NOWRA 2541", "locID": "LOC000158355061", "tech": "FTTN", "upgrade": "NULL_NA"}}, {"type": "Feature", "geometry": {"type": "Point", "coordinates": [150.59791269, -34.8687493]}, "properties": {"name": "1 COLYER AVENUE NOWRA 2541", "locID": "LOC000144503159", "tech": "FTTP", "upgrade": "NULL_NA"}}, {"type": "Feature", "geometry": {"type": "Point", "coordinates": [150.60829826, -34.8936134]}, "properties": {"name": "1 CORNELIUS PLACE NOWRA 2541", "locID": "LOC000052479756", "tech": "FTTP", "upgrade": "NULL_NA"}}, {"type": "Feature", "geometry": {"type": "Point", "coordinates": [150.60944421, -34.88311893]}, "properties": {"name": "1 DE MESTRE PLACE NOWRA 2541", "locID": "LOC000093754546", "tech": "FTTP", "upgrade": "NULL_NA"}}, {"type": "Feature", "geometry": {"type": "Point", "coordinates": [150.60921327, -34.87946746]}, "properties": {"name": "1 DRYDEN CLOSE NOWRA 2541", "locID": "LOC000021320760", "tech": "FTTP", "upgrade": "NULL_NA"}}, {"type": "Feature", "geometry": {"type": "Point", "coordinates": [150.59907167, -34.88301906]}, "properties": {"name": "1 DUDLEY AVENUE NOWRA 2541", "locID": "LOC000026302295", "tech": "FTTP", "upgrade": "NULL_NA"}}, {"type": "Feature", "geometry": {"type": "Point", "coordinates": [150.60419096, -34.88129599]}, "properties": {"name": "1 EAST STREET NOWRA 2541", "locID": "LOC000020653091", "tech": "FTTP", "upgrade": "NULL_NA"}}, {"type": "Feature", "geometry": {"type": "Point", "coordinates": [150.60402159, -34.89172044]}, "properties": {"name": "1 ELDER CRESCENT NOWRA 2541", "locID": "LOC000121212843", "tech": "FTTP", "upgrade": "NULL_NA"}}, {"type": "Feature", "geometry": {"type": "Point", "coordinates": [150.60702009, -34.88390936]}, "properties": {"name": "1 ELIZABETH AVENUE NOWRA 2541", "locID": "LOC000052095586", "tech": "FTTP", "upgrade": "NULL_NA"}}, {"type": "Feature", "geometry": {"type": "Point", "coordinates": [150.61369448, -34.88494088]}, "properties": {"name": "1 ELLIS PLACE NOWRA 2541", "locID": "LOC000093921102", "tech": "FTTP", "upgrade": "NULL_NA"}}, {"type": "Feature", "geometry": {"type": "Point", "coordinates": [150.59616246, -34.89157836]}, "properties": {"name": "1 ELYARD DRIVE NOWRA 2541", "locID": "LOC000074824263", "tech": "FTTP", "upgrade": "NULL_NA"}}, {"type": "Feature", "geometry": {"type": "Point", "coordinates": [150.59964599, -34.88981713]}, "properties": {"name": "1 ERNEST STREET NOWRA 2541", "locID": "LOC000182798586", "tech": "FTTP", "upgrade": "NULL_NA"}}, {"type": "Feature", "geometry": {"type": "Point", "coordinates": [150.6112067, -34.86869343]}, "properties": {"name": "1 FERRY LANE NOWRA 2541", "locID": "LOC000121233126", "tech": "FTTP", "upgrade": "NULL_NA"}}, {"type": "Feature", "geometry": {"type": "Point", "coordinates": [150.61359741, -34.88370672]}, "properties": {"name": "1 FLORENCE PLACE NOWRA 2541", "locID": "LOC000096276597", "tech": "FTTP", "upgrade": "NULL_NA"}}, {"type": "Feature", "geometry": {"type": "Point", "coordinates": [150.61808293, -34.89150671]}, "properties": {"name": "1 GASCOYNE WAY NOWRA 2541", "locID": "LOC000104148803", "tech": "FTTN", "upgrade": "FTTP_SA"}}, {"type": "Feature", "geometry": {"type": "Point", "coordinates": [150.60301133, -34.8863001]}, "properties": {"name": "1 GOULD AVENUE NOWRA 2541", "locID": "LOC000077227283", "tech": "FTTP", "upgrade": "NULL_NA"}}, {"type": "Feature", "geometry": {"type": "Point", "coordinates": [150.60220505, -34.87117566]}, "properties": {"name": "1 GRAHAM STREET NOWRA 2541", "locID": "LOC000018431698", "tech": "FTTP", "upgrade": "NULL_NA"}}, {"type": "Feature", "geometry": {"type": "Point", "coordinates": [150.60550615, -34.87983075]}, "properties": {"name": "1 GRANT STREET NOWRA 2541", "locID": "LOC000040730064", "tech": "FTTP", "upgrade": "NULL_NA"}}, {"type": "Feature", "geometry": {"type": "Point", "coordinates": [150.61382431, -34.88844886]}, "properties": {"name": "1 GREENWELL POINT ROAD NOWRA 2541", "locID": "LOC000158356952", "tech": "WIRELESS", "upgrade": "NULL_NA"}}, {"type": "Feature", "geometry": {"type": "Point", "coordinates": [150.6104198, -34.89406522]}, "properties": {"name": "1 GUNBAR WAY NOWRA 2541", "locID": "LOC000177053910", "tech": "FTTP", "upgrade": "NULL_NA"}}, {"type": "Feature", "geometry": {"type": "Point", "coordinates": [150.60367985, -34.87781336]}, "properties": {"name": "1 HAIGH AVENUE NOWRA 2541", "locID": "LOC000149735723", "tech": "FTTP", "upgrade": "NULL_NA"}}, {"type": "Feature", "geometry": {"type": "Point", "coordinates": [150.59927531, -34.88487737]}, "properties": {"name": "1 HALE AVENUE NOWRA 2541", "locID": "LOC000039504532", "tech": "FTTP", "upgrade": "NULL_NA"}}, {"type": "Feature", "geometry": {"type": "Point", "coordinates": [150.60392436, -34.86598721]}, "properties": {"name": "1 HAWTHORN AVENUE NOWRA 2541", "locID": "LOC000077791929", "tech": "FTTP", "upgrade": "NULL_NA"}}, {"type": "Feature", "geometry": {"type": "Point", "coordinates": [150.61468525, -34.89451036]}, "properties": {"name": "1 HESPERUS CLOSE NOWRA 2541", "locID": "LOC000060809856", "tech": "FTTN", "upgrade": "FTTP_SA"}}, {"type": "Feature", "geometry": {"type": "Point", "coordinates": [150.60421392, -34.89280727]}, "properties": {"name": "1 HOCKEY STREET NOWRA 2541", "locID": "LOC000012334075", "tech": "FTTP", "upgrade": "NULL_NA"}}, {"type": "Feature", "geometry": {"type": "Point", "coordinates": [150.60298871, -34.89258693]}, "properties": {"name": "1 HOLLANDS ROAD NOWRA 2541", "locID": "LOC000062044037", "tech": "FTTP", "upgrade": "NULL_NA"}}, {"type": "Feature", "geometry": {"type": "Point", "coordinates": [150.59470265, -34.88021987]}, "properties": {"name": "1 HUXLEY STREET NOWRA 2541", "locID": "LOC000008830035", "tech": "FTTP", "upgrade": "NULL_NA"}}, {"type": "Feature", "geometry": {"type": "Point", "coordinates": [150.59722345, -34.86814539]}, "properties": {"name": "1 HYAM STREET NOWRA 2541", "locID": "LOC000045974728", "tech": "FTTP", "upgrade": "NULL_NA"}}, {"type": "Feature", "geometry": {"type": "Point", "coordinates": [150.60501339, -34.87624827]}, "properties": {"name": "1 JANE STREET NOWRA 2541", "locID": "LOC000066503046", "tech": "FTTP", "upgrade": "NULL_NA"}}, {"type": "Feature", "geometry": {"type": "Point", "coordinates": [150.60485806, -34.89020491]}, "properties": {"name": "1 JAYCEE AVENUE NOWRA 2541", "locID": "LOC000045807164", "tech": "FTTP", "upgrade": "NULL_NA"}}, {"type": "Feature", "geometry": {"type": "Point", "coordinates": [150.5944604, -34.88129306]}, "properties": {"name": "1 JERVIS STREET NOWRA 2541", "locID": "LOC000041108950", "tech": "FTTP", "upgrade": "NULL_NA"}}, {"type": "Feature", "geometry": {"type": "Point", "coordinates": [150.61541106, -34.89669522]}, "properties": {"name": "1 JINDALEE CRESCENT NOWRA 2541", "locID": "LOC000176979968", "tech": "FTTP", "upgrade": "NULL_NA"}}, {"type": "Feature", "geometry": {"type": "Point", "coordinates": [150.59375283, -34.87304927]}, "properties": {"name": "1 JUNCTION STREET NOWRA 2541", "locID": "LOC000090134268", "tech": "FTTP", "upgrade": "NULL_NA"}}, {"type": "Feature", "geometry": {"type": "Point", "coordinates": [150.62070748, -34.89110494]}, "properties": {"name": "1 JUNEE LINK NOWRA 2541", "locID": "LOC000087673822", "tech": "FTTN", "upgrade": "FTTP_SA"}}, {"type": "Feature", "geometry": {"type": "Point", "coordinates": [150.62023345, -34.89189568]}, "properties": {"name": "1 KARDELLA AVENUE NOWRA 2541", "locID": "LOC000076239674", "tech": "FTTN", "upgrade": "FTTP_SA"}}, {"type": "Feature", "geometry": {"type": "Point", "coordinates": [150.59986846, -34.86921152]}, "properties": {"name": "1 KEFT AVENUE NOWRA 2541", "locID": "LOC000043453564", "tech": "FTTP", "upgrade": "NULL_NA"}}, {"type": "Feature", "geometry": {"type": "Point", "coordinates": [150.61391076, -34.89472342]}, "properties": {"name": "1 KEMBLA CLOSE NOWRA 2541", "locID": "LOC000057503280", "tech": "FTTN", "upgrade": "FTTP_SA"}}, {"type": "Feature", "geometry": {"type": "Point", "coordinates": [150.59571073, -34.88753695]}, "properties": {"name": "1 KERWICK CLOSE NOWRA 2541", "locID": "LOC000061655849", "tech": "FTTP", "upgrade": "NULL_NA"}}, {"type": "Feature", "geometry": {"type": "Point", "coordinates": [150.60861132, -34.88634534]}, "properties": {"name": "1 KNAPP AVENUE NOWRA 2541", "locID": "LOC000105222845", "tech": "FTTP", "upgrade": "NULL_NA"}}, {"type": "Feature", "geometry": {"type": "Point", "coordinates": [150.60114879, -34.87744614]}, "properties": {"name": "1 LAWRENCE AVENUE NOWRA 2541", "locID": "LOC000188492929", "tech": "NULL", "upgrade": "NULL_NA"}}, {"type": "Feature", "geometry": {"type": "Point", "coordinates": [150.59351819, -34.87618962]}, "properties": {"name": "1 LEANEY AVENUE NOWRA 2541", "locID": "LOC000093846193", "tech": "FTTP", "upgrade": "NULL_NA"}}, {"type": "Feature", "geometry": {"type": "Point", "coordinates": [150.60495757, -34.88159116]}, "properties": {"name": "1 LEATHAM AVENUE NOWRA 2541", "locID": "LOC000068651487", "tech": "FTTP", "upgrade": "NULL_NA"}}, {"type": "Feature", "geometry": {"type": "Point", "coordinates": [150.60961434, -34.86566284]}, "properties": {"name": "1 LYREBIRD DRIVE NOWRA 2541", "locID": "LOC000047019430", "tech": "FTTP", "upgrade": "NULL_NA"}}, {"type": "Feature", "geometry": {"type": "Point", "coordinates": [150.60124682, -34.89226045]}, "properties": {"name": "1 MACLEAN STREET NOWRA 2541", "locID": "LOC000136732086", "tech": "FTTP", "upgrade": "NULL_NA"}}, {"type": "Feature", "geometry": {"type": "Point", "coordinates": [150.59882459, -34.86682786]}, "properties": {"name": "1 MANDALAY AVENUE NOWRA 2541", "locID": "LOC000013097906", "tech": "FTTP", "upgrade": "NULL_NA"}}, {"type": "Feature", "geometry": {"type": "Point", "coordinates": [150.61122939, -34.89417591]}, "properties": {"name": "1 MANOORA WAY NOWRA 2541", "locID": "LOC000177054012", "tech": "FTTP", "upgrade": "NULL_NA"}}, {"type": "Feature", "geometry": {"type": "Point", "coordinates": [150.61959396, -34.89294824]}, "properties": {"name": "1 MARANA CLOSE NOWRA 2541", "locID": "LOC000049467780", "tech": "FTTN", "upgrade": "FTTP_SA"}}, {"type": "Feature", "geometry": {"type": "Point", "coordinates": [150.60603941, -34.88722863]}, "properties": {"name": "1 MASSINGHAM AVENUE NOWRA 2541", "locID": "LOC000002235051", "tech": "FTTP", "upgrade": "NULL_NA"}}, {"type": "Feature", "geometry": {"type": "Point", "coordinates": [150.59763506, -34.88970877]}, "properties": {"name": "1 MCDONALD AVENUE NOWRA 2541", "locID": "LOC000048467216", "tech": "FTTP", "upgrade": "NULL_NA"}}, {"type": "Feature", "geometry": {"type": "Point", "coordinates": [150.60286166, -34.87179501]}, "properties": {"name": "1 MCGRATH AVENUE NOWRA 2541", "locID": "LOC000086147102", "tech": "FTTP", "upgrade": "NULL_NA"}}, {"type": "Feature", "geometry": {"type": "Point", "coordinates": [150.60739282, -34.8869038]}, "properties": {"name": "1 MCGUIRE AVENUE NOWRA 2541", "locID": "LOC000055914482", "tech": "FTTP", "upgrade": "NULL_NA"}}, {"type": "Feature", "geometry": {"type": "Point", "coordinates": [150.61373957, -34.88903844]}, "properties": {"name": "1 MCKAY STREET NOWRA 2541", "locID": "LOC000079794675", "tech": "FTTP", "upgrade": "NULL_NA"}}, {"type": "Feature", "geometry": {"type": "Point", "coordinates": [150.605409, -34.89293144]}, "properties": {"name": "1 MCKENZIE STREET NOWRA 2541", "locID": "LOC000015876248", "tech": "FTTP", "upgrade": "NULL_NA"}}, {"type": "Feature", "geometry": {"type": "Point", "coordinates": [150.60615637, -34.88645348]}, "properties": {"name": "1 MILLER AVENUE NOWRA 2541", "locID": "LOC000039950457", "tech": "FTTP", "upgrade": "NULL_NA"}}, {"type": "Feature", "geometry": {"type": "Point", "coordinates": [150.59385737, -34.87411003]}, "properties": {"name": "1 MONAGHAN AVENUE NOWRA 2541", "locID": "LOC000095425709", "tech": "FTTP", "upgrade": "NULL_NA"}}, {"type": "Feature", "geometry": {"type": "Point", "coordinates": [150.60350362, -34.87221946]}, "properties": {"name": "1 MOSS STREET NOWRA 2541", "locID": "LOC000097298678", "tech": "FTTP", "upgrade": "NULL_NA"}}, {"type": "Feature", "geometry": {"type": "Point", "coordinates": [150.61948947, -34.89564039]}, "properties": {"name": "1 MYALL CLOSE NOWRA 2541", "locID": "LOC000058239342", "tech": "FTTN", "upgrade": "FTTP_SA"}}, {"type": "Feature", "geometry": {"type": "Point", "coordinates": [150.61869797, -34.8963445]}, "properties": {"name": "1 NARWEE LINK NOWRA 2541", "locID": "LOC000017937671", "tech": "FTTN", "upgrade": "FTTP_SA"}}, {"type": "Feature", "geometry": {"type": "Point", "coordinates": [150.61572565, -34.88993501]}, "properties": {"name": "1 NINEVEH CLOSE NOWRA 2541", "locID": "LOC000092386816", "tech": "FTTN", "upgrade": "FTTP_SA"}}, {"type": "Feature", "geometry": {"type": "Point", "coordinates": [150.60341749, -34.8867189]}, "properties": {"name": "1 NUMBAA WAY NOWRA 2541", "locID": "LOC000121210039", "tech": "FTTP", "upgrade": "NULL_NA"}}, {"type": "Feature", "geometry": {"type": "Point", "coordinates": [150.59506457, -34.87842432]}, "properties": {"name": "1 OLIVER PARADE NOWRA 2541", "locID": "LOC000101204888", "tech": "FTTP", "upgrade": "NULL_NA"}}, {"type": "Feature", "geometry": {"type": "Point", "coordinates": [150.61737857, -34.89314374]}, "properties": {"name": "1 PALUMA WAY NOWRA 2541", "locID": "LOC000009194415", "tech": "FTTN", "upgrade": "FTTP_SA"}}, {"type": "Feature", "geometry": {"type": "Point", "coordinates": [150.61149546, -34.88914959]}, "properties": {"name": "1 PARRAMATTA STREET NOWRA 2541", "locID": "LOC000011412152", "tech": "FTTP", "upgrade": "NULL_NA"}}, {"type": "Feature", "geometry": {"type": "Point", "coordinates": [150.59964843, -34.8920359]}, "properties": {"name": "1 PIONEER PLACE NOWRA 2541", "locID": "LOC000071105668", "tech": "FTTP", "upgrade": "NULL_NA"}}, {"type": "Feature", "geometry": {"type": "Point", "coordinates": [150.60269707, -34.86616065]}, "properties": {"name": "1 PLEASANT WAY NOWRA 2541", "locID": "LOC000145317574", "tech": "FTTP", "upgrade": "NULL_NA"}}, {"type": "Feature", "geometry": {"type": "Point", "coordinates": [150.6106877, -34.88892183]}, "properties": {"name": "1 QUADRANT STREET NOWRA 2541", "locID": "LOC000054940421", "tech": "FTTP", "upgrade": "NULL_NA"}}, {"type": "Feature", "geometry": {"type": "Point", "coordinates": [150.6108861, -34.89060741]}, "properties": {"name": "1 QUEENBOROUGH STREET NOWRA 2541", "locID": "LOC000106096916", "tech": "FTTP", "upgrade": "NULL_NA"}}, {"type": "Feature", "geometry": {"type": "Point", "coordinates": [150.60964347, -34.89200958]}, "properties": {"name": "1 QUIBERON STREET NOWRA 2541", "locID": "LOC000003196388", "tech": "FTTP", "upgrade": "NULL_NA"}}, {"type": "Feature", "geometry": {"type": "Point", "coordinates": [150.59684266, -34.89099918]}, "properties": {"name": "1 REIBY PLACE NOWRA 2541", "locID": "LOC000071062152", "tech": "FTTP", "upgrade": "NULL_NA"}}, {"type": "Feature", "geometry": {"type": "Point", "coordinates": [150.59390198, -34.88721365]}, "properties": {"name": "1 ROSEWOOD CLOSE NOWRA 2541", "locID": "LOC000019663601", "tech": "FTTP", "upgrade": "NULL_NA"}}, {"type": "Feature", "geometry": {"type": "Point", "coordinates": [150.60219849, -34.88520404]}, "properties": {"name": "1 RYAN AVENUE NOWRA 2541", "locID": "LOC000114171688", "tech": "FTTP", "upgrade": "NULL_NA"}}, {"type": "Feature", "geometry": {"type": "Point", "coordinates": [150.60084851, -34.86665952]}, "properties": {"name": "1 SCENIC DRIVE NOWRA 2541", "locID": "LOC000052099204", "tech": "FTTP", "upgrade": "NULL_NA"}}, {"type": "Feature", "geometry": {"type": "Point", "coordinates": [150.60022519, -34.8910252]}, "properties": {"name": "1 SCHREGEL PLACE NOWRA 2541", "locID": "LOC000064820485", "tech": "FTTP", "upgrade": "NULL_NA"}}, {"type": "Feature", "geometry": {"type": "Point", "coordinates": [150.60807047, -34.88945379]}, "properties": {"name": "1 SEA KING PLACE NOWRA 2541", "locID": "LOC000185777336", "tech": "FTTP", "upgrade": "NULL_NA"}}, {"type": "Feature", "geometry": {"type": "Point", "coordinates": [150.61149925, -34.8861883]}, "properties": {"name": "1 SECCOMBE STREET NOWRA 2541", "locID": "LOC000094325049", "tech": "FTTP", "upgrade": "NULL_NA"}}, {"type": "Feature", "geometry": {"type": "Point", "coordinates": [150.61301316, -34.88483647]}, "properties": {"name": "1 SHORLAND PLACE NOWRA 2541", "locID": "LOC000040295955", "tech": "FTTP", "upgrade": "NULL_NA"}}, {"type": "Feature", "geometry": {"type": "Point", "coordinates": [150.60344894, -34.87574185]}, "properties": {"name": "1 SMITH LANE NOWRA 2541", "locID": "LOC000144557739", "tech": "FTTP", "upgrade": "NULL_NA"}}, {"type": "Feature", "geometry": {"type": "Point", "coordinates": [150.60440269, -34.88373221]}, "properties": {"name": "1 STATION STREET NOWRA 2541", "locID": "LOC000014103135", "tech": "FTTP", "upgrade": "NULL_NA"}}, {"type": "Feature", "geometry": {"type": "Point", "coordinates": [150.60186024, -34.87555701]}, "properties": {"name": "1 STEWART PLACE NOWRA 2541", "locID": "LOC000155165604", "tech": "FTTP", "upgrade": "NULL_NA"}}, {"type": "Feature", "geometry": {"type": "Point", "coordinates": [150.60969562, -34.88879794]}, "properties": {"name": "1 STUART STREET NOWRA 2541", "locID": "LOC000082795799", "tech": "FTTP", "upgrade": "NULL_NA"}}, {"type": "Feature", "geometry": {"type": "Point", "coordinates": [150.61432842, -34.89277192]}, "properties": {"name": "1 SUPPLY STREET NOWRA 2541", "locID": "LOC000109162141", "tech": "FTTN", "upgrade": "FTTP_SA"}}, {"type": "Feature", "geometry": {"type": "Point", "coordinates": [150.61782529, -34.88750268]}, "properties": {"name": "1 TARRABA CRESCENT NOWRA 2541", "locID": "LOC000058831349", "tech": "FTTP", "upgrade": "NULL_NA"}}, {"type": "Feature", "geometry": {"type": "Point", "coordinates": [150.61237415, -34.86778193]}, "properties": {"name": "1 TERARA ROAD NOWRA 2541", "locID": "LOC000121233220", "tech": "FTTP", "upgrade": "NULL_NA"}}, {"type": "Feature", "geometry": {"type": "Point", "coordinates": [150.61448368, -34.89051895]}, "properties": {"name": "1 TORRIDON STREET NOWRA 2541", "locID": "LOC000086291819", "tech": "FTTN", "upgrade": "FTTP_SA"}}, {"type": "Feature", "geometry": {"type": "Point", "coordinates": [150.59726781, -34.89182183]}, "properties": {"name": "1 ULRICK PLACE NOWRA 2541", "locID": "LOC000051402517", "tech": "FTTP", "upgrade": "NULL_NA"}}, {"type": "Feature", "geometry": {"type": "Point", "coordinates": [150.60219386, -34.8832237]}, "properties": {"name": "1 VIEW STREET NOWRA 2541", "locID": "LOC000057309163", "tech": "FTTP", "upgrade": "NULL_NA"}}, {"type": "Feature", "geometry": {"type": "Point", "coordinates": [150.62125886, -34.89433584]}, "properties": {"name": "1 WARRIGAL STREET NOWRA 2541", "locID": "LOC000071487860", "tech": "FTTN", "upgrade": "FTTP_SA"}}, {"type": "Feature", "geometry": {"type": "Point", "coordinates": [150.60743448, -34.89296039]}, "properties": {"name": "1 WEEROONA PLACE NOWRA 2541", "locID": "LOC000032937232", "tech": "FTTP", "upgrade": "NULL_NA"}}, {"type": "Feature", "geometry": {"type": "Point", "coordinates": [150.613495, -34.88685677]}, "properties": {"name": "1 WELLESLEY PLACE NOWRA 2541", "locID": "LOC000014180909", "tech": "FTTP", "upgrade": "NULL_NA"}}, {"type": "Feature", "geometry": {"type": "Point", "coordinates": [150.59364474, -34.88634451]}, "properties": {"name": "1 WESTBORNE DRIVE NOWRA 2541", "locID": "LOC000052296054", "tech": "FTTP", "upgrade": "NULL_NA"}}, {"type": "Feature", "geometry": {"type": "Point", "coordinates": [150.60343951, -34.86550792]}, "properties": {"name": "1 WHARF ROAD NOWRA 2541", "locID": "LOC000084335690", "tech": "FTTP", "upgrade": "NULL_NA"}}, {"type": "Feature", "geometry": {"type": "Point", "coordinates": [150.61184479, -34.87142017]}, "properties": {"name": "1 WONDALGA CRESCENT NOWRA 2541", "locID": "LOC000080924176", "tech": "FTTP", "upgrade": "NULL_NA"}}, {"type": "Feature", "geometry": {"type": "Point", "coordinates": [150.61613884, -34.89793604]}, "properties": {"name": "1 YATAMA STREET NOWRA 2541", "locID": "LOC000147587860", "tech": "FTTP", "upgrade": "NULL_NA"}}, {"type": "Feature", "geometry": {"type": "Point", "coordinates": [150.61008519, -34.88598125]}, "properties": {"name": "1 YOUNG AVENUE NOWRA 2541", "locID": "LOC000076839987", "tech": "FTTP", "upgrade": "NULL_NA"}}, {"type": "Feature", "geometry": {"type": "Point", "coordinates": [150.61456239, -34.89155141]}, "properties": {"name": "10 ABERGELDIE STREET NOWRA 2541", "locID": "LOC000101782598", "tech": "FTTN", "upgrade": "FTTP_SA"}}, {"type": "Feature", "geometry": {"type": "Point", "coordinates": [150.61069019, -34.89508323]}, "properties": {"name": "10 ADELE CLOSE NOWRA 2541", "locID": "LOC000177053767", "tech": "FTTP", "upgrade": "NULL_NA"}}, {"type": "Feature", "geometry": {"type": "Point", "coordinates": [150.59953888, -34.88795791]}, "properties": {"name": "10 ALBATROSS ROAD NOWRA 2541", "locID": "LOC000190305230", "tech": "FTTP", "upgrade": "NULL_NA"}}, {"type": "Feature", "geometry": {"type": "Point", "coordinates": [150.61484982, -34.88617187]}, "properties": {"name": "10 ALLISON AVENUE NOWRA 2541", "locID": "LOC000084489502", "tech": "FTTP", "upgrade": "NULL_NA"}}, {"type": "Feature", "geometry": {"type": "Point", "coordinates": [150.61528658, -34.89322222]}, "properties": {"name": "10 ALLOWRIE CRESCENT NOWRA 2541", "locID": "LOC000032209574", "tech": "FTTN", "upgrade": "FTTP_SA"}}, {"type": "Feature", "geometry": {"type": "Point", "coordinates": [150.59707172, -34.8753109]}, "properties": {"name": "10 ANDERSON AVENUE NOWRA 2541", "locID": "LOC000052755169", "tech": "FTTP", "upgrade": "NULL_NA"}}, {"type": "Feature", "geometry": {"type": "Point", "coordinates": [150.61701494, -34.89437453]}, "properties": {"name": "10 ANTARES CLOSE NOWRA 2541", "locID": "LOC000025550077", "tech": "FTTN", "upgrade": "FTTP_SA"}}, {"type": "Feature", "geometry": {"type": "Point", "coordinates": [150.61709322, -34.89693051]}, "properties": {"name": "10 ARILLA STREET NOWRA 2541", "locID": "LOC000179378461", "tech": "FTTP", "upgrade": "NULL_NA"}}, {"type": "Feature", "geometry": {"type": "Point", "coordinates": [150.61461141, -34.89703875]}, "properties": {"name": "10 ARINYA CLOSE NOWRA 2541", "locID": "LOC000176976256", "tech": "FTTP", "upgrade": "NULL_NA"}}, {"type": "Feature", "geometry": {"type": "Point", "coordinates": [150.59303625, -34.8804374]}, "properties": {"name": "10 BAINBRIGGE CRESCENT NOWRA 2541", "locID": "LOC000096337285", "tech": "FTTP", "upgrade": "NULL_NA"}}, {"type": "Feature", "geometry": {"type": "Point", "coordinates": [150.61154846, -34.89421976]}, "properties": {"name": "10 BENDIGO CIRCUIT NOWRA 2541", "locID": "LOC000177054106", "tech": "FTTP", "upgrade": "NULL_NA"}}, {"type": "Feature", "geometry": {"type": "Point", "coordinates": [150.59473681, -34.88232616]}, "properties": {"name": "10 BERNADETTE AVENUE NOWRA 2541", "locID": "LOC000078727984", "tech": "FTTP", "upgrade": "NULL_NA"}}, {"type": "Feature", "geometry": {"type": "Point", "coordinates": [150.60154583, -34.87311802]}, "properties": {"name": "10 BERRY STREET NOWRA 2541", "locID": "LOC000053866537", "tech": "FTTP", "upgrade": "NULL_NA"}}, {"type": "Feature", "geometry": {"type": "Point", "coordinates": [150.61456529, -34.88741061]}, "properties": {"name": "10 BISDEE PLACE NOWRA 2541", "locID": "LOC000057576677", "tech": "FTTP", "upgrade": "NULL_NA"}}, {"type": "Feature", "geometry": {"type": "Point", "coordinates": [150.60802423, -34.89154917]}, "properties": {"name": "10 BLACKMORE CLOSE NOWRA 2541", "locID": "LOC000121210278", "tech": "FTTP", "upgrade": "NULL_NA"}}, {"type": "Feature", "geometry": {"type": "Point", "coordinates": [150.60514413, -34.88557418]}, "properties": {"name": "10 BOURNE AVENUE NOWRA 2541", "locID": "LOC000102508890", "tech": "FTTP", "upgrade": "NULL_NA"}}, {"type": "Feature", "geometry": {"type": "Point", "coordinates": [150.60275151, -34.89056204]}, "properties": {"name": "10 BUNDERRA DRIVE NOWRA 2541", "locID": "LOC000023760128", "tech": "FTTP", "upgrade": "NULL_NA"}}, {"type": "Feature", "geometry": {"type": "Point", "coordinates": [150.59909112, -34.8773748]}, "properties": {"name": "10 BURR AVENUE NOWRA 2541", "locID": "LOC000081633213", "tech": "FTTP", "upgrade": "NULL_NA"}}, {"type": "Feature", "geometry": {"type": "Point", "coordinates": [150.6210533, -34.89304473]}, "properties": {"name": "10 BURRADOO CRESCENT NOWRA 2541", "locID": "LOC000091825707", "tech": "FTTN", "upgrade": "FTTP_SA"}}, {"type": "Feature", "geometry": {"type": "Point", "coordinates": [150.60524761, -34.88701991]}, "properties": {"name": "10 BURT AVENUE NOWRA 2541", "locID": "LOC000087294758", "tech": "FTTP", "upgrade": "NULL_NA"}}, {"type": "Feature", "geometry": {"type": "Point", "coordinates": [150.60510039, -34.89087215]}, "properties": {"name": "10 BURTON STREET NOWRA 2541", "locID": "LOC000069233190", "tech": "FTTP", "upgrade": "NULL_NA"}}, {"type": "Feature", "geometry": {"type": "Point", "coordinates": [150.62017603, -34.8938747]}, "properties": {"name": "10 CARRINGTON PARK DRIVE NOWRA 2541", "locID": "LOC000053690881", "tech": "FTTN", "upgrade": "FTTP_SA"}}, {"type": "Feature", "geometry": {"type": "Point", "coordinates": [150.59784344, -34.88336917]}, "properties": {"name": "10 CENTRE STREET NOWRA 2541", "locID": "LOC000069751563", "tech": "FTTP", "upgrade": "NULL_NA"}}, {"type": "Feature", "geometry": {"type": "Point", "coordinates": [150.5950848, -34.8829353]}, "properties": {"name": "10 CHRISTINE PLACE NOWRA 2541", "locID": "LOC000098868302", "tech": "FTTP", "upgrade": "NULL_NA"}}, {"type": "Feature", "geometry": {"type": "Point", "coordinates": [150.61710836, -34.88996531]}, "properties": {"name": "10 CLIPPER ROAD NOWRA 2541", "locID": "LOC000054118603", "tech": "FTTN", "upgrade": "FTTP_SA"}}, {"type": "Feature", "geometry": {"type": "Point", "coordinates": [150.59833856, -34.869348]}, "properties": {"name": "10 COLYER AVENUE NOWRA 2541", "locID": "LOC000041424467", "tech": "FTTP", "upgrade": "NULL_NA"}}, {"type": "Feature", "geometry": {"type": "Point", "coordinates": [150.60317288, -34.88161729]}, "properties": {"name": "10 COX AVENUE NOWRA 2541", "locID": "LOC000086136263", "tech": "FTTP", "upgrade": "NULL_NA"}}, {"type": "Feature", "geometry": {"type": "Point", "coordinates": [150.60056802, -34.88358064]}, "properties": {"name": "10 DUDLEY AVENUE NOWRA 2541", "locID": "LOC000035594005", "tech": "FTTP", "upgrade": "NULL_NA"}}, {"type": "Feature", "geometry": {"type": "Point", "coordinates": [150.60419096, -34.88129599]}, "properties": {"name": "10 EAST STREET NOWRA 2541", "locID": "LOC000078284679", "tech": "FTTB", "upgrade": "NULL_NA"}}, {"type": "Feature", "geometry": {"type": "Point", "coordinates": [150.6051722, -34.89172989]}, "properties": {"name": "10 ELDER CRESCENT NOWRA 2541", "locID": "LOC000003183082", "tech": "FTTP", "upgrade": "NULL_NA"}}, {"type": "Feature", "geometry": {"type": "Point", "coordinates": [150.60507291, -34.86635864]}, "properties": {"name": "10 ELIA AVENUE NOWRA 2541", "locID": "LOC000097985342", "tech": "FTTP", "upgrade": "NULL_NA"}}, {"type": "Feature", "geometry": {"type": "Point", "coordinates": [150.60752813, -34.88455692]}, "properties": {"name": "10 ELIZABETH AVENUE NOWRA 2541", "locID": "LOC000079117917", "tech": "FTTP", "upgrade": "NULL_NA"}}, {"type": "Feature", "geometry": {"type": "Point", "coordinates": [150.61378772, -34.88475211]}, "properties": {"name": "10 ELLIS PLACE NOWRA 2541", "locID": "LOC000121233249", "tech": "FTTP", "upgrade": "NULL_NA"}}, {"type": "Feature", "geometry": {"type": "Point", "coordinates": [150.59708382, -34.89223501]}, "properties": {"name": "10 ELYARD DRIVE NOWRA 2541", "locID": "LOC000063853780", "tech": "FTTP", "upgrade": "NULL_NA"}}, {"type": "Feature", "geometry": {"type": "Point", "coordinates": [150.59926189, -34.89005651]}, "properties": {"name": "10 ERNEST STREET NOWRA 2541", "locID": "LOC000097313330", "tech": "FTTP", "upgrade": "NULL_NA"}}, {"type": "Feature", "geometry": {"type": "Point", "coordinates": [150.61815119, -34.89239986]}, "properties": {"name": "10 GASCOYNE WAY NOWRA 2541", "locID": "LOC000049470396", "tech": "FTTN", "upgrade": "FTTP_SA"}}, {"type": "Feature", "geometry": {"type": "Point", "coordinates": [150.60611626, -34.88011862]}, "properties": {"name": "10 GRANT STREET NOWRA 2541", "locID": "LOC000025050751", "tech": "FTTP", "upgrade": "NULL_NA"}}, {"type": "Feature", "geometry": {"type": "Point", "coordinates": [150.61501027, -34.8892018]}, "properties": {"name": "10 GREENWELL POINT ROAD NOWRA 2541", "locID": "LOC000055091267", "tech": "FTTP", "upgrade": "NULL_NA"}}, {"type": "Feature", "geometry": {"type": "Point", "coordinates": [150.60980894, -34.89460417]}, "properties": {"name": "10 GUNBAR WAY NOWRA 2541", "locID": "LOC000177053865", "tech": "FTTP", "upgrade": "NULL_NA"}}, {"type": "Feature", "geometry": {"type": "Point", "coordinates": [150.59998943, -34.88568769]}, "properties": {"name": "10 HALE AVENUE NOWRA 2541", "locID": "LOC000057219099", "tech": "FTTP", "upgrade": "NULL_NA"}}, {"type": "Feature", "geometry": {"type": "Point", "coordinates": [150.61536179, -34.89483681]}, "properties": {"name": "10 HESPERUS CLOSE NOWRA 2541", "locID": "LOC000028122401", "tech": "FTTN", "upgrade": "FTTP_SA"}}, {"type": "Feature", "geometry": {"type": "Point", "coordinates": [150.61303162, -34.89055746]}, "properties": {"name": "10 HOBART STREET NOWRA 2541", "locID": "LOC000023319677", "tech": "FTTP", "upgrade": "NULL_NA"}}, {"type": "Feature", "geometry": {"type": "Point", "coordinates": [150.60476165, -34.89351613]}, "properties": {"name": "10 HOCKEY STREET NOWRA 2541", "locID": "LOC000091846511", "tech": "FTTP", "upgrade": "NULL_NA"}}, {"type": "Feature", "geometry": {"type": "Point", "coordinates": [150.60366436, -34.89333807]}, "properties": {"name": "10 HOLLANDS ROAD NOWRA 2541", "locID": "LOC000014143551", "tech": "FTTP", "upgrade": "NULL_NA"}}, {"type": "Feature", "geometry": {"type": "Point", "coordinates": [150.5958299, -34.88082642]}, "properties": {"name": "10 HUXLEY STREET NOWRA 2541", "locID": "LOC000060145294", "tech": "FTTP", "upgrade": "NULL_NA"}}, {"type": "Feature", "geometry": {"type": "Point", "coordinates": [150.60559877, -34.88989807]}, "properties": {"name": "10 JAYCEE AVENUE NOWRA 2541", "locID": "LOC000067099593", "tech": "FTTP", "upgrade": "NULL_NA"}}, {"type": "Feature", "geometry": {"type": "Point", "coordinates": [150.59520802, -34.88200649]}, "properties": {"name": "10 JERVIS STREET NOWRA 2541", "locID": "LOC000103805506", "tech": "FTTP", "upgrade": "NULL_NA"}}, {"type": "Feature", "geometry": {"type": "Point", "coordinates": [150.61384249, -34.89636321]}, "properties": {"name": "10 JINDALEE CRESCENT NOWRA 2541", "locID": "LOC000190604239", "tech": "FTTP", "upgrade": "NULL_NA"}}, {"type": "Feature", "geometry": {"type": "Point", "coordinates": [150.60724318, -34.88011886]}, "properties": {"name": "10 JOURNAL STREET NOWRA 2541", "locID": "LOC000105450518", "tech": "FTTP", "upgrade": "NULL_NA"}}, {"type": "Feature", "geometry": {"type": "Point", "coordinates": [150.59427284, -34.87375792]}, "properties": {"name": "10 JUNCTION STREET NOWRA 2541", "locID": "LOC000082189316", "tech": "FTTP", "upgrade": "NULL_NA"}}, {"type": "Feature", "geometry": {"type": "Point", "coordinates": [150.61722796, -34.89038304]}, "properties": {"name": "10 KAMERUKA CRESCENT NOWRA 2541", "locID": "LOC000041852509", "tech": "FTTN", "upgrade": "FTTP_SA"}}, {"type": "Feature", "geometry": {"type": "Point", "coordinates": [150.61950413, -34.89179543]}, "properties": {"name": "10 KARDELLA AVENUE NOWRA 2541", "locID": "LOC000019763082", "tech": "FTTN", "upgrade": "FTTP_SA"}}, {"type": "Feature", "geometry": {"type": "Point", "coordinates": [150.61448383, -34.89491782]}, "properties": {"name": "10 KEMBLA CLOSE NOWRA 2541", "locID": "LOC000102057670", "tech": "FTTN", "upgrade": "FTTP_SA"}}, {"type": "Feature", "geometry": {"type": "Point", "coordinates": [150.59645995, -34.88721236]}, "properties": {"name": "10 KERWICK CLOSE NOWRA 2541", "locID": "LOC000041146216", "tech": "FTTP", "upgrade": "NULL_NA"}}, {"type": "Feature", "geometry": {"type": "Point", "coordinates": [150.61702941, -34.89881357]}, "properties": {"name": "10 KILLARA ROAD NOWRA 2541", "locID": "LOC000117625435", "tech": "FTTP", "upgrade": "NULL_NA"}}, {"type": "Feature", "geometry": {"type": "Point", "coordinates": [150.60919513, -34.88688019]}, "properties": {"name": "10 KNAPP AVENUE NOWRA 2541", "locID": "LOC000016470271", "tech": "FTTP", "upgrade": "NULL_NA"}}, {"type": "Feature", "geometry": {"type": "Point", "coordinates": [150.5940813, -34.87674204]}, "properties": {"name": "10 LEANEY AVENUE NOWRA 2541", "locID": "LOC000010532948", "tech": "FTTP", "upgrade": "NULL_NA"}}, {"type": "Feature", "geometry": {"type": "Point", "coordinates": [150.60551984, -34.88235012]}, "properties": {"name": "10 LEATHAM AVENUE NOWRA 2541", "locID": "LOC000102168444", "tech": "FTTP", "upgrade": "NULL_NA"}}, {"type": "Feature", "geometry": {"type": "Point", "coordinates": [150.6101682, -34.86627343]}, "properties": {"name": "10 LYREBIRD DRIVE NOWRA 2541", "locID": "LOC000081866323", "tech": "FTTP", "upgrade": "NULL_NA"}}, {"type": "Feature", "geometry": {"type": "Point", "coordinates": [150.60152625, -34.89331595]}, "properties": {"name": "10 MACLEAN STREET NOWRA 2541", "locID": "LOC000032219609", "tech": "FTTP", "upgrade": "NULL_NA"}}, {"type": "Feature", "geometry": {"type": "Point", "coordinates": [150.5980214, -34.86737539]}, "properties": {"name": "10 MANDALAY AVENUE NOWRA 2541", "locID": "LOC000069561238", "tech": "FTTP", "upgrade": "NULL_NA"}}, {"type": "Feature", "geometry": {"type": "Point", "coordinates": [150.61061846, -34.89471535]}, "properties": {"name": "10 MANOORA WAY NOWRA 2541", "locID": "LOC000177053968", "tech": "FTTP", "upgrade": "NULL_NA"}}, {"type": "Feature", "geometry": {"type": "Point", "coordinates": [150.59845166, -34.89020403]}, "properties": {"name": "10 MCDONALD AVENUE NOWRA 2541", "locID": "LOC000009735108", "tech": "FTTP", "upgrade": "NULL_NA"}}, {"type": "Feature", "geometry": {"type": "Point", "coordinates": [150.6047668, -34.87174649]}, "properties": {"name": "10 MCGRATH AVENUE NOWRA 2541", "locID": "LOC000108266934", "tech": "FTTP", "upgrade": "NULL_NA"}}, {"type": "Feature", "geometry": {"type": "Point", "coordinates": [150.6141828, -34.88997377]}, "properties": {"name": "10 MCKAY STREET NOWRA 2541", "locID": "LOC000080678505", "tech": "FTTP", "upgrade": "NULL_NA"}}, {"type": "Feature", "geometry": {"type": "Point", "coordinates": [150.60589047, -34.89363921]}, "properties": {"name": "10 MCKENZIE STREET NOWRA 2541", "locID": "LOC000073110055", "tech": "FTTP", "upgrade": "NULL_NA"}}, {"type": "Feature", "geometry": {"type": "Point", "coordinates": [150.6201898, -34.89543054]}, "properties": {"name": "10 MILDURA STREET NOWRA 2541", "locID": "LOC000059450487", "tech": "FTTN", "upgrade": "FTTP_SA"}}, {"type": "Feature", "geometry": {"type": "Point", "coordinates": [150.60613852, -34.88604557]}, "properties": {"name": "10 MILLER AVENUE NOWRA 2541", "locID": "LOC000018128570", "tech": "FTTP", "upgrade": "NULL_NA"}}, {"type": "Feature", "geometry": {"type": "Point", "coordinates": [150.594604, -34.87470377]}, "properties": {"name": "10 MONAGHAN AVENUE NOWRA 2541", "locID": "LOC000063038567", "tech": "FTTP", "upgrade": "NULL_NA"}}, {"type": "Feature", "geometry": {"type": "Point", "coordinates": [150.60957777, -34.89410541]}, "properties": {"name": "10 MORESBY STREET NOWRA 2541", "locID": "LOC000177053820", "tech": "FTTP", "upgrade": "NULL_NA"}}, {"type": "Feature", "geometry": {"type": "Point", "coordinates": [150.60557814, -34.87848451]}, "properties": {"name": "10 MORTON PARADE NOWRA 2541", "locID": "LOC000044061702", "tech": "FTTP", "upgrade": "NULL_NA"}}, {"type": "Feature", "geometry": {"type": "Point", "coordinates": [150.60450795, -34.87261496]}, "properties": {"name": "10 MOSS STREET NOWRA 2541", "locID": "LOC000072428035", "tech": "FTTP", "upgrade": "NULL_NA"}}, {"type": "Feature", "geometry": {"type": "Point", "coordinates": [150.61916738, -34.89669755]}, "properties": {"name": "10 MYALL CLOSE NOWRA 2541", "locID": "LOC000068690037", "tech": "FTTN", "upgrade": "FTTP_SA"}}, {"type": "Feature", "geometry": {"type": "Point", "coordinates": [150.61820818, -34.89706048]}, "properties": {"name": "10 NARWEE LINK NOWRA 2541", "locID": "LOC000174525979", "tech": "FTTN", "upgrade": "FTTP_SA"}}, {"type": "Feature", "geometry": {"type": "Point", "coordinates": [150.61465033, -34.88954254]}, "properties": {"name": "10 NINEVEH CLOSE NOWRA 2541", "locID": "LOC000034650796", "tech": "FTTN", "upgrade": "FTTP_SA"}}, {"type": "Feature", "geometry": {"type": "Point", "coordinates": [150.59488502, -34.87178534]}, "properties": {"name": "10 NORTH STREET NOWRA 2541", "locID": "LOC000054541808", "tech": "FTTP", "upgrade": "NULL_NA"}}, {"type": "Feature", "geometry": {"type": "Point", "coordinates": [150.60429397, -34.87576486]}, "properties": {"name": "10 NOWRA LANE NOWRA 2541", "locID": "LOC000076623975", "tech": "FTTP", "upgrade": "NULL_NA"}}, {"type": "Feature", "geometry": {"type": "Point", "coordinates": [150.60388959, -34.88620298]}, "properties": {"name": "10 NUMBAA WAY NOWRA 2541", "locID": "LOC000136465108", "tech": "FTTP", "upgrade": "NULL_NA"}}, {"type": "Feature", "geometry": {"type": "Point", "coordinates": [150.59603983, -34.87907745]}, "properties": {"name": "10 OLIVER PARADE NOWRA 2541", "locID": "LOC000047091009", "tech": "FTTP", "upgrade": "NULL_NA"}}, {"type": "Feature", "geometry": {"type": "Point", "coordinates": [150.59942068, -34.86974618]}, "properties": {"name": "10 OSBORNE STREET NOWRA 2541", "locID": "LOC000086184687", "tech": "FTTP", "upgrade": "NULL_NA"}}, {"type": "Feature", "geometry": {"type": "Point", "coordinates": [150.60412409, -34.89518533]}, "properties": {"name": "10 PARK ROAD NOWRA 2541", "locID": "LOC000057719789", "tech": "FTTP", "upgrade": "NULL_NA"}}, {"type": "Feature", "geometry": {"type": "Point", "coordinates": [150.61576701, -34.8975515]}, "properties": {"name": "10 PATONGA STREET NOWRA 2541", "locID": "LOC000176977346", "tech": "FTTP", "upgrade": "NULL_NA"}}, {"type": "Feature", "geometry": {"type": "Point", "coordinates": [150.6001784, -34.89336466]}, "properties": {"name": "10 PIONEER PLACE NOWRA 2541", "locID": "LOC000004023934", "tech": "FTTP", "upgrade": "NULL_NA"}}, {"type": "Feature", "geometry": {"type": "Point", "coordinates": [150.60290308, -34.86709367]}, "properties": {"name": "10 PLEASANT WAY NOWRA 2541", "locID": "LOC000114069086", "tech": "FTTP", "upgrade": "NULL_NA"}}, {"type": "Feature", "geometry": {"type": "Point", "coordinates": [150.60666987, -34.87373672]}, "properties": {"name": "10 PRINCES HIGHWAY NOWRA 2541", "locID": "LOC000121233283", "tech": "FTTP", "upgrade": "NULL_NA"}}, {"type": "Feature", "geometry": {"type": "Point", "coordinates": [150.5992459, -34.89111013]}, "properties": {"name": "10 PURDIE CRESCENT NOWRA 2541", "locID": "LOC000078329965", "tech": "FTTP", "upgrade": "NULL_NA"}}, {"type": "Feature", "geometry": {"type": "Point", "coordinates": [150.60964644, -34.8920011]}, "properties": {"name": "10 QUEENBOROUGH STREET NOWRA 2541", "locID": "LOC000121235077", "tech": "FTTP", "upgrade": "NULL_NA"}}, {"type": "Feature", "geometry": {"type": "Point", "coordinates": [150.61035387, -34.89246401]}, "properties": {"name": "10 QUIBERON STREET NOWRA 2541", "locID": "LOC000053981481", "tech": "FTTP", "upgrade": "NULL_NA"}}, {"type": "Feature", "geometry": {"type": "Point", "coordinates": [150.61066973, -34.89166118]}, "properties": {"name": "10 QUICKMATCH STREET NOWRA 2541", "locID": "LOC000108282922", "tech": "FTTP", "upgrade": "NULL_NA"}}, {"type": "Feature", "geometry": {"type": "Point", "coordinates": [150.59666791, -34.89048937]}, "properties": {"name": "10 REIBY PLACE NOWRA 2541", "locID": "LOC000089099574", "tech": "FTTP", "upgrade": "NULL_NA"}}, {"type": "Feature", "geometry": {"type": "Point", "coordinates": [150.60464612, -34.86559062]}, "properties": {"name": "10 RIVERVIEW ROAD NOWRA 2541", "locID": "LOC000027185689", "tech": "FTTP", "upgrade": "NULL_NA"}}, {"type": "Feature", "geometry": {"type": "Point", "coordinates": [150.59405093, -34.88684597]}, "properties": {"name": "10 ROSEWOOD CLOSE NOWRA 2541", "locID": "LOC000040320860", "tech": "FTTP", "upgrade": "NULL_NA"}}, {"type": "Feature", "geometry": {"type": "Point", "coordinates": [150.6022666, -34.88588518]}, "properties": {"name": "10 RYAN AVENUE NOWRA 2541", "locID": "LOC000031901554", "tech": "FTTP", "upgrade": "NULL_NA"}}, {"type": "Feature", "geometry": {"type": "Point", "coordinates": [150.59826311, -34.8669377]}, "properties": {"name": "10 SCENIC DRIVE NOWRA 2541", "locID": "LOC000064898876", "tech": "FTTP", "upgrade": "NULL_NA"}}, {"type": "Feature", "geometry": {"type": "Point", "coordinates": [150.60226708, -34.8750624]}, "properties": {"name": "10 SCHOFIELDS LANE NOWRA 2541", "locID": "LOC000112888014", "tech": "FTTP", "upgrade": "NULL_NA"}}, {"type": "Feature", "geometry": {"type": "Point", "coordinates": [150.61137166, -34.88694409]}, "properties": {"name": "10 SECCOMBE STREET NOWRA 2541", "locID": "LOC000033281328", "tech": "FTTP", "upgrade": "NULL_NA"}}, {"type": "Feature", "geometry": {"type": "Point", "coordinates": [150.59343889, -34.87874417]}, "properties": {"name": "10 SHEPHERD STREET NOWRA 2541", "locID": "LOC000103668257", "tech": "FTTP", "upgrade": "NULL_NA"}}, {"type": "Feature", "geometry": {"type": "Point", "coordinates": [150.59740439, -34.8678448]}, "properties": {"name": "10 SHOALHAVEN STREET NOWRA 2541", "locID": "LOC000086598094", "tech": "FTTP", "upgrade": "NULL_NA"}}, {"type": "Feature", "geometry": {"type": "Point", "coordinates": [150.59824987, -34.88101059]}, "properties": {"name": "10 SPRING STREET NOWRA 2541", "locID": "LOC000016788517", "tech": "FTTP", "upgrade": "NULL_NA"}}, {"type": "Feature", "geometry": {"type": "Point", "coordinates": [150.6051471, -34.88443258]}, "properties": {"name": "10 STATION STREET NOWRA 2541", "locID": "LOC000026388252", "tech": "FTTP", "upgrade": "NULL_NA"}}, {"type": "Feature", "geometry": {"type": "Point", "coordinates": [150.61015725, -34.88942774]}, "properties": {"name": "10 STUART STREET NOWRA 2541", "locID": "LOC000052795477", "tech": "FTTP", "upgrade": "NULL_NA"}}, {"type": "Feature", "geometry": {"type": "Point", "coordinates": [150.61374624, -34.89405641]}, "properties": {"name": "10 SUPPLY STREET NOWRA 2541", "locID": "LOC000092319759", "tech": "FTTN", "upgrade": "FTTP_SA"}}, {"type": "Feature", "geometry": {"type": "Point", "coordinates": [150.60791082, -34.88999231]}, "properties": {"name": "10 TAIPAN TERRACE NOWRA 2541", "locID": "LOC000185777370", "tech": "FTTP", "upgrade": "NULL_NA"}}, {"type": "Feature", "geometry": {"type": "Point", "coordinates": [150.6030894, -34.8910506]}, "properties": {"name": "10 TARANNA CRESCENT NOWRA 2541", "locID": "LOC000010676253", "tech": "FTTP", "upgrade": "NULL_NA"}}, {"type": "Feature", "geometry": {"type": "Point", "coordinates": [150.61783894, -34.88853534]}, "properties": {"name": "10 TARRABA CRESCENT NOWRA 2541", "locID": "LOC000063412710", "tech": "FTTP", "upgrade": "NULL_NA"}}, {"type": "Feature", "geometry": {"type": "Point", "coordinates": [150.61469611, -34.89073202]}, "properties": {"name": "10 TORRIDON STREET NOWRA 2541", "locID": "LOC000036750481", "tech": "FTTN", "upgrade": "FTTP_SA"}}, {"type": "Feature", "geometry": {"type": "Point", "coordinates": [150.6133638, -34.89404808]}, "properties": {"name": "10 VENDETTA STREET NOWRA 2541", "locID": "LOC000177054147", "tech": "FTTP", "upgrade": "NULL_NA"}}, {"type": "Feature", "geometry": {"type": "Point", "coordinates": [150.60275663, -34.88402569]}, "properties": {"name": "10 VIEW STREET NOWRA 2541", "locID": "LOC000102690254", "tech": "FTTP", "upgrade": "NULL_NA"}}, {"type": "Feature", "geometry": {"type": "Point", "coordinates": [150.62032227, -34.89589032]}, "properties": {"name": "10 WARRIGAL STREET NOWRA 2541", "locID": "LOC000101579996", "tech": "FTTN", "upgrade": "FTTP_SA"}}, {"type": "Feature", "geometry": {"type": "Point", "coordinates": [150.61400722, -34.88616771]}, "properties": {"name": "10 WELLESLEY PLACE NOWRA 2541", "locID": "LOC000041012499", "tech": "FTTP", "upgrade": "NULL_NA"}}, {"type": "Feature", "geometry": {"type": "Point", "coordinates": [150.59388949, -34.8728025]}, "properties": {"name": "10 WEST STREET NOWRA 2541", "locID": "LOC000064871253", "tech": "FTTP", "upgrade": "NULL_NA"}}, {"type": "Feature", "geometry": {"type": "Point", "coordinates": [150.59397344, -34.88746116]}, "properties": {"name": "10 WESTBORNE DRIVE NOWRA 2541", "locID": "LOC000072209394", "tech": "FTTP", "upgrade": "NULL_NA"}}, {"type": "Feature", "geometry": {"type": "Point", "coordinates": [150.59511692, -34.87282084]}, "properties": {"name": "10 WESTHAVEN AVENUE NOWRA 2541", "locID": "LOC000072616306", "tech": "FTTP", "upgrade": "NULL_NA"}}, {"type": "Feature", "geometry": {"type": "Point", "coordinates": [150.60258512, -34.86535028]}, "properties": {"name": "10 WHARF ROAD NOWRA 2541", "locID": "LOC000121235106", "tech": "FTTP", "upgrade": "NULL_NA"}}, {"type": "Feature", "geometry": {"type": "Point", "coordinates": [150.60067713, -34.88177375]}, "properties": {"name": "10 WILSON AVENUE NOWRA 2541", "locID": "LOC000046093186", "tech": "FTTP", "upgrade": "NULL_NA"}}, {"type": "Feature", "geometry": {"type": "Point", "coordinates": [150.61134724, -34.87128054]}, "properties": {"name": "10 WONDALGA CRESCENT NOWRA 2541", "locID": "LOC000020505651", "tech": "FTTP", "upgrade": "NULL_NA"}}, {"type": "Feature", "geometry": {"type": "Point", "coordinates": [150.61045622, -34.88685283]}, "properties": {"name": "10 YOUNG AVENUE NOWRA 2541", "locID": "LOC000078266817", "tech": "FTTP", "upgrade": "NULL_NA"}}, {"type": "Feature", "geometry": {"type": "Point", "coordinates": [150.60175809, -34.88951102]}, "properties": {"name": "100 ALBERT STREET NOWRA 2541", "locID": "LOC000005446205", "tech": "FTTP", "upgrade": "NULL_NA"}}, {"type": "Feature", "geometry": {"type": "Point", "coordinates": [150.60154171, -34.88070206]}, "properties": {"name": "100 DOUGLAS STREET NOWRA 2541", "locID": "LOC000144504738", "tech": "FTTP", "upgrade": "NULL_NA"}}, {"type": "Feature", "geometry": {"type": "Point", "coordinates": [150.60440227, -34.88225279]}, "properties": {"name": "100 EAST STREET NOWRA 2541", "locID": "LOC000090045417", "tech": "FTTP", "upgrade": "NULL_NA"}}, {"type": "Feature", "geometry": {"type": "Point", "coordinates": [150.60757859, -34.88372527]}, "properties": {"name": "100 JERVIS STREET NOWRA 2541", "locID": "LOC000014144461", "tech": "FTTP", "upgrade": "NULL_NA"}}, {"type": "Feature", "geometry": {"type": "Point", "coordinates": [150.60161352, -34.87475526]}, "properties": {"name": "100 JUNCTION STREET NOWRA 2541", "locID": "LOC000102105896", "tech": "FTTP", "upgrade": "NULL_NA"}}, {"type": "Feature", "geometry": {"type": "Point", "coordinates": [150.60669865, -34.888291]}, "properties": {"name": "100 KALANDAR STREET NOWRA 2541", "locID": "LOC000097239400", "tech": "FTTP", "upgrade": "NULL_NA"}}, {"type": "Feature", "geometry": {"type": "Point", "coordinates": [150.60304069, -34.87635908]}, "properties": {"name": "100 KINGHORNE STREET NOWRA 2541", "locID": "LOC000063425648", "tech": "FTTP", "upgrade": "NULL_NA"}}, {"type": "Feature", "geometry": {"type": "Point", "coordinates": [150.6065418, -34.87343323]}, "properties": {"name": "100 NORTH STREET NOWRA 2541", "locID": "LOC000030278473", "tech": "FTTP", "upgrade": "NULL_NA"}}, {"type": "Feature", "geometry": {"type": "Point", "coordinates": [150.61529702, -34.88415365]}, "properties": {"name": "100 SALISBURY DRIVE NOWRA 2541", "locID": "LOC000054633083", "tech": "FTTP", "upgrade": "NULL_NA"}}, {"type": "Feature", "geometry": {"type": "Point", "coordinates": [150.59585885, -34.87679156]}, "properties": {"name": "100 SHOALHAVEN STREET NOWRA 2541", "locID": "LOC000034096373", "tech": "FTTP", "upgrade": "NULL_NA"}}, {"type": "Feature", "geometry": {"type": "Point", "coordinates": [150.6060308, -34.88548599]}, "properties": {"name": "100 ST ANNS STREET NOWRA 2541", "locID": "LOC000020545564", "tech": "FTTP", "upgrade": "NULL_NA"}}, {"type": "Feature", "geometry": {"type": "Point", "coordinates": [150.60836704, -34.88638287]}, "properties": {"name": "100 WALLACE STREET NOWRA 2541", "locID": "LOC000009009375", "tech": "FTTP", "upgrade": "NULL_NA"}}, {"type": "Feature", "geometry": {"type": "Point", "coordinates": [150.59887669, -34.88072437]}, "properties": {"name": "101 BERRY STREET NOWRA 2541", "locID": "LOC000025007608", "tech": "FTTP", "upgrade": "NULL_NA"}}, {"type": "Feature", "geometry": {"type": "Point", "coordinates": [150.6037347, -34.88158444]}, "properties": {"name": "101 EAST STREET NOWRA 2541", "locID": "LOC000010905592", "tech": "FTTP", "upgrade": "NULL_NA"}}, {"type": "Feature", "geometry": {"type": "Point", "coordinates": [150.6095113, -34.88342372]}, "properties": {"name": "101 JERVIS STREET NOWRA 2541", "locID": "LOC000068445555", "tech": "FTTP", "upgrade": "NULL_NA"}}, {"type": "Feature", "geometry": {"type": "Point", "coordinates": [150.60932567, -34.88801598]}, "properties": {"name": "101 KALANDAR STREET NOWRA 2541", "locID": "LOC000046326864", "tech": "FTTP", "upgrade": "NULL_NA"}}, {"type": "Feature", "geometry": {"type": "Point", "coordinates": [150.60157053, -34.88010605]}, "properties": {"name": "101 KINGHORNE STREET NOWRA 2541", "locID": "LOC000043217210", "tech": "FTTP", "upgrade": "NULL_NA"}}, {"type": "Feature", "geometry": {"type": "Point", "coordinates": [150.61024375, -34.87047653]}, "properties": {"name": "101 MOSS STREET NOWRA 2541", "locID": "LOC000042023533", "tech": "FTTP", "upgrade": "NULL_NA"}}, {"type": "Feature", "geometry": {"type": "Point", "coordinates": [150.6150404, -34.89564158]}, "properties": {"name": "101 PARK ROAD NOWRA 2541", "locID": "LOC000018400278", "tech": "FTTN", "upgrade": "FTTP_SA"}}, {"type": "Feature", "geometry": {"type": "Point", "coordinates": [150.60745358, -34.88644361]}, "properties": {"name": "101 WALLACE STREET NOWRA 2541", "locID": "LOC000038375519", "tech": "FTTP", "upgrade": "NULL_NA"}}, {"type": "Feature", "geometry": {"type": "Point", "coordinates": [150.60196646, -34.88953112]}, "properties": {"name": "102 ALBERT STREET NOWRA 2541", "locID": "LOC000076408912", "tech": "FTTP", "upgrade": "NULL_NA"}}, {"type": "Feature", "geometry": {"type": "Point", "coordinates": [150.60245727, -34.88099589]}, "properties": {"name": "102 DOUGLAS STREET NOWRA 2541", "locID": "LOC000039219076", "tech": "FTTP", "upgrade": "NULL_NA"}}, {"type": "Feature", "geometry": {"type": "Point", "coordinates": [150.60436099, -34.88245848]}, "properties": {"name": "102 EAST STREET NOWRA 2541", "locID": "LOC000050354730", "tech": "FTTP", "upgrade": "NULL_NA"}}, {"type": "Feature", "geometry": {"type": "Point", "coordinates": [150.60777767, -34.88375074]}, "properties": {"name": "102 JERVIS STREET NOWRA 2541", "locID": "LOC000045500614", "tech": "FTTP", "upgrade": "NULL_NA"}}, {"type": "Feature", "geometry": {"type": "Point", "coordinates": [150.60172624, -34.87477218]}, "properties": {"name": "102 JUNCTION STREET NOWRA 2541", "locID": "LOC000008320714", "tech": "FTTP", "upgrade": "NULL_NA"}}, {"type": "Feature", "geometry": {"type": "Point", "coordinates": [150.60680511, -34.88861671]}, "properties": {"name": "102 KALANDAR STREET NOWRA 2541", "locID": "LOC000020654756", "tech": "FTTP", "upgrade": "NULL_NA"}}, {"type": "Feature", "geometry": {"type": "Point", "coordinates": [150.60281475, -34.87899083]}, "properties": {"name": "102 PLUNKETT STREET NOWRA 2541", "locID": "LOC000004276488", "tech": "FTTP", "upgrade": "NULL_NA"}}, {"type": "Feature", "geometry": {"type": "Point", "coordinates": [150.61517913, -34.88401909]}, "properties": {"name": "102 SALISBURY DRIVE NOWRA 2541", "locID": "LOC000098135437", "tech": "FTTP", "upgrade": "NULL_NA"}}, {"type": "Feature", "geometry": {"type": "Point", "coordinates": [150.59582133, -34.87697013]}, "properties": {"name": "102 SHOALHAVEN STREET NOWRA 2541", "locID": "LOC000018813367", "tech": "FTTP", "upgrade": "NULL_NA"}}, {"type": "Feature", "geometry": {"type": "Point", "coordinates": [150.60627235, -34.88552817]}, "properties": {"name": "102 ST ANNS STREET NOWRA 2541", "locID": "LOC000034581072", "tech": "FTTP", "upgrade": "NULL_NA"}}, {"type": "Feature", "geometry": {"type": "Point", "coordinates": [150.60827991, -34.88667661]}, "properties": {"name": "102 WALLACE STREET NOWRA 2541", "locID": "LOC000006502137", "tech": "FTTP", "upgrade": "NULL_NA"}}, {"type": "Feature", "geometry": {"type": "Point", "coordinates": [150.59883839, -34.88090724]}, "properties": {"name": "103 BERRY STREET NOWRA 2541", "locID": "LOC000030550811", "tech": "FTTP", "upgrade": "NULL_NA"}}, {"type": "Feature", "geometry": {"type": "Point", "coordinates": [150.60370786, -34.8817196]}, "properties": {"name": "103 EAST STREET NOWRA 2541", "locID": "LOC000054474563", "tech": "FTTP", "upgrade": "NULL_NA"}}, {"type": "Feature", "geometry": {"type": "Point", "coordinates": [150.60196301, -34.87424949]}, "properties": {"name": "103 JUNCTION STREET NOWRA 2541", "locID": "LOC000062088030", "tech": "FTTP", "upgrade": "NULL_NA"}}, {"type": "Feature", "geometry": {"type": "Point", "coordinates": [150.60949356, -34.88803939]}, "properties": {"name": "103 KALANDAR STREET NOWRA 2541", "locID": "LOC000028795535", "tech": "FTTP", "upgrade": "NULL_NA"}}, {"type": "Feature", "geometry": {"type": "Point", "coordinates": [150.60151499, -34.88037805]}, "properties": {"name": "103 KINGHORNE STREET NOWRA 2541", "locID": "LOC000068566739", "tech": "FTTP", "upgrade": "NULL_NA"}}, {"type": "Feature", "geometry": {"type": "Point", "coordinates": [150.61037613, -34.87037041]}, "properties": {"name": "103 MOSS STREET NOWRA 2541", "locID": "LOC000099678977", "tech": "FTTP", "upgrade": "NULL_NA"}}, {"type": "Feature", "geometry": {"type": "Point", "coordinates": [150.61525051, -34.89561975]}, "properties": {"name": "103 PARK ROAD NOWRA 2541", "locID": "LOC000076876182", "tech": "FTTN", "upgrade": "FTTP_SA"}}, {"type": "Feature", "geometry": {"type": "Point", "coordinates": [150.60395192, -34.87852247]}, "properties": {"name": "103 PLUNKETT STREET NOWRA 2541", "locID": "LOC000171128359", "tech": "FTTP", "upgrade": "NULL_NA"}}, {"type": "Feature", "geometry": {"type": "Point", "coordinates": [150.59480231, -34.87673797]}, "properties": {"name": "103 SHOALHAVEN STREET NOWRA 2541", "locID": "LOC000018795979", "tech": "FTTP", "upgrade": "NULL_NA"}}, {"type": "Feature", "geometry": {"type": "Point", "coordinates": [150.60742455, -34.88657759]}, "properties": {"name": "103 WALLACE STREET NOWRA 2541", "locID": "LOC000093650835", "tech": "FTTP", "upgrade": "NULL_NA"}}, {"type": "Feature", "geometry": {"type": "Point", "coordinates": [150.59960316, -34.88092614]}, "properties": {"name": "104 BERRY STREET NOWRA 2541", "locID": "LOC000016403316", "tech": "FTTP", "upgrade": "NULL_NA"}}, {"type": "Feature", "geometry": {"type": "Point", "coordinates": [150.6026986, -34.88103143]}, "properties": {"name": "104 DOUGLAS STREET NOWRA 2541", "locID": "LOC000051514449", "tech": "FTTP", "upgrade": "NULL_NA"}}, {"type": "Feature", "geometry": {"type": "Point", "coordinates": [150.60426684, -34.88263029]}, "properties": {"name": "104 EAST STREET NOWRA 2541", "locID": "LOC000094863393", "tech": "FTTP", "upgrade": "NULL_NA"}}, {"type": "Feature", "geometry": {"type": "Point", "coordinates": [150.60805379, -34.88378071]}, "properties": {"name": "104 JERVIS STREET NOWRA 2541", "locID": "LOC000036612134", "tech": "FTTP", "upgrade": "NULL_NA"}}, {"type": "Feature", "geometry": {"type": "Point", "coordinates": [150.60703082, -34.88827081]}, "properties": {"name": "104 KALANDAR STREET NOWRA 2541", "locID": "LOC000002280227", "tech": "FTTP", "upgrade": "NULL_NA"}}, {"type": "Feature", "geometry": {"type": "Point", "coordinates": [150.61506146, -34.88388393]}, "properties": {"name": "104 SALISBURY DRIVE NOWRA 2541", "locID": "LOC000064317603", "tech": "FTTP", "upgrade": "NULL_NA"}}, {"type": "Feature", "geometry": {"type": "Point", "coordinates": [150.59578387, -34.87714835]}, "properties": {"name": "104 SHOALHAVEN STREET NOWRA 2541", "locID": "LOC000057852728", "tech": "FTTP", "upgrade": "NULL_NA"}}, {"type": "Feature", "geometry": {"type": "Point", "coordinates": [150.60826968, -34.8868424]}, "properties": {"name": "104 WALLACE STREET NOWRA 2541", "locID": "LOC000068341647", "tech": "FTTP", "upgrade": "NULL_NA"}}, {"type": "Feature", "geometry": {"type": "Point", "coordinates": [150.60432929, -34.87736064]}, "properties": {"name": "104 WORRIGEE STREET NOWRA 2541", "locID": "LOC000034267299", "tech": "FTTP", "upgrade": "NULL_NA"}}, {"type": "Feature", "geometry": {"type": "Point", "coordinates": [150.60805379, -34.88378071]}, "properties": {"name": "104B JERVIS STREET NOWRA 2541", "locID": "LOC000187258259", "tech": "FTTP", "upgrade": "NULL_NA"}}, {"type": "Feature", "geometry": {"type": "Point", "coordinates": [150.5987999, -34.88109018]}, "properties": {"name": "105 BERRY STREET NOWRA 2541", "locID": "LOC000048008793", "tech": "FTTP", "upgrade": "NULL_NA"}}, {"type": "Feature", "geometry": {"type": "Point", "coordinates": [150.6036391, -34.88184806]}, "properties": {"name": "105 EAST STREET NOWRA 2541", "locID": "LOC000014833774", "tech": "FTTP", "upgrade": "NULL_NA"}}, {"type": "Feature", "geometry": {"type": "Point", "coordinates": [150.60203834, -34.87426031]}, "properties": {"name": "105 JUNCTION STREET NOWRA 2541", "locID": "LOC000061984874", "tech": "FTTP", "upgrade": "NULL_NA"}}, {"type": "Feature", "geometry": {"type": "Point", "coordinates": [150.60965908, -34.88806247]}, "properties": {"name": "105 KALANDAR STREET NOWRA 2541", "locID": "LOC000053553718", "tech": "FTTP", "upgrade": "NULL_NA"}}, {"type": "Feature", "geometry": {"type": "Point", "coordinates": [150.60153185, -34.88082294]}, "properties": {"name": "105 KINGHORNE STREET NOWRA 2541", "locID": "LOC000053422047", "tech": "FTTP", "upgrade": "NULL_NA"}}, {"type": "Feature", "geometry": {"type": "Point", "coordinates": [150.61050743, -34.87025609]}, "properties": {"name": "105 MOSS STREET NOWRA 2541", "locID": "LOC000070106071", "tech": "FTTP", "upgrade": "NULL_NA"}}, {"type": "Feature", "geometry": {"type": "Point", "coordinates": [150.59713951, -34.87761634]}, "properties": {"name": "105 OSBORNE STREET NOWRA 2541", "locID": "LOC000078503754", "tech": "FTTP", "upgrade": "NULL_NA"}}, {"type": "Feature", "geometry": {"type": "Point", "coordinates": [150.6154583, -34.89559542]}, "properties": {"name": "105 PARK ROAD NOWRA 2541", "locID": "LOC000070519262", "tech": "FTTN", "upgrade": "FTTP_SA"}}, {"type": "Feature", "geometry": {"type": "Point", "coordinates": [150.59475814, -34.87695098]}, "properties": {"name": "105 SHOALHAVEN STREET NOWRA 2541", "locID": "LOC000046161078", "tech": "FTTP", "upgrade": "NULL_NA"}}, {"type": "Feature", "geometry": {"type": "Point", "coordinates": [150.60879271, -34.88527552]}, "properties": {"name": "105 ST ANNS STREET NOWRA 2541", "locID": "LOC000106811585", "tech": "FTTP", "upgrade": "NULL_NA"}}, {"type": "Feature", "geometry": {"type": "Point", "coordinates": [150.60756991, -34.88673484]}, "properties": {"name": "105 WALLACE STREET NOWRA 2541", "locID": "LOC000046919117", "tech": "FTTP", "upgrade": "NULL_NA"}}, {"type": "Feature", "geometry": {"type": "Point", "coordinates": [150.60285364, -34.88965502]}, "properties": {"name": "106 ALBERT STREET NOWRA 2541", "locID": "LOC000105374245", "tech": "FTTP", "upgrade": "NULL_NA"}}, {"type": "Feature", "geometry": {"type": "Point", "coordinates": [150.59964986, -34.88115664]}, "properties": {"name": "106 BERRY STREET NOWRA 2541", "locID": "LOC000034107761", "tech": "FTTP", "upgrade": "NULL_NA"}}, {"type": "Feature", "geometry": {"type": "Point", "coordinates": [150.60030565, -34.88036947]}, "properties": {"name": "106 DOUGLAS STREET NOWRA 2541", "locID": "LOC000047466436", "tech": "FTTP", "upgrade": "NULL_NA"}}, {"type": "Feature", "geometry": {"type": "Point", "coordinates": [150.60423257, -34.88281209]}, "properties": {"name": "106 EAST STREET NOWRA 2541", "locID": "LOC000047990547", "tech": "FTTP", "upgrade": "NULL_NA"}}, {"type": "Feature", "geometry": {"type": "Point", "coordinates": [150.60818406, -34.88380273]}, "properties": {"name": "106 JERVIS STREET NOWRA 2541", "locID": "LOC000024080799", "tech": "FTTP", "upgrade": "NULL_NA"}}, {"type": "Feature", "geometry": {"type": "Point", "coordinates": [150.60181093, -34.87477499]}, "properties": {"name": "106 JUNCTION STREET NOWRA 2541", "locID": "LOC000018948477", "tech": "FTTP", "upgrade": "NULL_NA"}}, {"type": "Feature", "geometry": {"type": "Point", "coordinates": [150.60727154, -34.88827303]}, "properties": {"name": "106 KALANDAR STREET NOWRA 2541", "locID": "LOC000191910705", "tech": "FTTP", "upgrade": "NULL_NA"}}, {"type": "Feature", "geometry": {"type": "Point", "coordinates": [150.60300548, -34.87652999]}, "properties": {"name": "106 KINGHORNE STREET NOWRA 2541", "locID": "LOC000114135689", "tech": "FTTP", "upgrade": "NULL_NA"}}, {"type": "Feature", "geometry": {"type": "Point", "coordinates": [150.61494393, -34.88374912]}, "properties": {"name": "106 SALISBURY DRIVE NOWRA 2541", "locID": "LOC000037268309", "tech": "FTTP", "upgrade": "NULL_NA"}}, {"type": "Feature", "geometry": {"type": "Point", "coordinates": [150.59501121, -34.87883765]}, "properties": {"name": "106 SHOALHAVEN STREET NOWRA 2541", "locID": "LOC000038423259", "tech": "FTTP", "upgrade": "NULL_NA"}}, {"type": "Feature", "geometry": {"type": "Point", "coordinates": [150.60825163, -34.88699086]}, "properties": {"name": "106 WALLACE STREET NOWRA 2541", "locID": "LOC000090747313", "tech": "FTTP", "upgrade": "NULL_NA"}}, {"type": "Feature", "geometry": {"type": "Point", "coordinates": [150.59512285, -34.87813037]}, "properties": {"name": "106A SHOALHAVEN STREET NOWRA 2541", "locID": "LOC000114275593", "tech": "FTTP", "upgrade": "NULL_NA"}}, {"type": "Feature", "geometry": {"type": "Point", "coordinates": [150.59879955, -34.88127649]}, "properties": {"name": "107 BERRY STREET NOWRA 2541", "locID": "LOC000061312835", "tech": "FTTP", "upgrade": "NULL_NA"}}, {"type": "Feature", "geometry": {"type": "Point", "coordinates": [150.60497237, -34.88076653]}, "properties": {"name": "107 DOUGLAS STREET NOWRA 2541", "locID": "LOC000088001846", "tech": "FTTP", "upgrade": "NULL_NA"}}, {"type": "Feature", "geometry": {"type": "Point", "coordinates": [150.60365278, -34.88199318]}, "properties": {"name": "107 EAST STREET NOWRA 2541", "locID": "LOC000090339382", "tech": "FTTP", "upgrade": "NULL_NA"}}, {"type": "Feature", "geometry": {"type": "Point", "coordinates": [150.60982248, -34.88808525]}, "properties": {"name": "107 KALANDAR STREET NOWRA 2541", "locID": "LOC000099893706", "tech": "FTTP", "upgrade": "NULL_NA"}}, {"type": "Feature", "geometry": {"type": "Point", "coordinates": [150.601398, -34.88096892]}, "properties": {"name": "107 KINGHORNE STREET NOWRA 2541", "locID": "LOC000090620085", "tech": "FTTP", "upgrade": "NULL_NA"}}, {"type": "Feature", "geometry": {"type": "Point", "coordinates": [150.61063871, -34.87014602]}, "properties": {"name": "107 MOSS STREET NOWRA 2541", "locID": "LOC000069348679", "tech": "FTTP", "upgrade": "NULL_NA"}}, {"type": "Feature", "geometry": {"type": "Point", "coordinates": [150.60636483, -34.87286692]}, "properties": {"name": "107 NORTH STREET NOWRA 2541", "locID": "LOC000077112915", "tech": "FTTN", "upgrade": "FTTP_SA"}}, {"type": "Feature", "geometry": {"type": "Point", "coordinates": [150.61568163, -34.89556339]}, "properties": {"name": "107 PARK ROAD NOWRA 2541", "locID": "LOC000052112062", "tech": "FTTN", "upgrade": "FTTP_SA"}}, {"type": "Feature", "geometry": {"type": "Point", "coordinates": [150.59424826, -34.87015315]}, "properties": {"name": "107 SCENIC DRIVE NOWRA 2541", "locID": "LOC000161522778", "tech": "FTTP", "upgrade": "NULL_NA"}}, {"type": "Feature", "geometry": {"type": "Point", "coordinates": [150.59456398, -34.87706306]}, "properties": {"name": "107 SHOALHAVEN STREET NOWRA 2541", "locID": "LOC000052185993", "tech": "FTTP", "upgrade": "NULL_NA"}}, {"type": "Feature", "geometry": {"type": "Point", "coordinates": [150.60897795, -34.88539367]}, "properties": {"name": "107 ST ANNS STREET NOWRA 2541", "locID": "LOC000052217593", "tech": "FTTP", "upgrade": "NULL_NA"}}, {"type": "Feature", "geometry": {"type": "Point", "coordinates": [150.60769353, -34.88690558]}, "properties": {"name": "107 WALLACE STREET NOWRA 2541", "locID": "LOC000097586592", "tech": "FTTP", "upgrade": "NULL_NA"}}, {"type": "Feature", "geometry": {"type": "Point", "coordinates": [150.60907917, -34.88518835]}, "properties": {"name": "107A ST ANNS STREET NOWRA 2541", "locID": "LOC000051909460", "tech": "FTTP", "upgrade": "NULL_NA"}}, {"type": "Feature", "geometry": {"type": "Point", "coordinates": [150.60346883, -34.88109123]}, "properties": {"name": "108 DOUGLAS STREET NOWRA 2541", "locID": "LOC000039995903", "tech": "FTTP", "upgrade": "NULL_NA"}}, {"type": "Feature", "geometry": {"type": "Point", "coordinates": [150.60417431, -34.88319326]}, "properties": {"name": "108 EAST STREET NOWRA 2541", "locID": "LOC000046473670", "tech": "FTTP", "upgrade": "NULL_NA"}}, {"type": "Feature", "geometry": {"type": "Point", "coordinates": [150.60839375, -34.88382955]}, "properties": {"name": "108 JERVIS STREET NOWRA 2541", "locID": "LOC000055975822", "tech": "FTTP", "upgrade": "NULL_NA"}}, {"type": "Feature", "geometry": {"type": "Point", "coordinates": [150.60003794, -34.8742428]}, "properties": {"name": "108 JUNCTION STREET NOWRA 2541", "locID": "LOC000018948477", "tech": "FTTP", "upgrade": "NULL_NA"}}, {"type": "Feature", "geometry": {"type": "Point", "coordinates": [150.60733549, -34.88855962]}, "properties": {"name": "108 KALANDAR STREET NOWRA 2541", "locID": "LOC000191910705", "tech": "FTTP", "upgrade": "NULL_NA"}}, {"type": "Feature", "geometry": {"type": "Point", "coordinates": [150.60345327, -34.87708797]}, "properties": {"name": "108 KINGHORNE STREET NOWRA 2541", "locID": "LOC000045275640", "tech": "FTTP", "upgrade": "NULL_NA"}}, {"type": "Feature", "geometry": {"type": "Point", "coordinates": [150.61482854, -34.88360875]}, "properties": {"name": "108 SALISBURY DRIVE NOWRA 2541", "locID": "LOC000076559671", "tech": "FTTP", "upgrade": "NULL_NA"}}, {"type": "Feature", "geometry": {"type": "Point", "coordinates": [150.59505745, -34.8790614]}, "properties": {"name": "108 SHOALHAVEN STREET NOWRA 2541", "locID": "LOC000049362786", "tech": "FTTP", "upgrade": "NULL_NA"}}, {"type": "Feature", "geometry": {"type": "Point", "coordinates": [150.60820458, -34.88714781]}, "properties": {"name": "108 WALLACE STREET NOWRA 2541", "locID": "LOC000045536263", "tech": "FTTP", "upgrade": "NULL_NA"}}, {"type": "Feature", "geometry": {"type": "Point", "coordinates": [150.6032988, -34.88106792]}, "properties": {"name": "108A DOUGLAS STREET NOWRA 2541", "locID": "LOC000040131065", "tech": "FTTP", "upgrade": "NULL_NA"}}, {"type": "Feature", "geometry": {"type": "Point", "coordinates": [150.59876272, -34.88145526]}, "properties": {"name": "109 BERRY STREET NOWRA 2541", "locID": "LOC000006373716", "tech": "FTTP", "upgrade": "NULL_NA"}}, {"type": "Feature", "geometry": {"type": "Point", "coordinates": [150.60515011, -34.88079391]}, "properties": {"name": "109 DOUGLAS STREET NOWRA 2541", "locID": "LOC000045664762", "tech": "FTTP", "upgrade": "NULL_NA"}}, {"type": "Feature", "geometry": {"type": "Point", "coordinates": [150.60362326, -34.88214185]}, "properties": {"name": "109 EAST STREET NOWRA 2541", "locID": "LOC000086194609", "tech": "FTTP", "upgrade": "NULL_NA"}}, {"type": "Feature", "geometry": {"type": "Point", "coordinates": [150.60998363, -34.88810772]}, "properties": {"name": "109 KALANDAR STREET NOWRA 2541", "locID": "LOC000051576070", "tech": "FTTP", "upgrade": "NULL_NA"}}, {"type": "Feature", "geometry": {"type": "Point", "coordinates": [150.60136709, -34.88112161]}, "properties": {"name": "109 KINGHORNE STREET NOWRA 2541", "locID": "LOC000043139580", "tech": "FTTP", "upgrade": "NULL_NA"}}, {"type": "Feature", "geometry": {"type": "Point", "coordinates": [150.6108624, -34.86995878]}, "properties": {"name": "109 MOSS STREET NOWRA 2541", "locID": "LOC000072357907", "tech": "FTTP", "upgrade": "NULL_NA"}}, {"type": "Feature", "geometry": {"type": "Point", "coordinates": [150.60062697, -34.87228913]}, "properties": {"name": "109 NORTH STREET NOWRA 2541", "locID": "LOC000078879406", "tech": "FTTN", "upgrade": "FTTP_SA"}}, {"type": "Feature", "geometry": {"type": "Point", "coordinates": [150.59702326, -34.87811478]}, "properties": {"name": "109 OSBORNE STREET NOWRA 2541", "locID": "LOC000082130768", "tech": "FTTP", "upgrade": "NULL_NA"}}, {"type": "Feature", "geometry": {"type": "Point", "coordinates": [150.61586527, -34.89560109]}, "properties": {"name": "109 PARK ROAD NOWRA 2541", "locID": "LOC000041648478", "tech": "FTTN", "upgrade": "FTTP_SA"}}, {"type": "Feature", "geometry": {"type": "Point", "coordinates": [150.59407158, -34.87080068]}, "properties": {"name": "109 SCENIC DRIVE NOWRA 2541", "locID": "LOC000192519031", "tech": "FTTP", "upgrade": "NULL_NA"}}, {"type": "Feature", "geometry": {"type": "Point", "coordinates": [150.59461676, -34.87728637]}, "properties": {"name": "109 SHOALHAVEN STREET NOWRA 2541", "locID": "LOC000096240447", "tech": "FTTP", "upgrade": "NULL_NA"}}, {"type": "Feature", "geometry": {"type": "Point", "coordinates": [150.6091914, -34.88542385]}, "properties": {"name": "109 ST ANNS STREET NOWRA 2541", "locID": "LOC000091494125", "tech": "FTTP", "upgrade": "NULL_NA"}}, {"type": "Feature", "geometry": {"type": "Point", "coordinates": [150.60767488, -34.88707833]}, "properties": {"name": "109 WALLACE STREET NOWRA 2541", "locID": "LOC000040221532", "tech": "FTTP", "upgrade": "NULL_NA"}}, {"type": "Feature", "geometry": {"type": "Point", "coordinates": [150.60925252, -34.88520612]}, "properties": {"name": "109A ST ANNS STREET NOWRA 2541", "locID": "LOC000091268903", "tech": "FTTP", "upgrade": "NULL_NA"}}, {"type": "Feature", "geometry": {"type": "Point", "coordinates": [150.60931154, -34.88497701]}, "properties": {"name": "109B ST ANNS STREET NOWRA 2541", "locID": "LOC000146763457", "tech": "FTTP", "upgrade": "NULL_NA"}}, {"type": "Feature", "geometry": {"type": "Point", "coordinates": [150.59975614, -34.88813833]}, "properties": {"name": "10A ALBATROSS ROAD NOWRA 2541", "locID": "LOC000190305248", "tech": "FTTP", "upgrade": "NULL_NA"}}, {"type": "Feature", "geometry": {"type": "Point", "coordinates": [150.61154846, -34.89421976]}, "properties": {"name": "10A BENDIGO CIRCUIT NOWRA 2541", "locID": "LOC000190834778", "tech": "FTTP", "upgrade": "NULL_NA"}}, {"type": "Feature", "geometry": {"type": "Point", "coordinates": [150.61137166, -34.88694409]}, "properties": {"name": "10A SECCOMBE STREET NOWRA 2541", "locID": "LOC000186707854", "tech": "FTTP", "upgrade": "NULL_NA"}}, {"type": "Feature", "geometry": {"type": "Point", "coordinates": [150.61306679, -34.89403874]}, "properties": {"name": "10A VENDETTA STREET NOWRA 2541", "locID": "LOC000177054152", "tech": "FTTP", "upgrade": "NULL_NA"}}, {"type": "Feature", "geometry": {"type": "Point", "coordinates": [150.60273627, -34.88412385]}, "properties": {"name": "10A VIEW STREET NOWRA 2541", "locID": "LOC000102485957", "tech": "FTTP", "upgrade": "NULL_NA"}}, {"type": "Feature", "geometry": {"type": "Point", "coordinates": [150.61137166, -34.88694409]}, "properties": {"name": "10B SECCOMBE STREET NOWRA 2541", "locID": "LOC000186707865", "tech": "FTTP", "upgrade": "NULL_NA"}}, {"type": "Feature", "geometry": {"type": "Point", "coordinates": [150.61516419, -34.89123198]}, "properties": {"name": "11 ABERGELDIE STREET NOWRA 2541", "locID": "LOC000004169670", "tech": "FTTN", "upgrade": "NULL_NA"}}, {"type": "Feature", "geometry": {"type": "Point", "coordinates": [150.61204164, -34.89485023]}, "properties": {"name": "11 ADELE CLOSE NOWRA 2541", "locID": "LOC000177053561", "tech": "FTTP", "upgrade": "NULL_NA"}}, {"type": "Feature", "geometry": {"type": "Point", "coordinates": [150.59903603, -34.88762284]}, "properties": {"name": "11 ALBATROSS ROAD NOWRA 2541", "locID": "LOC000022180906", "tech": "FTTP", "upgrade": "NULL_NA"}}, {"type": "Feature", "geometry": {"type": "Point", "coordinates": [150.61563645, -34.88635957]}, "properties": {"name": "11 ALLISON AVENUE NOWRA 2541", "locID": "LOC000105289764", "tech": "FTTP", "upgrade": "NULL_NA"}}, {"type": "Feature", "geometry": {"type": "Point", "coordinates": [150.61261105, -34.88405966]}, "properties": {"name": "11 AMALFI CRESCENT NOWRA 2541", "locID": "LOC000095899318", "tech": "FTTP", "upgrade": "NULL_NA"}}, {"type": "Feature", "geometry": {"type": "Point", "coordinates": [150.59647398, -34.87518833]}, "properties": {"name": "11 ANDERSON AVENUE NOWRA 2541", "locID": "LOC000006481606", "tech": "FTTP", "upgrade": "NULL_NA"}}, {"type": "Feature", "geometry": {"type": "Point", "coordinates": [150.61685522, -34.89453224]}, "properties": {"name": "11 ANTARES CLOSE NOWRA 2541", "locID": "LOC000083769370", "tech": "FTTN", "upgrade": "FTTP_SA"}}, {"type": "Feature", "geometry": {"type": "Point", "coordinates": [150.59283977, -34.88105123]}, "properties": {"name": "11 BAINBRIGGE CRESCENT NOWRA 2541", "locID": "LOC000023764167", "tech": "FTTP", "upgrade": "NULL_NA"}}, {"type": "Feature", "geometry": {"type": "Point", "coordinates": [150.61084874, -34.89376486]}, "properties": {"name": "11 BENDIGO CIRCUIT NOWRA 2541", "locID": "LOC000177053428", "tech": "FTTP", "upgrade": "NULL_NA"}}, {"type": "Feature", "geometry": {"type": "Point", "coordinates": [150.59457905, -34.88239525]}, "properties": {"name": "11 BERNADETTE AVENUE NOWRA 2541", "locID": "LOC000032236593", "tech": "FTTP", "upgrade": "NULL_NA"}}, {"type": "Feature", "geometry": {"type": "Point", "coordinates": [150.59940374, -34.8802749]}, "properties": {"name": "11 BERRY STREET NOWRA 2541", "locID": "LOC000144496056", "tech": "FTTP", "upgrade": "NULL_NA"}}, {"type": "Feature", "geometry": {"type": "Point", "coordinates": [150.61476277, -34.88741852]}, "properties": {"name": "11 BISDEE PLACE NOWRA 2541", "locID": "LOC000075423536", "tech": "FTTP", "upgrade": "NULL_NA"}}, {"type": "Feature", "geometry": {"type": "Point", "coordinates": [150.60711598, -34.87305971]}, "properties": {"name": "11 BRERETON STREET NOWRA 2541", "locID": "LOC000094424844", "tech": "FTTP", "upgrade": "NULL_NA"}}, {"type": "Feature", "geometry": {"type": "Point", "coordinates": [150.60215628, -34.89041747]}, "properties": {"name": "11 BUNDERRA DRIVE NOWRA 2541", "locID": "LOC000053857057", "tech": "FTTP", "upgrade": "NULL_NA"}}, {"type": "Feature", "geometry": {"type": "Point", "coordinates": [150.5984552, -34.87739745]}, "properties": {"name": "11 BURR AVENUE NOWRA 2541", "locID": "LOC000097932946", "tech": "FTTP", "upgrade": "NULL_NA"}}, {"type": "Feature", "geometry": {"type": "Point", "coordinates": [150.62042933, -34.89295039]}, "properties": {"name": "11 BURRADOO CRESCENT NOWRA 2541", "locID": "LOC000044540318", "tech": "FTTN", "upgrade": "FTTP_SA"}}, {"type": "Feature", "geometry": {"type": "Point", "coordinates": [150.62048205, -34.89433487]}, "properties": {"name": "11 CARRINGTON PARK DRIVE NOWRA 2541", "locID": "LOC000093560650", "tech": "FTTN", "upgrade": "FTTP_SA"}}, {"type": "Feature", "geometry": {"type": "Point", "coordinates": [150.5975366, -34.88272721]}, "properties": {"name": "11 CENTRE STREET NOWRA 2541", "locID": "LOC000009703681", "tech": "FTTP", "upgrade": "NULL_NA"}}, {"type": "Feature", "geometry": {"type": "Point", "coordinates": [150.61617581, -34.89112366]}, "properties": {"name": "11 CLIPPER ROAD NOWRA 2541", "locID": "LOC000064092070", "tech": "FTTN", "upgrade": "FTTP_SA"}}, {"type": "Feature", "geometry": {"type": "Point", "coordinates": [150.59928352, -34.87340177]}, "properties": {"name": "11 COLLINS WAY NOWRA 2541", "locID": "LOC000013258911", "tech": "FTTP", "upgrade": "NULL_NA"}}, {"type": "Feature", "geometry": {"type": "Point", "coordinates": [150.59759908, -34.86940122]}, "properties": {"name": "11 COLYER AVENUE NOWRA 2541", "locID": "LOC000027239445", "tech": "FTTP", "upgrade": "NULL_NA"}}, {"type": "Feature", "geometry": {"type": "Point", "coordinates": [150.60879171, -34.89372763]}, "properties": {"name": "11 CORNELIUS PLACE NOWRA 2541", "locID": "LOC000042901235", "tech": "FTTP", "upgrade": "NULL_NA"}}, {"type": "Feature", "geometry": {"type": "Point", "coordinates": [150.6024077, -34.8819639]}, "properties": {"name": "11 COX AVENUE NOWRA 2541", "locID": "LOC000056104740", "tech": "FTTP", "upgrade": "NULL_NA"}}, {"type": "Feature", "geometry": {"type": "Point", "coordinates": [150.60019399, -34.88304484]}, "properties": {"name": "11 DUDLEY AVENUE NOWRA 2541", "locID": "LOC000068478649", "tech": "FTTP", "upgrade": "NULL_NA"}}, {"type": "Feature", "geometry": {"type": "Point", "coordinates": [150.60511053, -34.89116362]}, "properties": {"name": "11 ELDER CRESCENT NOWRA 2541", "locID": "LOC000054844574", "tech": "FTTP", "upgrade": "NULL_NA"}}, {"type": "Feature", "geometry": {"type": "Point", "coordinates": [150.60488926, -34.86588969]}, "properties": {"name": "11 ELIA AVENUE NOWRA 2541", "locID": "LOC000003021862", "tech": "FTTP", "upgrade": "NULL_NA"}}, {"type": "Feature", "geometry": {"type": "Point", "coordinates": [150.60687551, -34.88461799]}, "properties": {"name": "11 ELIZABETH AVENUE NOWRA 2541", "locID": "LOC000050609864", "tech": "FTTP", "upgrade": "NULL_NA"}}, {"type": "Feature", "geometry": {"type": "Point", "coordinates": [150.59654487, -34.89236115]}, "properties": {"name": "11 ELYARD DRIVE NOWRA 2541", "locID": "LOC000005882104", "tech": "FTTP", "upgrade": "NULL_NA"}}, {"type": "Feature", "geometry": {"type": "Point", "coordinates": [150.59906502, -34.88948493]}, "properties": {"name": "11 ERNEST STREET NOWRA 2541", "locID": "LOC000102541179", "tech": "FTTP", "upgrade": "NULL_NA"}}, {"type": "Feature", "geometry": {"type": "Point", "coordinates": [150.61136921, -34.8679284]}, "properties": {"name": "11 FERRY LANE NOWRA 2541", "locID": "LOC000137358424", "tech": "FTTP", "upgrade": "NULL_NA"}}, {"type": "Feature", "geometry": {"type": "Point", "coordinates": [150.61760988, -34.89224379]}, "properties": {"name": "11 GASCOYNE WAY NOWRA 2541", "locID": "LOC000012294872", "tech": "FTTN", "upgrade": "FTTP_SA"}}, {"type": "Feature", "geometry": {"type": "Point", "coordinates": [150.60207416, -34.88616677]}, "properties": {"name": "11 GOULD AVENUE NOWRA 2541", "locID": "LOC000053322341", "tech": "FTTP", "upgrade": "NULL_NA"}}, {"type": "Feature", "geometry": {"type": "Point", "coordinates": [150.60535173, -34.88064102]}, "properties": {"name": "11 GRANT STREET NOWRA 2541", "locID": "LOC000086591894", "tech": "FTTP", "upgrade": "NULL_NA"}}, {"type": "Feature", "geometry": {"type": "Point", "coordinates": [150.61484329, -34.8885728]}, "properties": {"name": "11 GREENWELL POINT ROAD NOWRA 2541", "locID": "LOC000001373916", "tech": "FTTP", "upgrade": "NULL_NA"}}, {"type": "Feature", "geometry": {"type": "Point", "coordinates": [150.6033089, -34.87756718]}, "properties": {"name": "11 HAIGH AVENUE NOWRA 2541", "locID": "LOC000013219936", "tech": "FTTP", "upgrade": "NULL_NA"}}, {"type": "Feature", "geometry": {"type": "Point", "coordinates": [150.59917688, -34.88605828]}, "properties": {"name": "11 HALE AVENUE NOWRA 2541", "locID": "LOC000109533408", "tech": "FTTP", "upgrade": "NULL_NA"}}, {"type": "Feature", "geometry": {"type": "Point", "coordinates": [150.60397309, -34.86736857]}, "properties": {"name": "11 HAWTHORN AVENUE NOWRA 2541", "locID": "LOC000179639105", "tech": "FTTP", "upgrade": "NULL_NA"}}, {"type": "Feature", "geometry": {"type": "Point", "coordinates": [150.61529501, -34.89468181]}, "properties": {"name": "11 HESPERUS CLOSE NOWRA 2541", "locID": "LOC000018054362", "tech": "FTTN", "upgrade": "FTTP_SA"}}, {"type": "Feature", "geometry": {"type": "Point", "coordinates": [150.6124376, -34.8906552]}, "properties": {"name": "11 HOBART STREET NOWRA 2541", "locID": "LOC000055439197", "tech": "FTTP", "upgrade": "NULL_NA"}}, {"type": "Feature", "geometry": {"type": "Point", "coordinates": [150.60406702, -34.89354296]}, "properties": {"name": "11 HOCKEY STREET NOWRA 2541", "locID": "LOC000080653341", "tech": "FTTP", "upgrade": "NULL_NA"}}, {"type": "Feature", "geometry": {"type": "Point", "coordinates": [150.60375824, -34.89170397]}, "properties": {"name": "11 HOLLANDS ROAD NOWRA 2541", "locID": "LOC000136345247", "tech": "FTTP", "upgrade": "NULL_NA"}}, {"type": "Feature", "geometry": {"type": "Point", "coordinates": [150.59560167, -34.88034772]}, "properties": {"name": "11 HUXLEY STREET NOWRA 2541", "locID": "LOC000101406792", "tech": "FTTP", "upgrade": "NULL_NA"}}, {"type": "Feature", "geometry": {"type": "Point", "coordinates": [150.59842396, -34.8683178]}, "properties": {"name": "11 HYAM STREET NOWRA 2541", "locID": "LOC000010821550", "tech": "FTTP", "upgrade": "NULL_NA"}}, {"type": "Feature", "geometry": {"type": "Point", "coordinates": [150.6062275, -34.88937552]}, "properties": {"name": "11 JAYCEE AVENUE NOWRA 2541", "locID": "LOC000042687870", "tech": "FTTP", "upgrade": "NULL_NA"}}, {"type": "Feature", "geometry": {"type": "Point", "coordinates": [150.60128331, -34.88253182]}, "properties": {"name": "11 JERVIS STREET NOWRA 2541", "locID": "LOC000097750279", "tech": "FTTP", "upgrade": "NULL_NA"}}, {"type": "Feature", "geometry": {"type": "Point", "coordinates": [150.61436283, -34.89666813]}, "properties": {"name": "11 JINDALEE CRESCENT NOWRA 2541", "locID": "LOC000176980015", "tech": "FTTP", "upgrade": "NULL_NA"}}, {"type": "Feature", "geometry": {"type": "Point", "coordinates": [150.6065555, -34.88017652]}, "properties": {"name": "11 JOURNAL STREET NOWRA 2541", "locID": "LOC000046357409", "tech": "FTTP", "upgrade": "NULL_NA"}}, {"type": "Feature", "geometry": {"type": "Point", "coordinates": [150.59482561, -34.87314767]}, "properties": {"name": "11 JUNCTION STREET NOWRA 2541", "locID": "LOC000087872774", "tech": "FTTP", "upgrade": "NULL_NA"}}, {"type": "Feature", "geometry": {"type": "Point", "coordinates": [150.61727018, -34.89137345]}, "properties": {"name": "11 KAMERUKA CRESCENT NOWRA 2541", "locID": "LOC000103077473", "tech": "FTTN", "upgrade": "FTTP_SA"}}, {"type": "Feature", "geometry": {"type": "Point", "coordinates": [150.61964577, -34.89261684]}, "properties": {"name": "11 KARDELLA AVENUE NOWRA 2541", "locID": "LOC000015445920", "tech": "FTTN", "upgrade": "FTTP_SA"}}, {"type": "Feature", "geometry": {"type": "Point", "coordinates": [150.61437613, -34.89467289]}, "properties": {"name": "11 KEMBLA CLOSE NOWRA 2541", "locID": "LOC000065528873", "tech": "FTTN", "upgrade": "FTTP_SA"}}, {"type": "Feature", "geometry": {"type": "Point", "coordinates": [150.61654399, -34.89927982]}, "properties": {"name": "11 KILLARA ROAD NOWRA 2541", "locID": "LOC000117625529", "tech": "FTTP", "upgrade": "NULL_NA"}}, {"type": "Feature", "geometry": {"type": "Point", "coordinates": [150.60102401, -34.8845564]}, "properties": {"name": "11 KINGHORNE STREET NOWRA 2541", "locID": "LOC000017987238", "tech": "FTTP", "upgrade": "NULL_NA"}}, {"type": "Feature", "geometry": {"type": "Point", "coordinates": [150.60954617, -34.88642303]}, "properties": {"name": "11 KNAPP AVENUE NOWRA 2541", "locID": "LOC000036285361", "tech": "FTTP", "upgrade": "NULL_NA"}}, {"type": "Feature", "geometry": {"type": "Point", "coordinates": [150.59986843, -34.87107463]}, "properties": {"name": "11 LAMONDS LANE NOWRA 2541", "locID": "LOC000104726242", "tech": "FTTP", "upgrade": "NULL_NA"}}, {"type": "Feature", "geometry": {"type": "Point", "coordinates": [150.60072971, -34.87785092]}, "properties": {"name": "11 LAWRENCE AVENUE NOWRA 2541", "locID": "LOC000041258591", "tech": "FTTP", "upgrade": "NULL_NA"}}, {"type": "Feature", "geometry": {"type": "Point", "coordinates": [150.59435778, -34.87623788]}, "properties": {"name": "11 LEANEY AVENUE NOWRA 2541", "locID": "LOC000101132153", "tech": "FTTP", "upgrade": "NULL_NA"}}, {"type": "Feature", "geometry": {"type": "Point", "coordinates": [150.60486226, -34.88239565]}, "properties": {"name": "11 LEATHAM AVENUE NOWRA 2541", "locID": "LOC000017308872", "tech": "FTTP", "upgrade": "NULL_NA"}}, {"type": "Feature", "geometry": {"type": "Point", "coordinates": [150.60886992, -34.86576321]}, "properties": {"name": "11 LYREBIRD DRIVE NOWRA 2541", "locID": "LOC000054821071", "tech": "FTTP", "upgrade": "NULL_NA"}}, {"type": "Feature", "geometry": {"type": "Point", "coordinates": [150.60157611, -34.89357011]}, "properties": {"name": "11 MACLEAN STREET NOWRA 2541", "locID": "LOC000038602010", "tech": "FTTP", "upgrade": "NULL_NA"}}, {"type": "Feature", "geometry": {"type": "Point", "coordinates": [150.5986998, -34.86749646]}, "properties": {"name": "11 MANDALAY AVENUE NOWRA 2541", "locID": "LOC000069148637", "tech": "FTTP", "upgrade": "NULL_NA"}}, {"type": "Feature", "geometry": {"type": "Point", "coordinates": [150.62011431, -34.89357277]}, "properties": {"name": "11 MARANA CLOSE NOWRA 2541", "locID": "LOC000049467780", "tech": "FTTN", "upgrade": "FTTP_SA"}}, {"type": "Feature", "geometry": {"type": "Point", "coordinates": [150.59786164, -34.89039386]}, "properties": {"name": "11 MCDONALD AVENUE NOWRA 2541", "locID": "LOC000059843046", "tech": "FTTP", "upgrade": "NULL_NA"}}, {"type": "Feature", "geometry": {"type": "Point", "coordinates": [150.60510217, -34.8717388]}, "properties": {"name": "11 MCGRATH AVENUE NOWRA 2541", "locID": "LOC000044216868", "tech": "FTTP", "upgrade": "NULL_NA"}}, {"type": "Feature", "geometry": {"type": "Point", "coordinates": [150.61349169, -34.8903326]}, "properties": {"name": "11 MCKAY STREET NOWRA 2541", "locID": "LOC000096893025", "tech": "FTTP", "upgrade": "NULL_NA"}}, {"type": "Feature", "geometry": {"type": "Point", "coordinates": [150.6051924, -34.89379214]}, "properties": {"name": "11 MCKENZIE STREET NOWRA 2541", "locID": "LOC000020626137", "tech": "FTTP", "upgrade": "NULL_NA"}}, {"type": "Feature", "geometry": {"type": "Point", "coordinates": [150.60595466, -34.88603641]}, "properties": {"name": "11 MILLER AVENUE NOWRA 2541", "locID": "LOC000049058942", "tech": "FTTP", "upgrade": "NULL_NA"}}, {"type": "Feature", "geometry": {"type": "Point", "coordinates": [150.59480291, -34.87420357]}, "properties": {"name": "11 MONAGHAN AVENUE NOWRA 2541", "locID": "LOC000042894258", "tech": "FTTP", "upgrade": "NULL_NA"}}, {"type": "Feature", "geometry": {"type": "Point", "coordinates": [150.60913412, -34.89378009]}, "properties": {"name": "11 MORESBY STREET NOWRA 2541", "locID": "LOC000177053324", "tech": "FTTP", "upgrade": "NULL_NA"}}, {"type": "Feature", "geometry": {"type": "Point", "coordinates": [150.60599542, -34.87810025]}, "properties": {"name": "11 MORTON PARADE NOWRA 2541", "locID": "LOC000031650443", "tech": "FTTP", "upgrade": "NULL_NA"}}, {"type": "Feature", "geometry": {"type": "Point", "coordinates": [150.60423263, -34.8721308]}, "properties": {"name": "11 MOSS STREET NOWRA 2541", "locID": "LOC000072232477", "tech": "FTTP", "upgrade": "NULL_NA"}}, {"type": "Feature", "geometry": {"type": "Point", "coordinates": [150.61973019, -34.89666208]}, "properties": {"name": "11 MYALL CLOSE NOWRA 2541", "locID": "LOC000077730633", "tech": "FTTN", "upgrade": "FTTP_SA"}}, {"type": "Feature", "geometry": {"type": "Point", "coordinates": [150.61881038, -34.89720408]}, "properties": {"name": "11 NARWEE LINK NOWRA 2541", "locID": "LOC000087062988", "tech": "FTTN", "upgrade": "FTTP_SA"}}, {"type": "Feature", "geometry": {"type": "Point", "coordinates": [150.61459439, -34.88972365]}, "properties": {"name": "11 NINEVEH CLOSE NOWRA 2541", "locID": "LOC000097806329", "tech": "FTTN", "upgrade": "FTTP_SA"}}, {"type": "Feature", "geometry": {"type": "Point", "coordinates": [150.60371795, -34.87572767]}, "properties": {"name": "11 NOWRA LANE NOWRA 2541", "locID": "LOC000096710451", "tech": "FTTP", "upgrade": "NULL_NA"}}, {"type": "Feature", "geometry": {"type": "Point", "coordinates": [150.60385202, -34.88613787]}, "properties": {"name": "11 NUMBAA WAY NOWRA 2541", "locID": "LOC000136465112", "tech": "FTTP", "upgrade": "NULL_NA"}}, {"type": "Feature", "geometry": {"type": "Point", "coordinates": [150.59615757, -34.8785651]}, "properties": {"name": "11 OLIVER PARADE NOWRA 2541", "locID": "LOC000094005246", "tech": "FTTP", "upgrade": "NULL_NA"}}, {"type": "Feature", "geometry": {"type": "Point", "coordinates": [150.5987893, -34.8695655]}, "properties": {"name": "11 OSBORNE STREET NOWRA 2541", "locID": "LOC000076530161", "tech": "FTTP", "upgrade": "NULL_NA"}}, {"type": "Feature", "geometry": {"type": "Point", "coordinates": [150.61244576, -34.88927209]}, "properties": {"name": "11 PARRAMATTA STREET NOWRA 2541", "locID": "LOC000093477993", "tech": "FTTP", "upgrade": "NULL_NA"}}, {"type": "Feature", "geometry": {"type": "Point", "coordinates": [150.60038511, -34.89338125]}, "properties": {"name": "11 PIONEER PLACE NOWRA 2541", "locID": "LOC000016834845", "tech": "FTTP", "upgrade": "NULL_NA"}}, {"type": "Feature", "geometry": {"type": "Point", "coordinates": [150.59211642, -34.8768853]}, "properties": {"name": "11 PLUNKETT STREET NOWRA 2541", "locID": "LOC000075719203", "tech": "FTTP", "upgrade": "NULL_NA"}}, {"type": "Feature", "geometry": {"type": "Point", "coordinates": [150.60536315, -34.87388714]}, "properties": {"name": "11 PRINCES HIGHWAY NOWRA 2541", "locID": "LOC000063591802", "tech": "FTTP", "upgrade": "NULL_NA"}}, {"type": "Feature", "geometry": {"type": "Point", "coordinates": [150.5997873, -34.89098416]}, "properties": {"name": "11 PURDIE CRESCENT NOWRA 2541", "locID": "LOC000065063256", "tech": "FTTP", "upgrade": "NULL_NA"}}, {"type": "Feature", "geometry": {"type": "Point", "coordinates": [150.61053529, -34.88964991]}, "properties": {"name": "11 QUADRANT STREET NOWRA 2541", "locID": "LOC000018980106", "tech": "FTTP", "upgrade": "NULL_NA"}}, {"type": "Feature", "geometry": {"type": "Point", "coordinates": [150.60910314, -34.89177547]}, "properties": {"name": "11 QUEENBOROUGH STREET NOWRA 2541", "locID": "LOC000020601654", "tech": "FTTP", "upgrade": "NULL_NA"}}, {"type": "Feature", "geometry": {"type": "Point", "coordinates": [150.61059362, -34.89199476]}, "properties": {"name": "11 QUIBERON STREET NOWRA 2541", "locID": "LOC000071038884", "tech": "FTTP", "upgrade": "NULL_NA"}}, {"type": "Feature", "geometry": {"type": "Point", "coordinates": [150.61063083, -34.89119891]}, "properties": {"name": "11 QUICKMATCH STREET NOWRA 2541", "locID": "LOC000023943998", "tech": "FTTP", "upgrade": "NULL_NA"}}, {"type": "Feature", "geometry": {"type": "Point", "coordinates": [150.59650643, -34.89061104]}, "properties": {"name": "11 REIBY PLACE NOWRA 2541", "locID": "LOC000110201101", "tech": "FTTP", "upgrade": "NULL_NA"}}, {"type": "Feature", "geometry": {"type": "Point", "coordinates": [150.60110323, -34.88529808]}, "properties": {"name": "11 RYAN AVENUE NOWRA 2541", "locID": "LOC000011318579", "tech": "FTTP", "upgrade": "NULL_NA"}}, {"type": "Feature", "geometry": {"type": "Point", "coordinates": [150.61373188, -34.8874232]}, "properties": {"name": "11 SALISBURY DRIVE NOWRA 2541", "locID": "LOC000098773451", "tech": "FTTP", "upgrade": "NULL_NA"}}, {"type": "Feature", "geometry": {"type": "Point", "coordinates": [150.6122033, -34.88697546]}, "properties": {"name": "11 SECCOMBE STREET NOWRA 2541", "locID": "LOC000081578579", "tech": "FTTP", "upgrade": "NULL_NA"}}, {"type": "Feature", "geometry": {"type": "Point", "coordinates": [150.59377795, -34.87819426]}, "properties": {"name": "11 SHEPHERD STREET NOWRA 2541", "locID": "LOC000071214835", "tech": "FTTP", "upgrade": "NULL_NA"}}, {"type": "Feature", "geometry": {"type": "Point", "coordinates": [150.59756507, -34.88091441]}, "properties": {"name": "11 SPRING STREET NOWRA 2541", "locID": "LOC000053074674", "tech": "FTTP", "upgrade": "NULL_NA"}}, {"type": "Feature", "geometry": {"type": "Point", "coordinates": [150.60548319, -34.88388508]}, "properties": {"name": "11 STATION STREET NOWRA 2541", "locID": "LOC000084927990", "tech": "FTTP", "upgrade": "NULL_NA"}}, {"type": "Feature", "geometry": {"type": "Point", "coordinates": [150.60954911, -34.88950808]}, "properties": {"name": "11 STUART STREET NOWRA 2541", "locID": "LOC000076967982", "tech": "FTTP", "upgrade": "NULL_NA"}}, {"type": "Feature", "geometry": {"type": "Point", "coordinates": [150.61394229, -34.89324053]}, "properties": {"name": "11 SUPPLY STREET NOWRA 2541", "locID": "LOC000092258230", "tech": "FTTN", "upgrade": "FTTP_SA"}}, {"type": "Feature", "geometry": {"type": "Point", "coordinates": [150.61839245, -34.88827752]}, "properties": {"name": "11 TARRABA CRESCENT NOWRA 2541", "locID": "LOC000084812293", "tech": "FTTP", "upgrade": "NULL_NA"}}, {"type": "Feature", "geometry": {"type": "Point", "coordinates": [150.61536097, -34.89062752]}, "properties": {"name": "11 TORRIDON STREET NOWRA 2541", "locID": "LOC000067468075", "tech": "FTTN", "upgrade": "FTTP_SA"}}, {"type": "Feature", "geometry": {"type": "Point", "coordinates": [150.61228307, -34.89389872]}, "properties": {"name": "11 VENDETTA STREET NOWRA 2541", "locID": "LOC000177054110", "tech": "FTTP", "upgrade": "NULL_NA"}}, {"type": "Feature", "geometry": {"type": "Point", "coordinates": [150.60212603, -34.8839821]}, "properties": {"name": "11 VIEW STREET NOWRA 2541", "locID": "LOC000068262049", "tech": "FTTP", "upgrade": "NULL_NA"}}, {"type": "Feature", "geometry": {"type": "Point", "coordinates": [150.61068102, -34.88787285]}, "properties": {"name": "11 WARRAMUNGA STREET NOWRA 2541", "locID": "LOC000078190590", "tech": "FTTP", "upgrade": "NULL_NA"}}, {"type": "Feature", "geometry": {"type": "Point", "coordinates": [150.62106575, -34.89520138]}, "properties": {"name": "11 WARRIGAL STREET NOWRA 2541", "locID": "LOC000097416496", "tech": "FTTN", "upgrade": "FTTP_SA"}}, {"type": "Feature", "geometry": {"type": "Point", "coordinates": [150.61384426, -34.88622822]},