{
 "type": "FeatureCollection",
 "generated": "2023-06-01T19:54:11.478163",
 "features": [
  {
   "type": "Feature",
   "geometry": {
    "type": "Point",
    "coordinates": [
     153.54348924,
     -28.52834374
    ]
   },
   "properties": {
    "name": "1 ALDINGA COURT OCEAN SHORES 2483",
    "locID": "LOC000043960776",
    "tech": "FTTN",
    "upgrade": "FTTP_SA"
   }
  },
  {
   "type": "Feature",
   "geometry": {
    "type": "Point",
    "coordinates": [
     153.53442044,
     -28.51074759
    ]
   },
   "properties": {
    "name": "1 ALOOTA CRESCENT OCEAN SHORES 2483",
    "locID": "LOC000072345484",
    "tech": "FTTN",
    "upgrade": "FTTP_SA"
   }
  },
  {
   "type": "Feature",
   "geometry": {
    "type": "Point",
    "coordinates": [
     153.53763879,
     -28.52817749
    ]
   },
   "properties": {
    "name": "1 ARIKA AVENUE OCEAN SHORES 2483",
    "locID": "LOC000169135378",
    "tech": "FTTN",
    "upgrade": "NULL_NA"
   }
  },
  {
   "type": "Feature",
   "geometry": {
    "type": "Point",
    "coordinates": [
     153.53914768,
     -28.49663121
    ]
   },
   "properties": {
    "name": "1 BANOOL CIRCUIT OCEAN SHORES 2483",
    "locID": "LOC000045481293",
    "tech": "FTTC",
    "upgrade": "FTTP_SA"
   }
  },
  {
   "type": "Feature",
   "geometry": {
    "type": "Point",
    "coordinates": [
     153.54682574,
     -28.4913288
    ]
   },
   "properties": {
    "name": "1 BARKALA COURT OCEAN SHORES 2483",
    "locID": "LOC000055734658",
    "tech": "FTTN",
    "upgrade": "FTTP_SA"
   }
  },
  {
   "type": "Feature",
   "geometry": {
    "type": "Point",
    "coordinates": [
     153.5402155,
     -28.49727632
    ]
   },
   "properties": {
    "name": "1 BASS COURT OCEAN SHORES 2483",
    "locID": "LOC000055644742",
    "tech": "FTTN",
    "upgrade": "FTTP_SA"
   }
  },
  {
   "type": "Feature",
   "geometry": {
    "type": "Point",
    "coordinates": [
     153.54771183,
     -28.49319465
    ]
   },
   "properties": {
    "name": "1 BERRIMBILLAH COURT OCEAN SHORES 2483",
    "locID": "LOC000029723547",
    "tech": "FTTN",
    "upgrade": "FTTP_SA"
   }
  },
  {
   "type": "Feature",
   "geometry": {
    "type": "Point",
    "coordinates": [
     153.53777469,
     -28.52760811
    ]
   },
   "properties": {
    "name": "1 BIAN COURT OCEAN SHORES 2483",
    "locID": "LOC000098480819",
    "tech": "FTTN",
    "upgrade": "FTTP_SA"
   }
  },
  {
   "type": "Feature",
   "geometry": {
    "type": "Point",
    "coordinates": [
     153.54593705,
     -28.52261919
    ]
   },
   "properties": {
    "name": "1 BINDAREE WAY OCEAN SHORES 2483",
    "locID": "LOC000029982827",
    "tech": "FTTN",
    "upgrade": "NULL_NA"
   }
  },
  {
   "type": "Feature",
   "geometry": {
    "type": "Point",
    "coordinates": [
     153.53321224,
     -28.51974146
    ]
   },
   "properties": {
    "name": "1 BINYA PLACE OCEAN SHORES 2483",
    "locID": "LOC000061805872",
    "tech": "FTTN",
    "upgrade": "FTTP_SA"
   }
  },
  {
   "type": "Feature",
   "geometry": {
    "type": "Point",
    "coordinates": [
     153.53780832,
     -28.52120839
    ]
   },
   "properties": {
    "name": "1 BOBRA GLEN OCEAN SHORES 2483",
    "locID": "LOC000084896532",
    "tech": "FTTN",
    "upgrade": "FTTP_SA"
   }
  },
  {
   "type": "Feature",
   "geometry": {
    "type": "Point",
    "coordinates": [
     153.53304468,
     -28.50579346
    ]
   },
   "properties": {
    "name": "1 BOOLEE COURT OCEAN SHORES 2483",
    "locID": "LOC000033959132",
    "tech": "FTTC",
    "upgrade": "FTTP_SA"
   }
  },
  {
   "type": "Feature",
   "geometry": {
    "type": "Point",
    "coordinates": [
     153.54431277,
     -28.52763052
    ]
   },
   "properties": {
    "name": "1 BOONDOON CRESCENT OCEAN SHORES 2483",
    "locID": "LOC000105340306",
    "tech": "FTTN",
    "upgrade": "FTTP_SA"
   }
  },
  {
   "type": "Feature",
   "geometry": {
    "type": "Point",
    "coordinates": [
     153.5411047,
     -28.52080632
    ]
   },
   "properties": {
    "name": "1 BULGOON CRESCENT OCEAN SHORES 2483",
    "locID": "LOC000045517073",
    "tech": "FTTC",
    "upgrade": "FTTP_SA"
   }
  },
  {
   "type": "Feature",
   "geometry": {
    "type": "Point",
    "coordinates": [
     153.54633485,
     -28.52071938
    ]
   },
   "properties": {
    "name": "1 BURRA BURRA CLOSE OCEAN SHORES 2483",
    "locID": "LOC000005509345",
    "tech": "FTTC",
    "upgrade": "FTTP_SA"
   }
  },
  {
   "type": "Feature",
   "geometry": {
    "type": "Point",
    "coordinates": [
     153.53386309,
     -28.52115108
    ]
   },
   "properties": {
    "name": "1 CERON COURT OCEAN SHORES 2483",
    "locID": "LOC000081858407",
    "tech": "FTTN",
    "upgrade": "FTTP_SA"
   }
  },
  {
   "type": "Feature",
   "geometry": {
    "type": "Point",
    "coordinates": [
     153.53597997,
     -28.52112072
    ]
   },
   "properties": {
    "name": "1 COLLI CLOSE OCEAN SHORES 2483",
    "locID": "LOC000005014181",
    "tech": "FTTN",
    "upgrade": "FTTP_SA"
   }
  },
  {
   "type": "Feature",
   "geometry": {
    "type": "Point",
    "coordinates": [
     153.53938995,
     -28.52287853
    ]
   },
   "properties": {
    "name": "1 COOMBURRA CRESCENT OCEAN SHORES 2483",
    "locID": "LOC000061344031",
    "tech": "FTTN",
    "upgrade": "FTTP_SA"
   }
  },
  {
   "type": "Feature",
   "geometry": {
    "type": "Point",
    "coordinates": [
     153.53240025,
     -28.5151368
    ]
   },
   "properties": {
    "name": "1 COONAWARRA COURT OCEAN SHORES 2483",
    "locID": "LOC000086455425",
    "tech": "FTTN",
    "upgrade": "FTTP_SA"
   }
  },
  {
   "type": "Feature",
   "geometry": {
    "type": "Point",
    "coordinates": [
     153.54849925,
     -28.49183222
    ]
   },
   "properties": {
    "name": "1 DUGUN COURT OCEAN SHORES 2483",
    "locID": "LOC000009193665",
    "tech": "FTTN",
    "upgrade": "FTTP_SA"
   }
  },
  {
   "type": "Feature",
   "geometry": {
    "type": "Point",
    "coordinates": [
     153.54450249,
     -28.52682599
    ]
   },
   "properties": {
    "name": "1 DURROON COURT OCEAN SHORES 2483",
    "locID": "LOC000051428896",
    "tech": "FTTN",
    "upgrade": "FTTP_SA"
   }
  },
  {
   "type": "Feature",
   "geometry": {
    "type": "Point",
    "coordinates": [
     153.53960936,
     -28.52139081
    ]
   },
   "properties": {
    "name": "1 DYUM PLACE OCEAN SHORES 2483",
    "locID": "LOC000025647254",
    "tech": "FTTN",
    "upgrade": "FTTP_SA"
   }
  },
  {
   "type": "Feature",
   "geometry": {
    "type": "Point",
    "coordinates": [
     153.5426121,
     -28.49377384
    ]
   },
   "properties": {
    "name": "1 ELOURA COURT OCEAN SHORES 2483",
    "locID": "LOC000103580762",
    "tech": "FTTC",
    "upgrade": "FTTP_SA"
   }
  },
  {
   "type": "Feature",
   "geometry": {
    "type": "Point",
    "coordinates": [
     153.54614213,
     -28.52720015
    ]
   },
   "properties": {
    "name": "1 GAHWANG COURT OCEAN SHORES 2483",
    "locID": "LOC000169139623",
    "tech": "FTTN",
    "upgrade": "FTTP_SA"
   }
  },
  {
   "type": "Feature",
   "geometry": {
    "type": "Point",
    "coordinates": [
     153.54459313,
     -28.52804727
    ]
   },
   "properties": {
    "name": "1 GARA COURT OCEAN SHORES 2483",
    "locID": "LOC000075855666",
    "tech": "FTTN",
    "upgrade": "FTTP_SA"
   }
  },
  {
   "type": "Feature",
   "geometry": {
    "type": "Point",
    "coordinates": [
     153.53774457,
     -28.51953404
    ]
   },
   "properties": {
    "name": "1 GIBINGBELL CLOSE OCEAN SHORES 2483",
    "locID": "LOC000077455418",
    "tech": "FTTN",
    "upgrade": "FTTP_SA"
   }
  },
  {
   "type": "Feature",
   "geometry": {
    "type": "Point",
    "coordinates": [
     153.53222394,
     -28.50586188
    ]
   },
   "properties": {
    "name": "1 GILBA AVENUE OCEAN SHORES 2483",
    "locID": "LOC000082815202",
    "tech": "FTTC",
    "upgrade": "FTTP_SA"
   }
  },
  {
   "type": "Feature",
   "geometry": {
    "type": "Point",
    "coordinates": [
     153.53243851,
     -28.51887942
    ]
   },
   "properties": {
    "name": "1 GIN GIN CRESCENT OCEAN SHORES 2483",
    "locID": "LOC000007964092",
    "tech": "FTTN",
    "upgrade": "FTTP_SA"
   }
  },
  {
   "type": "Feature",
   "geometry": {
    "type": "Point",
    "coordinates": [
     153.53863581,
     -28.49544169
    ]
   },
   "properties": {
    "name": "1 GIRA PLACE OCEAN SHORES 2483",
    "locID": "LOC000018015904",
    "tech": "FTTC",
    "upgrade": "FTTP_SA"
   }
  },
  {
   "type": "Feature",
   "geometry": {
    "type": "Point",
    "coordinates": [
     153.53444904,
     -28.52101896
    ]
   },
   "properties": {
    "name": "1 GLENDALE CRESCENT OCEAN SHORES 2483",
    "locID": "LOC000078702789",
    "tech": "FTTN",
    "upgrade": "FTTP_SA"
   }
  },
  {
   "type": "Feature",
   "geometry": {
    "type": "Point",
    "coordinates": [
     153.53982655,
     -28.5261557
    ]
   },
   "properties": {
    "name": "1 GOOLARA COURT OCEAN SHORES 2483",
    "locID": "LOC000002282562",
    "tech": "FTTN",
    "upgrade": "FTTP_SA"
   }
  },
  {
   "type": "Feature",
   "geometry": {
    "type": "Point",
    "coordinates": [
     153.53364172,
     -28.50401447
    ]
   },
   "properties": {
    "name": "1 GOOLOO COURT OCEAN SHORES 2483",
    "locID": "LOC000098170899",
    "tech": "FTTN",
    "upgrade": "FTTP_SA"
   }
  },
  {
   "type": "Feature",
   "geometry": {
    "type": "Point",
    "coordinates": [
     153.54511605,
     -28.52264295
    ]
   },
   "properties": {
    "name": "1 GOONDOOLOO DRIVE OCEAN SHORES 2483",
    "locID": "LOC000028958184",
    "tech": "FTTC",
    "upgrade": "FTTP_SA"
   }
  },
  {
   "type": "Feature",
   "geometry": {
    "type": "Point",
    "coordinates": [
     153.54042648,
     -28.5245587
    ]
   },
   "properties": {
    "name": "1 HARAH COURT OCEAN SHORES 2483",
    "locID": "LOC000018918361",
    "tech": "FTTC",
    "upgrade": "FTTP_SA"
   }
  },
  {
   "type": "Feature",
   "geometry": {
    "type": "Point",
    "coordinates": [
     153.53956096,
     -28.49568091
    ]
   },
   "properties": {
    "name": "1 HART COURT OCEAN SHORES 2483",
    "locID": "LOC000121142691",
    "tech": "FTTC",
    "upgrade": "FTTP_SA"
   }
  },
  {
   "type": "Feature",
   "geometry": {
    "type": "Point",
    "coordinates": [
     153.5430081,
     -28.52776802
    ]
   },
   "properties": {
    "name": "1 INDERWONG AVENUE OCEAN SHORES 2483",
    "locID": "LOC000068313837",
    "tech": "FTTN",
    "upgrade": "FTTP_SA"
   }
  },
  {
   "type": "Feature",
   "geometry": {
    "type": "Point",
    "coordinates": [
     153.53304409,
     -28.50313797
    ]
   },
   "properties": {
    "name": "1 JARDINE COURT OCEAN SHORES 2483",
    "locID": "LOC000101296043",
    "tech": "FTTC",
    "upgrade": "FTTP_SA"
   }
  },
  {
   "type": "Feature",
   "geometry": {
    "type": "Point",
    "coordinates": [
     153.54446496,
     -28.5192774
    ]
   },
   "properties": {
    "name": "1 KANANDAH COURT OCEAN SHORES 2483",
    "locID": "LOC000084907236",
    "tech": "FTTC",
    "upgrade": "FTTP_SA"
   }
  },
  {
   "type": "Feature",
   "geometry": {
    "type": "Point",
    "coordinates": [
     153.54408713,
     -28.5255683
    ]
   },
   "properties": {
    "name": "1 KATYA COURT OCEAN SHORES 2483",
    "locID": "LOC000089500253",
    "tech": "FTTC",
    "upgrade": "FTTP_SA"
   }
  },
  {
   "type": "Feature",
   "geometry": {
    "type": "Point",
    "coordinates": [
     153.53598929,
     -28.51760983
    ]
   },
   "properties": {
    "name": "1 KIAH CLOSE OCEAN SHORES 2483",
    "locID": "LOC000041290548",
    "tech": "FTTN",
    "upgrade": "FTTP_SA"
   }
  },
  {
   "type": "Feature",
   "geometry": {
    "type": "Point",
    "coordinates": [
     153.53606175,
     -28.52174982
    ]
   },
   "properties": {
    "name": "1 KIYUNG COURT OCEAN SHORES 2483",
    "locID": "LOC000074657926",
    "tech": "FTTN",
    "upgrade": "FTTP_SA"
   }
  },
  {
   "type": "Feature",
   "geometry": {
    "type": "Point",
    "coordinates": [
     153.5411346,
     -28.50075397
    ]
   },
   "properties": {
    "name": "1 KOLORA WAY OCEAN SHORES 2483",
    "locID": "LOC000044237621",
    "tech": "FTTN",
    "upgrade": "FTTP_SA"
   }
  },
  {
   "type": "Feature",
   "geometry": {
    "type": "Point",
    "coordinates": [
     153.53408738,
     -28.51809428
    ]
   },
   "properties": {
    "name": "1 KOORINGA COURT OCEAN SHORES 2483",
    "locID": "LOC000095884007",
    "tech": "FTTN",
    "upgrade": "FTTP_SA"
   }
  },
  {
   "type": "Feature",
   "geometry": {
    "type": "Point",
    "coordinates": [
     153.53207647,
     -28.51225971
    ]
   },
   "properties": {
    "name": "1 KULGUN COURT OCEAN SHORES 2483",
    "locID": "LOC000033643201",
    "tech": "FTTN",
    "upgrade": "FTTP_SA"
   }
  },
  {
   "type": "Feature",
   "geometry": {
    "type": "Point",
    "coordinates": [
     153.54288816,
     -28.52223534
    ]
   },
   "properties": {
    "name": "1 KUMBELLIN GLEN OCEAN SHORES 2483",
    "locID": "LOC000020915624",
    "tech": "FTTC",
    "upgrade": "FTTP_SA"
   }
  },
  {
   "type": "Feature",
   "geometry": {
    "type": "Point",
    "coordinates": [
     153.52969979,
     -28.51548901
    ]
   },
   "properties": {
    "name": "1 KURINGAI WAY OCEAN SHORES 2483",
    "locID": "LOC000065073006",
    "tech": "FTTN",
    "upgrade": "FTTP_SA"
   }
  },
  {
   "type": "Feature",
   "geometry": {
    "type": "Point",
    "coordinates": [
     153.54562531,
     -28.51669222
    ]
   },
   "properties": {
    "name": "1 LANGI PLACE OCEAN SHORES 2483",
    "locID": "LOC000110569795",
    "tech": "FTTC",
    "upgrade": "NULL_NA"
   }
  },
  {
   "type": "Feature",
   "geometry": {
    "type": "Point",
    "coordinates": [
     153.54162588,
     -28.49984734
    ]
   },
   "properties": {
    "name": "1 LARELAR COURT OCEAN SHORES 2483",
    "locID": "LOC000078901696",
    "tech": "FTTN",
    "upgrade": "FTTP_SA"
   }
  },
  {
   "type": "Feature",
   "geometry": {
    "type": "Point",
    "coordinates": [
     153.54088461,
     -28.52741027
    ]
   },
   "properties": {
    "name": "10A GOOLARA COURT OCEAN SHORES 2483",
    "locID": "LOC000180647386",
    "tech": "FTTN",
    "upgrade": "FTTP_SA"
   }
  },
  {
   "type": "Feature",
   "geometry": {
    "type": "Point",
    "coordinates": [
     153.54828881,
     -28.49362574
    ]
   },
   "properties": {
    "name": "10A RANGAL ROAD OCEAN SHORES 2483",
    "locID": "LOC000185551128",
    "tech": "FTTN",
    "upgrade": "FTTP_SA"
   }
  },
  {
   "type": "Feature",
   "geometry": {
    "type": "Point",
    "coordinates": [
     153.5354712,
     -28.52240918
    ]
   },
   "properties": {
    "name": "10B KIYUNG COURT OCEAN SHORES 2483",
    "locID": "LOC000169134224",
    "tech": "FTTN",
    "upgrade": "FTTP_SA"
   }
  },
  {
   "type": "Feature",
   "geometry": {
    "type": "Point",
    "coordinates": [
     153.54828881,
     -28.49362574
    ]
   },
   "properties": {
    "name": "10B RANGAL ROAD OCEAN SHORES 2483",
    "locID": "ChIJ4y4FLQ71kGsRq_fVvDZ0uNU",
    "tech": "FTTN",
    "upgrade": "UNKNOWN"
   }
  },
  {
   "type": "Feature",
   "geometry": {
    "type": "Point",
    "coordinates": [
     153.5335286,
     -28.50961887
    ]
   },
   "properties": {
    "name": "11 ALOOTA CRESCENT OCEAN SHORES 2483",
    "locID": "LOC000024790056",
    "tech": "FTTN",
    "upgrade": "FTTP_SA"
   }
  },
  {
   "type": "Feature",
   "geometry": {
    "type": "Point",
    "coordinates": [
     153.53070047,
     -28.51345487
    ]
   },
   "properties": {
    "name": "11 BALEMO DRIVE OCEAN SHORES 2483",
    "locID": "LOC000104210467",
    "tech": "FTTN",
    "upgrade": "FTTP_SA"
   }
  },
  {
   "type": "Feature",
   "geometry": {
    "type": "Point",
    "coordinates": [
     153.53812069,
     -28.4960993
    ]
   },
   "properties": {
    "name": "11 BANOOL CIRCUIT OCEAN SHORES 2483",
    "locID": "LOC000002167635",
    "tech": "FTTC",
    "upgrade": "FTTP_SA"
   }
  },
  {
   "type": "Feature",
   "geometry": {
    "type": "Point",
    "coordinates": [
     153.54556769,
     -28.49159305
    ]
   },
   "properties": {
    "name": "11 BARKALA COURT OCEAN SHORES 2483",
    "locID": "LOC000025410110",
    "tech": "FTTN",
    "upgrade": "FTTP_SA"
   }
  },
  {
   "type": "Feature",
   "geometry": {
    "type": "Point",
    "coordinates": [
     153.54660411,
     -28.49321353
    ]
   },
   "properties": {
    "name": "11 BERRIMBILLAH COURT OCEAN SHORES 2483",
    "locID": "LOC000105071295",
    "tech": "FTTN",
    "upgrade": "FTTP_SA"
   }
  },
  {
   "type": "Feature",
   "geometry": {
    "type": "Point",
    "coordinates": [
     153.53821999,
     -28.52777881
    ]
   },
   "properties": {
    "name": "11 BIAN COURT OCEAN SHORES 2483",
    "locID": "LOC000009854616",
    "tech": "FTTN",
    "upgrade": "FTTP_SA"
   }
  },
  {
   "type": "Feature",
   "geometry": {
    "type": "Point",
    "coordinates": [
     153.53209699,
     -28.52065864
    ]
   },
   "properties": {
    "name": "11 BINYA PLACE OCEAN SHORES 2483",
    "locID": "LOC000037310395",
    "tech": "FTTN",
    "upgrade": "FTTP_SA"
   }
  },
  {
   "type": "Feature",
   "geometry": {
    "type": "Point",
    "coordinates": [
     153.54456009,
     -28.52898085
    ]
   },
   "properties": {
    "name": "11 BOONDOON CRESCENT OCEAN SHORES 2483",
    "locID": "LOC000012220452",
    "tech": "FTTN",
    "upgrade": "FTTP_SA"
   }
  },
  {
   "type": "Feature",
   "geometry": {
    "type": "Point",
    "coordinates": [
     153.54096337,
     -28.5198569
    ]
   },
   "properties": {
    "name": "11 BULGOON CRESCENT OCEAN SHORES 2483",
    "locID": "LOC000043978239",
    "tech": "FTTC",
    "upgrade": "FTTP_SA"
   }
  },
  {
   "type": "Feature",
   "geometry": {
    "type": "Point",
    "coordinates": [
     153.54680848,
     -28.52002384
    ]
   },
   "properties": {
    "name": "11 BURRA BURRA CLOSE OCEAN SHORES 2483",
    "locID": "LOC000056437399",
    "tech": "FTTC",
    "upgrade": "FTTP_SA"
   }
  },
  {
   "type": "Feature",
   "geometry": {
    "type": "Point",
    "coordinates": [
     153.53764579,
     -28.52200645
    ]
   },
   "properties": {
    "name": "11 COOMBURRA CRESCENT OCEAN SHORES 2483",
    "locID": "LOC000061622886",
    "tech": "FTTN",
    "upgrade": "FTTP_SA"
   }
  },
  {
   "type": "Feature",
   "geometry": {
    "type": "Point",
    "coordinates": [
     153.53291314,
     -28.51527129
    ]
   },
   "properties": {
    "name": "11 COONAWARRA COURT OCEAN SHORES 2483",
    "locID": "LOC000079768489",
    "tech": "FTTN",
    "upgrade": "FTTP_SA"
   }
  },
  {
   "type": "Feature",
   "geometry": {
    "type": "Point",
    "coordinates": [
     153.5389071,
     -28.51982877
    ]
   },
   "properties": {
    "name": "11 DANDALOO WAY OCEAN SHORES 2483",
    "locID": "LOC000107878505",
    "tech": "FTTN",
    "upgrade": "FTTP_SA"
   }
  },
  {
   "type": "Feature",
   "geometry": {
    "type": "Point",
    "coordinates": [
     153.54368065,
     -28.49383358
    ]
   },
   "properties": {
    "name": "11 ELOURA COURT OCEAN SHORES 2483",
    "locID": "LOC000049396104",
    "tech": "FTTC",
    "upgrade": "FTTP_SA"
   }
  },
  {
   "type": "Feature",
   "geometry": {
    "type": "Point",
    "coordinates": [
     153.53667836,
     -28.49523782
    ]
   },
   "properties": {
    "name": "11 FLINDERS WAY OCEAN SHORES 2483",
    "locID": "LOC000041152123",
    "tech": "FTTC",
    "upgrade": "FTTP_SA"
   }
  },
  {
   "type": "Feature",
   "geometry": {
    "type": "Point",
    "coordinates": [
     153.53724738,
     -28.51965405
    ]
   },
   "properties": {
    "name": "11 GIBINGBELL CLOSE OCEAN SHORES 2483",
    "locID": "LOC000067237773",
    "tech": "FTTN",
    "upgrade": "FTTP_SA"
   }
  },
  {
   "type": "Feature",
   "geometry": {
    "type": "Point",
    "coordinates": [
     153.53159202,
     -28.50509802
    ]
   },
   "properties": {
    "name": "11 GILBA AVENUE OCEAN SHORES 2483",
    "locID": "LOC000040232972",
    "tech": "FTTC",
    "upgrade": "FW_CT"
   }
  },
  {
   "type": "Feature",
   "geometry": {
    "type": "Point",
    "coordinates": [
     153.53189051,
     -28.5182846
    ]
   },
   "properties": {
    "name": "11 GIN GIN CRESCENT OCEAN SHORES 2483",
    "locID": "LOC000032977257",
    "tech": "FTTN",
    "upgrade": "FTTP_SA"
   }
  },
  {
   "type": "Feature",
   "geometry": {
    "type": "Point",
    "coordinates": [
     153.54066829,
     -28.52718873
    ]
   },
   "properties": {
    "name": "11 GOOLARA COURT OCEAN SHORES 2483",
    "locID": "LOC000068423573",
    "tech": "FTTN",
    "upgrade": "FTTP_SA"
   }
  },
  {
   "type": "Feature",
   "geometry": {
    "type": "Point",
    "coordinates": [
     153.54233769,
     -28.52276431
    ]
   },
   "properties": {
    "name": "11 GOONDOOLOO DRIVE OCEAN SHORES 2483",
    "locID": "LOC000052551503",
    "tech": "FTTN",
    "upgrade": "FTTP_SA"
   }
  },
  {
   "type": "Feature",
   "geometry": {
    "type": "Point",
    "coordinates": [
     153.54535597,
     -28.48994963
    ]
   },
   "properties": {
    "name": "11 HALYARD COURT OCEAN SHORES 2483",
    "locID": "LOC000008741197",
    "tech": "FTTN",
    "upgrade": "FTTP_SA"
   }
  },
  {
   "type": "Feature",
   "geometry": {
    "type": "Point",
    "coordinates": [
     153.54280599,
     -28.49029464
    ]
   },
   "properties": {
    "name": "11 HARDY AVENUE OCEAN SHORES 2483",
    "locID": "LOC000077377745",
    "tech": "FTTC",
    "upgrade": "FTTP_SA"
   }
  },
  {
   "type": "Feature",
   "geometry": {
    "type": "Point",
    "coordinates": [
     153.54264279,
     -28.52677492
    ]
   },
   "properties": {
    "name": "11 INDERWONG AVENUE OCEAN SHORES 2483",
    "locID": "LOC000017904747",
    "tech": "FTTN",
    "upgrade": "FTTP_SA"
   }
  },
  {
   "type": "Feature",
   "geometry": {
    "type": "Point",
    "coordinates": [
     153.53343201,
     -28.50414909
    ]
   },
   "properties": {
    "name": "11 JARDINE COURT OCEAN SHORES 2483",
    "locID": "LOC000080149633",
    "tech": "FTTC",
    "upgrade": "FTTP_SA"
   }
  },
  {
   "type": "Feature",
   "geometry": {
    "type": "Point",
    "coordinates": [
     153.54345938,
     -28.52538706
    ]
   },
   "properties": {
    "name": "11 JARRAH CRESCENT OCEAN SHORES 2483",
    "locID": "LOC000036842202",
    "tech": "FTTC",
    "upgrade": "FTTP_SA"
   }
  },
  {
   "type": "Feature",
   "geometry": {
    "type": "Point",
    "coordinates": [
     153.5464443,
     -28.49063204
    ]
   },
   "properties": {
    "name": "11 KALLAROO CIRCUIT OCEAN SHORES 2483",
    "locID": "LOC000052213086",
    "tech": "FTTN",
    "upgrade": "FTTP_SA"
   }
  },
  {
   "type": "Feature",
   "geometry": {
    "type": "Point",
    "coordinates": [
     153.54406627,
     -28.51827547
    ]
   },
   "properties": {
    "name": "11 KANANDAH COURT OCEAN SHORES 2483",
    "locID": "LOC000007254810",
    "tech": "FTTC",
    "upgrade": "FTTP_SA"
   }
  },
  {
   "type": "Feature",
   "geometry": {
    "type": "Point",
    "coordinates": [
     153.53495875,
     -28.51728078
    ]
   },
   "properties": {
    "name": "11 KIAH CLOSE OCEAN SHORES 2483",
    "locID": "LOC000004134311",
    "tech": "FTTN",
    "upgrade": "FTTP_SA"
   }
  },
  {
   "type": "Feature",
   "geometry": {
    "type": "Point",
    "coordinates": [
     153.53657313,
     -28.52275368
    ]
   },
   "properties": {
    "name": "11 KIYUNG COURT OCEAN SHORES 2483",
    "locID": "LOC000033959994",
    "tech": "FTTN",
    "upgrade": "FTTP_SA"
   }
  },
  {
   "type": "Feature",
   "geometry": {
    "type": "Point",
    "coordinates": [
     153.54137062,
     -28.49971553
    ]
   },
   "properties": {
    "name": "11 KOLORA WAY OCEAN SHORES 2483",
    "locID": "LOC000098865647",
    "tech": "FTTN",
    "upgrade": "FTTP_SA"
   }
  },
  {
   "type": "Feature",
   "geometry": {
    "type": "Point",
    "coordinates": [
     153.54369771,
     -28.49252694
    ]
   },
   "properties": {
    "name": "11 KONDA COURT OCEAN SHORES 2483",
    "locID": "LOC000039821479",
    "tech": "FTTC",
    "upgrade": "FTTP_SA"
   }
  },
  {
   "type": "Feature",
   "geometry": {
    "type": "Point",
    "coordinates": [
     153.54630172,
     -28.51719522
    ]
   },
   "properties": {
    "name": "11 LANGI PLACE OCEAN SHORES 2483",
    "locID": "LOC000112669713",
    "tech": "FTTC",
    "upgrade": "NULL_NA"
   }
  },
  {
   "type": "Feature",
   "geometry": {
    "type": "Point",
    "coordinates": [
     153.54138997,
     -28.50077142
    ]
   },
   "properties": {
    "name": "11 LARELAR COURT OCEAN SHORES 2483",
    "locID": "LOC000008128312",
    "tech": "FTTN",
    "upgrade": "FTTP_SA"
   }
  },
  {
   "type": "Feature",
   "geometry": {
    "type": "Point",
    "coordinates": [
     153.53307815,
     -28.50446836
    ]
   },
   "properties": {
    "name": "11 MATONG DRIVE OCEAN SHORES 2483",
    "locID": "LOC000060234305",
    "tech": "FTTC",
    "upgrade": "FTTP_SA"
   }
  },
  {
   "type": "Feature",
   "geometry": {
    "type": "Point",
    "coordinates": [
     153.54784527,
     -28.49062872
    ]
   },
   "properties": {
    "name": "11 MIA COURT OCEAN SHORES 2483",
    "locID": "LOC000007450270",
    "tech": "FTTN",
    "upgrade": "FTTP_SA"
   }
  },
  {
   "type": "Feature",
   "geometry": {
    "type": "Point",
    "coordinates": [
     153.54536508,
     -28.52795141
    ]
   },
   "properties": {
    "name": "11 MIRAM PLACE OCEAN SHORES 2483",
    "locID": "ChIJeaLjYs2KkGsReVo73ShWXzg",
    "tech": "FTTN",
    "upgrade": "UNKNOWN"
   }
  },
  {
   "type": "Feature",
   "geometry": {
    "type": "Point",
    "coordinates": [
     153.54948252,
     -28.49143825
    ]
   },
   "properties": {
    "name": "11 MULI MULI AVENUE OCEAN SHORES 2483",
    "locID": "LOC000069275765",
    "tech": "FTTN",
    "upgrade": "FTTP_SA"
   }
  },
  {
   "type": "Feature",
   "geometry": {
    "type": "Point",
    "coordinates": [
     153.53543531,
     -28.50774665
    ]
   },
   "properties": {
    "name": "11 MUNDURRA AVENUE OCEAN SHORES 2483",
    "locID": "LOC000029990022",
    "tech": "FTTN",
    "upgrade": "FTTP_SA"
   }
  },
  {
   "type": "Feature",
   "geometry": {
    "type": "Point",
    "coordinates": [
     153.53502173,
     -28.52257893
    ]
   },
   "properties": {
    "name": "11 MURUMBA CLOSE OCEAN SHORES 2483",
    "locID": "LOC000109209659",
    "tech": "FTTP",
    "upgrade": "NULL_NA"
   }
  },
  {
   "type": "Feature",
   "geometry": {
    "type": "Point",
    "coordinates": [
     153.53220322,
     -28.52191267
    ]
   },
   "properties": {
    "name": "11 NAMOI GLEN OCEAN SHORES 2483",
    "locID": "LOC000078330633",
    "tech": "FTTN",
    "upgrade": "FTTP_SA"
   }
  },
  {
   "type": "Feature",
   "geometry": {
    "type": "Point",
    "coordinates": [
     153.53511857,
     -28.50689448
    ]
   },
   "properties": {
    "name": "11 NANDROYA AVENUE OCEAN SHORES 2483",
    "locID": "LOC000099716930",
    "tech": "FTTN",
    "upgrade": "FTTP_SA"
   }
  },
  {
   "type": "Feature",
   "geometry": {
    "type": "Point",
    "coordinates": [
     153.53284937,
     -28.51175985
    ]
   },
   "properties": {
    "name": "11 NARGOON COURT OCEAN SHORES 2483",
    "locID": "LOC000054020781",
    "tech": "FTTN",
    "upgrade": "FTTP_SA"
   }
  },
  {
   "type": "Feature",
   "geometry": {
    "type": "Point",
    "coordinates": [
     153.54226045,
     -28.51943927
    ]
   },
   "properties": {
    "name": "11 NAROOMA DRIVE OCEAN SHORES 2483",
    "locID": "LOC000102167024",
    "tech": "FTTC",
    "upgrade": "FTTP_SA"
   }
  },
  {
   "type": "Feature",
   "geometry": {
    "type": "Point",
    "coordinates": [
     153.54393433,
     -28.49765102
    ]
   },
   "properties": {
    "name": "11 NATAN COURT OCEAN SHORES 2483",
    "locID": "LOC000094190540",
    "tech": "FTTN",
    "upgrade": "FTTP_SA"
   }
  },
  {
   "type": "Feature",
   "geometry": {
    "type": "Point",
    "coordinates": [
     153.53135342,
     -28.51466569
    ]
   },
   "properties": {
    "name": "11 ORANA ROAD OCEAN SHORES 2483",
    "locID": "LOC000092458002",
    "tech": "FTTN",
    "upgrade": "FTTP_SA"
   }
  },
  {
   "type": "Feature",
   "geometry": {
    "type": "Point",
    "coordinates": [
     153.54043608,
     -28.52792173
    ]
   },
   "properties": {
    "name": "11 RAJAH ROAD OCEAN SHORES 2483",
    "locID": "LOC000006274572",
    "tech": "FTTN",
    "upgrade": "FTTP_SA"
   }
  },
  {
   "type": "Feature",
   "geometry": {
    "type": "Point",
    "coordinates": [
     153.54826312,
     -28.49287349
    ]
   },
   "properties": {
    "name": "11 RANGAL ROAD OCEAN SHORES 2483",
    "locID": "LOC000016392862",
    "tech": "FTTN",
    "upgrade": "FTTP_SA"
   }
  },
  {
   "type": "Feature",
   "geometry": {
    "type": "Point",
    "coordinates": [
     153.54374889,
     -28.51872573
    ]
   },
   "properties": {
    "name": "11 ROUNDHOUSE PLACE OCEAN SHORES 2483",
    "locID": "LOC100064297193",
    "tech": "FTTC",
    "upgrade": "FTTP_SA"
   }
  },
  {
   "type": "Feature",
   "geometry": {
    "type": "Point",
    "coordinates": [
     153.53900184,
     -28.49753539
    ]
   },
   "properties": {
    "name": "11 SHARA BOULEVARD OCEAN SHORES 2483",
    "locID": "LOC000121145144",
    "tech": "FTTN",
    "upgrade": "FTTP_SA"
   }
  },
  {
   "type": "Feature",
   "geometry": {
    "type": "Point",
    "coordinates": [
     153.53665924,
     -28.51103973
    ]
   },
   "properties": {
    "name": "11 TERRARA COURT OCEAN SHORES 2483",
    "locID": "LOC000090637302",
    "tech": "FTTN",
    "upgrade": "FTTP_SA"
   }
  },
  {
   "type": "Feature",
   "geometry": {
    "type": "Point",
    "coordinates": [
     153.535796,
     -28.52031598
    ]
   },
   "properties": {
    "name": "11 TINDARA AVENUE OCEAN SHORES 2483",
    "locID": "LOC000106309878",
    "tech": "FTTN",
    "upgrade": "FTTP_SA"
   }
  },
  {
   "type": "Feature",
   "geometry": {
    "type": "Point",
    "coordinates": [
     153.531135,
     -28.52325513
    ]
   },
   "properties": {
    "name": "11 TONGARRA DRIVE OCEAN SHORES 2483",
    "locID": "LOC000112774922",
    "tech": "FTTN",
    "upgrade": "FTTP_SA"
   }
  },
  {
   "type": "Feature",
   "geometry": {
    "type": "Point",
    "coordinates": [
     153.53396691,
     -28.52248416
    ]
   },
   "properties": {
    "name": "11 WALGOOAN WAY OCEAN SHORES 2483",
    "locID": "LOC000053425970",
    "tech": "FTTN",
    "upgrade": "FTTP_SA"
   }
  },
  {
   "type": "Feature",
   "geometry": {
    "type": "Point",
    "coordinates": [
     153.53925575,
     -28.52745232
    ]
   },
   "properties": {
    "name": "11 WARRAMBOOL ROAD OCEAN SHORES 2483",
    "locID": "LOC000091199248",
    "tech": "FTTN",
    "upgrade": "FTTP_SA"
   }
  },
  {
   "type": "Feature",
   "geometry": {
    "type": "Point",
    "coordinates": [
     153.53773444,
     -28.52613149
    ]
   },
   "properties": {
    "name": "11 WEERONGA WAY OCEAN SHORES 2483",
    "locID": "LOC000041981476",
    "tech": "FTTN",
    "upgrade": "FTTP_SA"
   }
  },
  {
   "type": "Feature",
   "geometry": {
    "type": "Point",
    "coordinates": [
     153.54577745,
     -28.51534924
    ]
   },
   "properties": {
    "name": "11 WIRREE DRIVE OCEAN SHORES 2483",
    "locID": "LOC000063821236",
    "tech": "FTTP",
    "upgrade": "UNKNOWN"
   }
  },
  {
   "type": "Feature",
   "geometry": {
    "type": "Point",
    "coordinates": [
     153.54244041,
     -28.52364847
    ]
   },
   "properties": {
    "name": "11 WIRRUNA AVENUE OCEAN SHORES 2483",
    "locID": "LOC000004660503",
    "tech": "FTTC",
    "upgrade": "FTTP_SA"
   }
  },
  {
   "type": "Feature",
   "geometry": {
    "type": "Point",
    "coordinates": [
     153.53453476,
     -28.50809712
    ]
   },
   "properties": {
    "name": "11 WOGGOON TERRACE OCEAN SHORES 2483",
    "locID": "LOC000021551025",
    "tech": "FTTN",
    "upgrade": "FTTP_SA"
   }
  },
  {
   "type": "Feature",
   "geometry": {
    "type": "Point",
    "coordinates": [
     153.54448502,
     -28.52435804
    ]
   },
   "properties": {
    "name": "11 YALLA KOOL DRIVE OCEAN SHORES 2483",
    "locID": "ChIJ0VjXZy31kGsRrSg5FNXtTiA",
    "tech": "FTTC",
    "upgrade": "UNKNOWN"
   }
  },
  {
   "type": "Feature",
   "geometry": {
    "type": "Point",
    "coordinates": [
     153.53260229,
     -28.51861732
    ]
   },
   "properties": {
    "name": "11 YAMBLE DRIVE OCEAN SHORES 2483",
    "locID": "LOC000010025330",
    "tech": "FTTN",
    "upgrade": "FTTP_SA"
   }
  },
  {
   "type": "Feature",
   "geometry": {
    "type": "Point",
    "coordinates": [
     153.5448973,
     -28.52059656
    ]
   },
   "properties": {
    "name": "11 YENGARIE WAY OCEAN SHORES 2483",
    "locID": "LOC000080064624",
    "tech": "FTTC",
    "upgrade": "FTTP_SA"
   }
  },
  {
   "type": "Feature",
   "geometry": {
    "type": "Point",
    "coordinates": [
     153.53776317,
     -28.52256738
    ]
   },
   "properties": {
    "name": "11 YUNGARUP PLACE OCEAN SHORES 2483",
    "locID": "LOC000032338400",
    "tech": "FTTN",
    "upgrade": "FTTP_SA"
   }
  },
  {
   "type": "Feature",
   "geometry": {
    "type": "Point",
    "coordinates": [
     153.53678008,
     -28.50572662
    ]
   },
   "properties": {
    "name": "110 BALEMO DRIVE OCEAN SHORES 2483",
    "locID": "LOC000013210552",
    "tech": "FTTN",
    "upgrade": "FTTP_SA"
   }
  },
  {
   "type": "Feature",
   "geometry": {
    "type": "Point",
    "coordinates": [
     153.54162826,
     -28.52149314
    ]
   },
   "properties": {
    "name": "110 ORANA ROAD OCEAN SHORES 2483",
    "locID": "LOC000096954647",
    "tech": "FTTC",
    "upgrade": "FTTP_SA"
   }
  },
  {
   "type": "Feature",
   "geometry": {
    "type": "Point",
    "coordinates": [
     153.5333436,
     -28.50305985
    ]
   },
   "properties": {
    "name": "111 BALEMO DRIVE OCEAN SHORES 2483",
    "locID": "LOC000101042928",
    "tech": "FTTN",
    "upgrade": "FTTP_SA"
   }
  },
  {
   "type": "Feature",
   "geometry": {
    "type": "Point",
    "coordinates": [
     153.54335392,
     -28.51973383
    ]
   },
   "properties": {
    "name": "111 ORANA ROAD OCEAN SHORES 2483",
    "locID": "LOC000018033158",
    "tech": "FTTC",
    "upgrade": "FTTP_SA"
   }
  },
  {
   "type": "Feature",
   "geometry": {
    "type": "Point",
    "coordinates": [
     153.53335241,
     -28.50302789
    ]
   },
   "properties": {
    "name": "111A BALEMO DRIVE OCEAN SHORES 2483",
    "locID": "LOC000189001956",
    "tech": "FTTN",
    "upgrade": "FTTP_SA"
   }
  },
  {
   "type": "Feature",
   "geometry": {
    "type": "Point",
    "coordinates": [
     153.54417696,
     -28.51934407
    ]
   },
   "properties": {
    "name": "111A ORANA ROAD OCEAN SHORES 2483",
    "locID": "LOC000169138968",
    "tech": "FTTC",
    "upgrade": "FTTP_SA"
   }
  },
  {
   "type": "Feature",
   "geometry": {
    "type": "Point",
    "coordinates": [
     153.53318825,
     -28.5030123
    ]
   },
   "properties": {
    "name": "111B BALEMO DRIVE OCEAN SHORES 2483",
    "locID": "LOC000190964756",
    "tech": "FTTC",
    "upgrade": "NULL_NA"
   }
  },
  {
   "type": "Feature",
   "geometry": {
    "type": "Point",
    "coordinates": [
     153.53658677,
     -28.50559003
    ]
   },
   "properties": {
    "name": "112 BALEMO DRIVE OCEAN SHORES 2483",
    "locID": "LOC000075231994",
    "tech": "FTTN",
    "upgrade": "FTTP_SA"
   }
  },
  {
   "type": "Feature",
   "geometry": {
    "type": "Point",
    "coordinates": [
     153.54209029,
     -28.52117647
    ]
   },
   "properties": {
    "name": "112 ORANA ROAD OCEAN SHORES 2483",
    "locID": "LOC000025488446",
    "tech": "FTTC",
    "upgrade": "FTTP_SA"
   }
  },
  {
   "type": "Feature",
   "geometry": {
    "type": "Point",
    "coordinates": [
     153.54009286,
     -28.49650064
    ]
   },
   "properties": {
    "name": "112 SHARA BOULEVARD OCEAN SHORES 2483",
    "locID": "LOC000121145088",
    "tech": "FTTC",
    "upgrade": "FTTP_SA"
   }
  },
  {
   "type": "Feature",
   "geometry": {
    "type": "Point",
    "coordinates": [
     153.53179728,
     -28.50361026
    ]
   },
   "properties": {
    "name": "113 BALEMO DRIVE OCEAN SHORES 2483",
    "locID": "LOC000091972438",
    "tech": "FTTC",
    "upgrade": "FTTP_SA"
   }
  },
  {
   "type": "Feature",
   "geometry": {
    "type": "Point",
    "coordinates": [
     153.54536559,
     -28.51892479
    ]
   },
   "properties": {
    "name": "113 ORANA ROAD OCEAN SHORES 2483",
    "locID": "LOC000015926029",
    "tech": "FTTC",
    "upgrade": "FTTP_SA"
   }
  },
  {
   "type": "Feature",
   "geometry": {
    "type": "Point",
    "coordinates": [
     153.53861548,
     -28.51085156
    ]
   },
   "properties": {
    "name": "113A ORANA ROAD OCEAN SHORES 2483",
    "locID": "LOC000175294425",
    "tech": "FTTC",
    "upgrade": "NULL_NA"
   }
  },
  {
   "type": "Feature",
   "geometry": {
    "type": "Point",
    "coordinates": [
     153.53534998,
     -28.51004407
    ]
   },
   "properties": {
    "name": "114 BALEMO DRIVE OCEAN SHORES 2483",
    "locID": "ChIJXR_JDif1kGsRvP2ds3PSXmI",
    "tech": "FTTN",
    "upgrade": "UNKNOWN"
   }
  },
  {
   "type": "Feature",
   "geometry": {
    "type": "Point",
    "coordinates": [
     153.54238787,
     -28.52110541
    ]
   },
   "properties": {
    "name": "114 ORANA ROAD OCEAN SHORES 2483",
    "locID": "LOC000100971537",
    "tech": "FTTC",
    "upgrade": "FTTP_SA"
   }
  },
  {
   "type": "Feature",
   "geometry": {
    "type": "Point",
    "coordinates": [
     153.54017645,
     -28.49634104
    ]
   },
   "properties": {
    "name": "114 SHARA BOULEVARD OCEAN SHORES 2483",
    "locID": "LOC000121145128",
    "tech": "FTTC",
    "upgrade": "FTTP_SA"
   }
  },
  {
   "type": "Feature",
   "geometry": {
    "type": "Point",
    "coordinates": [
     153.53160449,
     -28.50358644
    ]
   },
   "properties": {
    "name": "115 BALEMO DRIVE OCEAN SHORES 2483",
    "locID": "LOC000071288658",
    "tech": "FTTC",
    "upgrade": "FTTP_SA"
   }
  },
  {
   "type": "Feature",
   "geometry": {
    "type": "Point",
    "coordinates": [
     153.54579047,
     -28.51871876
    ]
   },
   "properties": {
    "name": "115 ORANA ROAD OCEAN SHORES 2483",
    "locID": "LOC000061333037",
    "tech": "FTTC",
    "upgrade": "FTTP_SA"
   }
  },
  {
   "type": "Feature",
   "geometry": {
    "type": "Point",
    "coordinates": [
     153.54095952,
     -28.49650915
    ]
   },
   "properties": {
    "name": "115 SHARA BOULEVARD OCEAN SHORES 2483",
    "locID": "LOC000121145144",
    "tech": "FTTN",
    "upgrade": "FTTP_SA"
   }
  },
  {
   "type": "Feature",
   "geometry": {
    "type": "Point",
    "coordinates": [
     153.53156997,
     -28.50359287
    ]
   },
   "properties": {
    "name": "115A BALEMO DRIVE OCEAN SHORES 2483",
    "locID": "LOC000186509284",
    "tech": "FTTP",
    "upgrade": "NULL_NA"
   }
  },
  {
   "type": "Feature",
   "geometry": {
    "type": "Point",
    "coordinates": [
     153.54095952,
     -28.49650915
    ]
   },
   "properties": {
    "name": "115A SHARA BOULEVARD OCEAN SHORES 2483",
    "locID": "LOC000187054171",
    "tech": "FTTN",
    "upgrade": "FTTP_SA"
   }
  },
  {
   "type": "Feature",
   "geometry": {
    "type": "Point",
    "coordinates": [
     153.53616479,
     -28.50536253
    ]
   },
   "properties": {
    "name": "116 BALEMO DRIVE OCEAN SHORES 2483",
    "locID": "LOC000183120334",
    "tech": "FTTN",
    "upgrade": "FTTP_SA"
   }
  },
  {
   "type": "Feature",
   "geometry": {
    "type": "Point",
    "coordinates": [
     153.54260291,
     -28.52110392
    ]
   },
   "properties": {
    "name": "116 ORANA ROAD OCEAN SHORES 2483",
    "locID": "LOC000079805034",
    "tech": "FTTC",
    "upgrade": "FTTP_SA"
   }
  },
  {
   "type": "Feature",
   "geometry": {
    "type": "Point",
    "coordinates": [
     153.54028477,
     -28.49618137
    ]
   },
   "properties": {
    "name": "116 SHARA BOULEVARD OCEAN SHORES 2483",
    "locID": "LOC000121145163",
    "tech": "FTTC",
    "upgrade": "FTTP_SA"
   }
  },
  {
   "type": "Feature",
   "geometry": {
    "type": "Point",
    "coordinates": [
     153.53138173,
     -28.50355155
    ]
   },
   "properties": {
    "name": "117 BALEMO DRIVE OCEAN SHORES 2483",
    "locID": "LOC000110188440",
    "tech": "FTTC",
    "upgrade": "FTTP_SA"
   }
  },
  {
   "type": "Feature",
   "geometry": {
    "type": "Point",
    "coordinates": [
     153.54596425,
     -28.51858262
    ]
   },
   "properties": {
    "name": "117 ORANA ROAD OCEAN SHORES 2483",
    "locID": "LOC000098032882",
    "tech": "FTTC",
    "upgrade": "FTTP_SA"
   }
  },
  {
   "type": "Feature",
   "geometry": {
    "type": "Point",
    "coordinates": [
     153.54099274,
     -28.49626396
    ]
   },
   "properties": {
    "name": "117 SHARA BOULEVARD OCEAN SHORES 2483",
    "locID": "LOC000121145185",
    "tech": "FTTN",
    "upgrade": "FTTP_SA"
   }
  },
  {
   "type": "Feature",
   "geometry": {
    "type": "Point",
    "coordinates": [
     153.53589052,
     -28.50533143
    ]
   },
   "properties": {
    "name": "118 BALEMO DRIVE OCEAN SHORES 2483",
    "locID": "LOC000004208207",
    "tech": "FTTN",
    "upgrade": "FTTP_SA"
   }
  },
  {
   "type": "Feature",
   "geometry": {
    "type": "Point",
    "coordinates": [
     153.54282125,
     -28.52105154
    ]
   },
   "properties": {
    "name": "118 ORANA ROAD OCEAN SHORES 2483",
    "locID": "LOC000093829947",
    "tech": "FTTC",
    "upgrade": "FTTP_SA"
   }
  },
  {
   "type": "Feature",
   "geometry": {
    "type": "Point",
    "coordinates": [
     153.54042529,
     -28.49600612
    ]
   },
   "properties": {
    "name": "118 SHARA BOULEVARD OCEAN SHORES 2483",
    "locID": "LOC000121145214",
    "tech": "FTTC",
    "upgrade": "FTTP_SA"
   }
  },
  {
   "type": "Feature",
   "geometry": {
    "type": "Point",
    "coordinates": [
     153.53113683,
     -28.50352467
    ]
   },
   "properties": {
    "name": "119 BALEMO DRIVE OCEAN SHORES 2483",
    "locID": "LOC000096217371",
    "tech": "FTTC",
    "upgrade": "FTTP_SA"
   }
  },
  {
   "type": "Feature",
   "geometry": {
    "type": "Point",
    "coordinates": [
     153.54607931,
     -28.51833675
    ]
   },
   "properties": {
    "name": "119 ORANA ROAD OCEAN SHORES 2483",
    "locID": "LOC000055412948",
    "tech": "FTTC",
    "upgrade": "FTTP_SA"
   }
  },
  {
   "type": "Feature",
   "geometry": {
    "type": "Point",
    "coordinates": [
     153.53113683,
     -28.50352467
    ]
   },
   "properties": {
    "name": "119A BALEMO DRIVE OCEAN SHORES 2483",
    "locID": "ChIJRVntr9_0kGsRe7txy2GFtMk",
    "tech": "FTTC",
    "upgrade": "UNKNOWN"
   }
  },
  {
   "type": "Feature",
   "geometry": {
    "type": "Point",
    "coordinates": [
     153.53113683,
     -28.50352467
    ]
   },
   "properties": {
    "name": "119B BALEMO DRIVE OCEAN SHORES 2483",
    "locID": "ChIJRVntr9_0kGsRUC6IB41FwBk",
    "tech": "FTTC",
    "upgrade": "UNKNOWN"
   }
  },
  {
   "type": "Feature",
   "geometry": {
    "type": "Point",
    "coordinates": [
     153.54407089,
     -28.51825049
    ]
   },
   "properties": {
    "name": "11A KANANDAH COURT OCEAN SHORES 2483",
    "locID": "LOC000110880011",
    "tech": "FTTC",
    "upgrade": "FTTP_SA"
   }
  },
  {
   "type": "Feature",
   "geometry": {
    "type": "Point",
    "coordinates": [
     153.54577745,
     -28.51534924
    ]
   },
   "properties": {
    "name": "11A WIRREE DRIVE OCEAN SHORES 2483",
    "locID": "ChIJ4XebBzD1kGsRJUUOBuFwBvU",
    "tech": "FTTC",
    "upgrade": "UNKNOWN"
   }
  },
  {
   "type": "Feature",
   "geometry": {
    "type": "Point",
    "coordinates": [
     153.54406627,
     -28.51827547
    ]
   },
   "properties": {
    "name": "11B KANANDAH COURT OCEAN SHORES 2483",
    "locID": "ChIJjfQ0Ny71kGsRSENjjowT-WY",
    "tech": "FTTC",
    "upgrade": "UNKNOWN"
   }
  },
  {
   "type": "Feature",
   "geometry": {
    "type": "Point",
    "coordinates": [
     153.54397252,
     -28.49249337
    ]
   },
   "properties": {
    "name": "11B KONDA COURT OCEAN SHORES 2483",
    "locID": "LOC000039775153",
    "tech": "FTTC",
    "upgrade": "FTTP_SA"
   }
  },
  {
   "type": "Feature",
   "geometry": {
    "type": "Point",
    "coordinates": [
     153.53429735,
     -28.50936657
    ]
   },
   "properties": {
    "name": "12 ALOOTA CRESCENT OCEAN SHORES 2483",
    "locID": "LOC000021417641",
    "tech": "FTTN",
    "upgrade": "FTTP_SA"
   }
  },
  {
   "type": "Feature",
   "geometry": {
    "type": "Point",
    "coordinates": [
     153.53854868,
     -28.52788409
    ]
   },
   "properties": {
    "name": "12 ARIKA AVENUE OCEAN SHORES 2483",
    "locID": "LOC000043930195",
    "tech": "FTTN",
    "upgrade": "FTTP_SA"
   }
  },
  {
   "type": "Feature",
   "geometry": {
    "type": "Point",
    "coordinates": [
     153.53821976,
     -28.49675448
    ]
   },
   "properties": {
    "name": "12 BANOOL CIRCUIT OCEAN SHORES 2483",
    "locID": "LOC000002330751",
    "tech": "FTTC",
    "upgrade": "FTTP_SA"
   }
  },
  {
   "type": "Feature",
   "geometry": {
    "type": "Point",
    "coordinates": [
     153.54579295,
     -28.492263
    ]
   },
   "properties": {
    "name": "12 BARKALA COURT OCEAN SHORES 2483",
    "locID": "LOC000058437612",
    "tech": "FTTN",
    "upgrade": "FTTP_SA"
   }
  },
  {
   "type": "Feature",
   "geometry": {
    "type": "Point",
    "coordinates": [
     153.54685368,
     -28.49368624
    ]
   },
   "properties": {
    "name": "12 BERRIMBILLAH COURT OCEAN SHORES 2483",
    "locID": "LOC000053719936",
    "tech": "FTTN",
    "upgrade": "FTTP_SA"
   }
  },
  {
   "type": "Feature",
   "geometry": {
    "type": "Point",
    "coordinates": [
     153.53211967,
     -28.5200613
    ]
   },
   "properties": {
    "name": "12 BINYA PLACE OCEAN SHORES 2483",
    "locID": "LOC000108321802",
    "tech": "FTTN",
    "upgrade": "FTTP_SA"
   }
  },
  {
   "type": "Feature",
   "geometry": {
    "type": "Point",
    "coordinates": [
     153.5439903,
     -28.52900446
    ]
   },
   "properties": {
    "name": "12 BOONDOON CRESCENT OCEAN SHORES 2483",
    "locID": "LOC000018941777",
    "tech": "FTTN",
    "upgrade": "FTTP_SA"
   }
  },
  {
   "type": "Feature",
   "geometry": {
    "type": "Point",
    "coordinates": [
     153.54189834,
     -28.51944311
    ]
   },
   "properties": {
    "name": "12 BULGOON CRESCENT OCEAN SHORES 2483",
    "locID": "LOC000022180087",
    "tech": "FTTC",
    "upgrade": "FTTP_SA"
   }
  },
  {
   "type": "Feature",
   "geometry": {
    "type": "Point",
    "coordinates": [
     153.54685378,
     -28.52027278
    ]
   },
   "properties": {
    "name": "12 BURRA BURRA CLOSE OCEAN SHORES 2483",
    "locID": "LOC000018045551",
    "tech": "FTTC",
    "upgrade": "FTTP_SA"
   }
  },
  {
   "type": "Feature",
   "geometry": {
    "type": "Point",
    "coordinates": [
     153.53865423,
     -28.52231886
    ]
   },
   "properties": {
    "name": "12 COOMBURRA CRESCENT OCEAN SHORES 2483",
    "locID": "LOC000093486125",
    "tech": "FTTN",
    "upgrade": "FTTP_SA"
   }
  },
  {
   "type": "Feature",
   "geometry": {
    "type": "Point",
    "coordinates": [
     153.53271803,
     -28.51538861
    ]
   },
   "properties": {
    "name": "12 COONAWARRA COURT OCEAN SHORES 2483",
    "locID": "LOC000032963715",
    "tech": "FTTN",
    "upgrade": "FTTP_SA"
   }
  },
  {
   "type": "Feature",
   "geometry": {
    "type": "Point",
    "coordinates": [
     153.53850369,
     -28.5202736
    ]
   },
   "properties": {
    "name": "12 DANDALOO WAY OCEAN SHORES 2483",
    "locID": "LOC000030464128",
    "tech": "FTTN",
    "upgrade": "FTTP_SA"
   }
  },
  {
   "type": "Feature",
   "geometry": {
    "type": "Point",
    "coordinates": [
     153.54363567,
     -28.49329335
    ]
   },
   "properties": {
    "name": "12 ELOURA COURT OCEAN SHORES 2483",
    "locID": "LOC000063077667",
    "tech": "FTTC",
    "upgrade": "FTTP_SA"
   }
  },
  {
   "type": "Feature",
   "geometry": {
    "type": "Point",
    "coordinates": [
     153.53670089,
     -28.49434069
    ]
   },
   "properties": {
    "name": "12 FLINDERS WAY OCEAN SHORES 2483",
    "locID": "LOC000049633562",
    "tech": "FTTC",
    "upgrade": "FTTP_SA"
   }
  },
  {
   "type": "Feature",
   "geometry": {
    "type": "Point",
    "coordinates": [
     153.53196197,
     -28.5042764
    ]
   },
   "properties": {
    "name": "12 GILBA AVENUE OCEAN SHORES 2483",
    "locID": "LOC000005511479",
    "tech": "FTTC",
    "upgrade": "FTTP_SA"
   }
  },
  {
   "type": "Feature",
   "geometry": {
    "type": "Point",
    "coordinates": [
     153.53561935,
     -28.5210038
    ]
   },
   "properties": {
    "name": "12 GLENDALE CRESCENT OCEAN SHORES 2483",
    "locID": "LOC000046692261",
    "tech": "FTTN",
    "upgrade": "FTTP_SA"
   }
  },
  {
   "type": "Feature",
   "geometry": {
    "type": "Point",
    "coordinates": [
     153.54042643,
     -28.52690642
    ]
   },
   "properties": {
    "name": "12 GOOLARA COURT OCEAN SHORES 2483",
    "locID": "LOC000102229502",
    "tech": "FTTN",
    "upgrade": "FTTP_SA"
   }
  },
  {
   "type": "Feature",
   "geometry": {
    "type": "Point",
    "coordinates": [
     153.54223909,
     -28.52224144
    ]
   },
   "properties": {
    "name": "12 GOONDOOLOO DRIVE OCEAN SHORES 2483",
    "locID": "LOC000099849144",
    "tech": "FTTC",
    "upgrade": "FTTP_SA"
   }
  },
  {
   "type": "Feature",
   "geometry": {
    "type": "Point",
    "coordinates": [
     153.54414047,
     -28.52489217
    ]
   },
   "properties": {
    "name": "12 JARRAH CRESCENT OCEAN SHORES 2483",
    "locID": "LOC000096123235",
    "tech": "FTTC",
    "upgrade": "FTTP_SA"
   }
  },
  {
   "type": "Feature",
   "geometry": {
    "type": "Point",
    "coordinates": [
     153.54571223,
     -28.49137379
    ]
   },
   "properties": {
    "name": "12 KALLAROO CIRCUIT OCEAN SHORES 2483",
    "locID": "ChIJyftPhA_1kGsR2qF27L801Qg",
    "tech": "FTTN",
    "upgrade": "UNKNOWN"
   }
  },
  {
   "type": "Feature",
   "geometry": {
    "type": "Point",
    "coordinates": [
     153.53561049,
     -28.51686553
    ]
   },
   "properties": {
    "name": "12 KIAH CLOSE OCEAN SHORES 2483",
    "locID": "LOC000002283134",
    "tech": "FTTN",
    "upgrade": "FTTP_SA"
   }
  },
  {
   "type": "Feature",
   "geometry": {
    "type": "Point",
    "coordinates": [
     153.53574115,
     -28.52231295
    ]
   },
   "properties": {
    "name": "12 KIYUNG COURT OCEAN SHORES 2483",
    "locID": "LOC000086069634",
    "tech": "FTTN",
    "upgrade": "FTTP_SA"
   }
  },
  {
   "type": "Feature",
   "geometry": {
    "type": "Point",
    "coordinates": [
     153.54077231,
     -28.49974993
    ]
   },
   "properties": {
    "name": "12 KOLORA WAY OCEAN SHORES 2483",
    "locID": "LOC000004033699",
    "tech": "FTTN",
    "upgrade": "FTTP_SA"
   }
  },
  {
   "type": "Feature",
   "geometry": {
    "type": "Point",
    "coordinates": [
     153.54418618,
     -28.49221504
    ]
   },
   "properties": {
    "name": "12 KONDA COURT OCEAN SHORES 2483",
    "locID": "LOC000001374710",
    "tech": "FTTC",
    "upgrade": "FTTP_SA"
   }
  },
  {
   "type": "Feature",
   "geometry": {
    "type": "Point",
    "coordinates": [
     153.54630172,
     -28.51719522
    ]
   },
   "properties": {
    "name": "12 LANGI PLACE OCEAN SHORES 2483",
    "locID": "LOC000033054418",
    "tech": "FTTC",
    "upgrade": "NULL_NA"
   }
  },
  {
   "type": "Feature",
   "geometry": {
    "type": "Point",
    "coordinates": [
     153.54241861,
     -28.500004
    ]
   },
   "properties": {
    "name": "12 LARELAR COURT OCEAN SHORES 2483",
    "locID": "LOC000021618541",
    "tech": "FTTN",
    "upgrade": "FTTP_SA"
   }
  },
  {
   "type": "Feature",
   "geometry": {
    "type": "Point",
    "coordinates": [
     153.53250891,
     -28.50447258
    ]
   },
   "properties": {
    "name": "12 MATONG DRIVE OCEAN SHORES 2483",
    "locID": "LOC000055351755",
    "tech": "FTTC",
    "upgrade": "FTTP_SA"
   }
  },
  {
   "type": "Feature",
   "geometry": {
    "type": "Point",
    "coordinates": [
     153.54238497,
     -28.52230502
    ]
   },
   "properties": {
    "name": "12 MERRI AVENUE OCEAN SHORES 2483",
    "locID": "LOC000007396309",
    "tech": "FTTC",
    "upgrade": "FTTP_SA"
   }
  },
  {
   "type": "Feature",
   "geometry": {
    "type": "Point",
    "coordinates": [
     153.54493185,
     -28.52777706
    ]
   },
   "properties": {
    "name": "12 MIRAM PLACE OCEAN SHORES 2483",
    "locID": "LOC000064153452",
    "tech": "FTTN",
    "upgrade": "FTTP_SA"
   }
  },
  {
   "type": "Feature",
   "geometry": {
    "type": "Point",
    "coordinates": [
     153.54897287,
     -28.49177852
    ]
   },
   "properties": {
    "name": "12 MULI MULI AVENUE OCEAN SHORES 2483",
    "locID": "LOC000090058999",
    "tech": "FTTN",
    "upgrade": "FTTP_SA"
   }
  },
  {
   "type": "Feature",
   "geometry": {
    "type": "Point",
    "coordinates": [
     153.53605699,
     -28.50735632
    ]
   },
   "properties": {
    "name": "12 MUNDURRA AVENUE OCEAN SHORES 2483",
    "locID": "LOC000096383231",
    "tech": "FTTN",
    "upgrade": "FTTP_SA"
   }
  },
  {
   "type": "Feature",
   "geometry": {
    "type": "Point",
    "coordinates": [
     153.5343042,
     -28.52254041
    ]
   },
   "properties": {
    "name": "12 MURUMBA CLOSE OCEAN SHORES 2483",
    "locID": "LOC000033916462",
    "tech": "FTTN",
    "upgrade": "FTTP_SA"
   }
  },
  {
   "type": "Feature",
   "geometry": {
    "type": "Point",
    "coordinates": [
     153.5348572,
     -28.50638178
    ]
   },
   "properties": {
    "name": "12 NANDROYA AVENUE OCEAN SHORES 2483",
    "locID": "LOC000052824182",
    "tech": "FTTN",
    "upgrade": "FTTP_SA"
   }
  },
  {
   "type": "Feature",
   "geometry": {
    "type": "Point",
    "coordinates": [
     153.54289757,
     -28.51876977
    ]
   },
   "properties": {
    "name": "12 NAROOMA DRIVE OCEAN SHORES 2483",
    "locID": "LOC000028881218",
    "tech": "FTTC",
    "upgrade": "FTTP_SA"
   }
  },
  {
   "type": "Feature",
   "geometry": {
    "type": "Point",
    "coordinates": [
     153.53673962,
     -28.52004067
    ]
   },
   "properties": {
    "name": "12 NARROGAL COURT OCEAN SHORES 2483",
    "locID": "LOC000082952390",
    "tech": "FTTN",
    "upgrade": "FTTP_SA"
   }
  },
  {
   "type": "Feature",
   "geometry": {
    "type": "Point",
    "coordinates": [
     153.54417598,
     -28.49767423
    ]
   },
   "properties": {
    "name": "12 NATAN COURT OCEAN SHORES 2483",
    "locID": "LOC000012203482",
    "tech": "FTTN",
    "upgrade": "FTTP_SA"
   }
  },
  {
   "type": "Feature",
   "geometry": {
    "type": "Point",
    "coordinates": [
     153.53055762,
     -28.52019232
    ]
   },
   "properties": {
    "name": "12 NELSHABY COURT OCEAN SHORES 2483",
    "locID": "LOC000035601515",
    "tech": "FTTP",
    "upgrade": "FTTN_CT"
   }
  },
  {
   "type": "Feature",
   "geometry": {
    "type": "Point",
    "coordinates": [
     153.5313535,
     -28.51519026
    ]
   },
   "properties": {
    "name": "12 ORANA ROAD OCEAN SHORES 2483",
    "locID": "LOC000169139235",
    "tech": "FTTN",
    "upgrade": "FTTP_SA"
   }
  },
  {
   "type": "Feature",
   "geometry": {
    "type": "Point",
    "coordinates": [
     153.5411852,
     -28.49438382
    ]
   },
   "properties": {
    "name": "12 PALMER AVENUE OCEAN SHORES 2483",
    "locID": "LOC000005622519",
    "tech": "FTTC",
    "upgrade": "FTTP_SA"
   }
  },
  {
   "type": "Feature",
   "geometry": {
    "type": "Point",
    "coordinates": [
     153.54069277,
     -28.49272089
    ]
   },
   "properties": {
    "name": "12 PLAYER PARADE OCEAN SHORES 2483",
    "locID": "LOC100071926872",
    "tech": "FTTC",
    "upgrade": "FTTP_SA"
   }
  },
  {
   "type": "Feature",
   "geometry": {
    "type": "Point",
    "coordinates": [
     153.54022551,
     -28.52840937
    ]
   },
   "properties": {
    "name": "12 RAJAH ROAD OCEAN SHORES 2483",
    "locID": "LOC000006007461",
    "tech": "FTTN",
    "upgrade": "FTTP_SA"
   }
  },
  {
   "type": "Feature",
   "geometry": {
    "type": "Point",
    "coordinates": [
     153.54809417,
     -28.49348631
    ]
   },
   "properties": {
    "name": "12 RANGAL ROAD OCEAN SHORES 2483",
    "locID": "LOC000044094825",
    "tech": "FTTN",
    "upgrade": "FTTP_SA"
   }
  },
  {
   "type": "Feature",
   "geometry": {
    "type": "Point",
    "coordinates": [
     153.53626369,
     -28.5114193
    ]
   },
   "properties": {
    "name": "12 TERRARA COURT OCEAN SHORES 2483",
    "locID": "LOC000057349788",
    "tech": "FTTN",
    "upgrade": "FTTP_SA"
   }
  },
  {
   "type": "Feature",
   "geometry": {
    "type": "Point",
    "coordinates": [
     153.53683426,
     -28.51933123
    ]
   },
   "properties": {
    "name": "12 TINDARA AVENUE OCEAN SHORES 2483",
    "locID": "LOC000062168871",
    "tech": "FTTN",
    "upgrade": "FTTP_SA"
   }
  },
  {
   "type": "Feature",
   "geometry": {
    "type": "Point",
    "coordinates": [
     153.53719333,
     -28.52402487
    ]
   },
   "properties": {
    "name": "12 TONGARRA DRIVE OCEAN SHORES 2483",
    "locID": "LOC000036435188",
    "tech": "FTTN",
    "upgrade": "FTTP_SA"
   }
  },
  {
   "type": "Feature",
   "geometry": {
    "type": "Point",
    "coordinates": [
     153.53309088,
     -28.52228728
    ]
   },
   "properties": {
    "name": "12 WALGOOAN WAY OCEAN SHORES 2483",
    "locID": "LOC000055809758",
    "tech": "FTTN",
    "upgrade": "FTTP_SA"
   }
  },
  {
   "type": "Feature",
   "geometry": {
    "type": "Point",
    "coordinates": [
     153.5402608,
     -28.52754315
    ]
   },
   "properties": {
    "name": "12 WARRAMBOOL ROAD OCEAN SHORES 2483",
    "locID": "LOC000005117813",
    "tech": "FTTN",
    "upgrade": "FTTP_SA"
   }
  },
  {
   "type": "Feature",
   "geometry": {
    "type": "Point",
    "coordinates": [
     153.54628158,
     -28.51504395
    ]
   },
   "properties": {
    "name": "12 WIRREE DRIVE OCEAN SHORES 2483",
    "locID": "LOC000082368131",
    "tech": "FTTC",
    "upgrade": "FTTP_SA"
   }
  },
  {
   "type": "Feature",
   "geometry": {
    "type": "Point",
    "coordinates": [
     153.54310355,
     -28.5237939
    ]
   },
   "properties": {
    "name": "12 WIRRUNA AVENUE OCEAN SHORES 2483",
    "locID": "LOC000091928283",
    "tech": "FTTC",
    "upgrade": "FTTP_SA"
   }
  },
  {
   "type": "Feature",
   "geometry": {
    "type": "Point",
    "coordinates": [
     153.53554304,
     -28.50824303
    ]
   },
   "properties": {
    "name": "12 WOGGOON TERRACE OCEAN SHORES 2483",
    "locID": "LOC000038177253",
    "tech": "FTTN",
    "upgrade": "FTTP_SA"
   }
  },
  {
   "type": "Feature",
   "geometry": {
    "type": "Point",
    "coordinates": [
     153.54464316,
     -28.52369448
    ]
   },
   "properties": {
    "name": "12 YALLA KOOL DRIVE OCEAN SHORES 2483",
    "locID": "LOC000121145246",
    "tech": "FTTC",
    "upgrade": "FTTP_SA"
   }
  },
  {
   "type": "Feature",
   "geometry": {
    "type": "Point",
    "coordinates": [
     153.5329097,
     -28.5179893
    ]
   },
   "properties": {
    "name": "12 YAMBLE DRIVE OCEAN SHORES 2483",
    "locID": "LOC000040883711",
    "tech": "FTTN",
    "upgrade": "FTTP_SA"
   }
  },
  {
   "type": "Feature",
   "geometry": {
    "type": "Point",
    "coordinates": [
     153.54552444,
     -28.5200013
    ]
   },
   "properties": {
    "name": "12 YENGARIE WAY OCEAN SHORES 2483",
    "locID": "LOC000022148036",
    "tech": "FTTC",
    "upgrade": "FTTP_SA"
   }
  },
  {
   "type": "Feature",
   "geometry": {
    "type": "Point",
    "coordinates": [
     153.53716108,
     -28.52256568
    ]
   },
   "properties": {
    "name": "12 YUNGARUP PLACE OCEAN SHORES 2483",
    "locID": "LOC000062908736",
    "tech": "FTTN",
    "upgrade": "FTTP_SA"
   }
  },
  {
   "type": "Feature",
   "geometry": {
    "type": "Point",
    "coordinates": [
     153.53563547,
     -28.50530096
    ]
   },
   "properties": {
    "name": "120 BALEMO DRIVE OCEAN SHORES 2483",
    "locID": "LOC000084405257",
    "tech": "FTTN",
    "upgrade": "FTTP_SA"
   }
  },
  {
   "type": "Feature",
   "geometry": {
    "type": "Point",
    "coordinates": [
     153.54299771,
     -28.52069735
    ]
   },
   "properties": {
    "name": "120 ORANA ROAD OCEAN SHORES 2483",
    "locID": "LOC000043172598",
    "tech": "FTTC",
    "upgrade": "FTTP_SA"
   }
  },
  {
   "type": "Feature",
   "geometry": {
    "type": "Point",
    "coordinates": [
     153.54057539,
     -28.49581884
    ]
   },
   "properties": {
    "name": "120 SHARA BOULEVARD OCEAN SHORES 2483",
    "locID": "LOC000121145267",
    "tech": "FTTC",
    "upgrade": "FTTP_SA"
   }
  },
  {
   "type": "Feature",
   "geometry": {
    "type": "Point",
    "coordinates": [
     153.54057539,
     -28.49581884
    ]
   },
   "properties": {
    "name": "120A SHARA BOULEVARD OCEAN SHORES 2483",
    "locID": "LOC000121145267",
    "tech": "FTTC",
    "upgrade": "FTTP_SA"
   }
  },
  {
   "type": "Feature",
   "geometry": {
    "type": "Point",
    "coordinates": [
     153.54057539,
     -28.49581884
    ]
   },
   "properties": {
    "name": "120B SHARA BOULEVARD OCEAN SHORES 2483",
    "locID": "LOC000121145279",
    "tech": "FTTC",
    "upgrade": "FTTP_SA"
   }
  },
  {
   "type": "Feature",
   "geometry": {
    "type": "Point",
    "coordinates": [
     153.53088208,
     -28.5035664
    ]
   },
   "properties": {
    "name": "121 BALEMO DRIVE OCEAN SHORES 2483",
    "locID": "LOC000110100510",
    "tech": "FTTC",
    "upgrade": "NULL_NA"
   }
  },
  {
   "type": "Feature",
   "geometry": {
    "type": "Point",
    "coordinates": [
     153.54620353,
     -28.51812365
    ]
   },
   "properties": {
    "name": "121 ORANA ROAD OCEAN SHORES 2483",
    "locID": "LOC000192315946",
    "tech": "FTTP",
    "upgrade": "NULL_NA"
   }
  },
  {
   "type": "Feature",
   "geometry": {
    "type": "Point",
    "coordinates": [
     153.54150272,
     -28.49579167
    ]
   },
   "properties": {
    "name": "121 SHARA BOULEVARD OCEAN SHORES 2483",
    "locID": "LOC000121147340",
    "tech": "FTTN",
    "upgrade": "FTTP_SA"
   }
  },
  {
   "type": "Feature",
   "geometry": {
    "type": "Point",
    "coordinates": [
     153.53538198,
     -28.5052701
    ]
   },
   "properties": {
    "name": "122 BALEMO DRIVE OCEAN SHORES 2483",
    "locID": "LOC000100912417",
    "tech": "FTTN",
    "upgrade": "FTTP_SA"
   }
  },
  {
   "type": "Feature",
   "geometry": {
    "type": "Point",
    "coordinates": [
     153.54356192,
     -28.52039008
    ]
   },
   "properties": {
    "name": "122 ORANA ROAD OCEAN SHORES 2483",
    "locID": "LOC000021350693",
    "tech": "FTTC",
    "upgrade": "FTTP_SA"
   }
  },
  {
   "type": "Feature",
   "geometry": {
    "type": "Point",
    "coordinates": [
     153.54071189,
     -28.4956505
    ]
   },
   "properties": {
    "name": "122 SHARA BOULEVARD OCEAN SHORES 2483",
    "locID": "LOC000121147364",
    "tech": "FTTP",
    "upgrade": "UNKNOWN"
   }
  },
  {
   "type": "Feature",
   "geometry": {
    "type": "Point",
    "coordinates": [
     153.53062373,
     -28.50366956
    ]
   },
   "properties": {
    "name": "123 BALEMO DRIVE OCEAN SHORES 2483",
    "locID": "LOC000097989601",
    "tech": "FTTC",
    "upgrade": "FTTP_SA"
   }
  },
  {
   "type": "Feature",
   "geometry": {
    "type": "Point",
    "coordinates": [
     153.54628674,
     -28.51791349
    ]
   },
   "properties": {
    "name": "123 ORANA ROAD OCEAN SHORES 2483",
    "locID": "LOC000016316452",
    "tech": "FTTC",
    "upgrade": "FTTP_SA"
   }
  },
  {
   "type": "Feature",
   "geometry": {
    "type": "Point",
    "coordinates": [
     153.53512814,
     -28.50523918
    ]
   },
   "properties": {
    "name": "124 BALEMO DRIVE OCEAN SHORES 2483",
    "locID": "LOC000064437778",
    "tech": "FTTN",
    "upgrade": "FTTP_SA"
   }
  },
  {
   "type": "Feature",
   "geometry": {
    "type": "Point",
    "coordinates": [
     153.54374298,
     -28.5202411
    ]
   },
   "properties": {
    "name": "124 ORANA ROAD OCEAN SHORES 2483",
    "locID": "LOC000095842043",
    "tech": "FTTC",
    "upgrade": "FTTP_SA"
   }
  },
  {
   "type": "Feature",
   "geometry": {
    "type": "Point",
    "coordinates": [
     153.54637312,
     -28.51769494
    ]
   },
   "properties": {
    "name": "125 ORANA ROAD OCEAN SHORES 2483",
    "locID": "LOC000081737790",
    "tech": "FTTC",
    "upgrade": "FTTP_SA"
   }
  },
  {
   "type": "Feature",
   "geometry": {
    "type": "Point",
    "coordinates": [
     153.54173032,
     -28.49547994
    ]
   },
   "properties": {
    "name": "125 SHARA BOULEVARD OCEAN SHORES 2483",
    "locID": "ChIJD3R7Bxv1kGsRhRazlYDO5J0",
    "tech": "FTTN",
    "upgrade": "UNKNOWN"
   }
  },
  {
   "type": "Feature",
   "geometry": {
    "type": "Point",
    "coordinates": [
     153.53486002,
     -28.50518367
    ]
   },
   "properties": {
    "name": "126 BALEMO DRIVE OCEAN SHORES 2483",
    "locID": "LOC000099658791",
    "tech": "FTTN",
    "upgrade": "FTTP_SA"
   }
  },
  {
   "type": "Feature",
   "geometry": {
    "type": "Point",
    "coordinates": [
     153.54391415,
     -28.52005423
    ]
   },
   "properties": {
    "name": "126 ORANA ROAD OCEAN SHORES 2483",
    "locID": "LOC000098819840",
    "tech": "FTTC",
    "upgrade": "FTTP_SA"
   }
  },
  {
   "type": "Feature",
   "geometry": {
    "type": "Point",
    "coordinates": [
     153.54117256,
     -28.49515848
    ]
   },
   "properties": {
    "name": "126 SHARA BOULEVARD OCEAN SHORES 2483",
    "locID": "LOC100056411519",
    "tech": "FTTC",
    "upgrade": "FTTP_SA"
   }
  },
  {
   "type": "Feature",
   "geometry": {
    "type": "Point",
    "coordinates": [
     153.51727823,
     -28.48496907
    ]
   },
   "properties": {
    "name": "126 TWEED VALLEY WAY OCEAN SHORES 2483",
    "locID": "LOC100078033589",
    "tech": "WIRELESS",
    "upgrade": "NULL_NA"
   }
  },
  {
   "type": "Feature",
   "geometry": {
    "type": "Point",
    "coordinates": [
     153.54117256,
     -28.49515848
    ]
   },
   "properties": {
    "name": "126A SHARA BOULEVARD OCEAN SHORES 2483",
    "locID": "LOC100056411519",
    "tech": "FTTC",
    "upgrade": "FTTP_SA"
   }
  },
  {
   "type": "Feature",
   "geometry": {
    "type": "Point",
    "coordinates": [
     153.54117256,
     -28.49515848
    ]
   },
   "properties": {
    "name": "126B SHARA BOULEVARD OCEAN SHORES 2483",
    "locID": "LOC100056411526",
    "tech": "FTTC",
    "upgrade": "FTTP_SA"
   }
  },
  {
   "type": "Feature",
   "geometry": {
    "type": "Point",
    "coordinates": [
     153.54646173,
     -28.51747073
    ]
   },
   "properties": {
    "name": "127 ORANA ROAD OCEAN SHORES 2483",
    "locID": "LOC000078923483",
    "tech": "FTTC",
    "upgrade": "FTTP_SA"
   }
  },
  {
   "type": "Feature",
   "geometry": {
    "type": "Point",
    "coordinates": [
     153.5346724,
     -28.50507363
    ]
   },
   "properties": {
    "name": "128 BALEMO DRIVE OCEAN SHORES 2483",
    "locID": "LOC000054703167",
    "tech": "FTTN",
    "upgrade": "FTTP_SA"
   }
  },
  {
   "type": "Feature",
   "geometry": {
    "type": "Point",
    "coordinates": [
     153.54411638,
     -28.5199642
    ]
   },
   "properties": {
    "name": "128 ORANA ROAD OCEAN SHORES 2483",
    "locID": "ChIJC5caCS71kGsRyblefuUSl_g",
    "tech": "FTTC",
    "upgrade": "UNKNOWN"
   }
  },
  {
   "type": "Feature",
   "geometry": {
    "type": "Point",
    "coordinates": [
     153.54127041,
     -28.49490526
    ]
   },
   "properties": {
    "name": "128 SHARA BOULEVARD OCEAN SHORES 2483",
    "locID": "LOC000121147454",
    "tech": "FTTC",
    "upgrade": "FTTP_SA"
   }
  },
  {
   "type": "Feature",
   "geometry": {
    "type": "Point",
    "coordinates": [
     153.53822454,
     -28.5181853
    ]
   },
   "properties": {
    "name": "129 ORANA ROAD OCEAN SHORES 2483",
    "locID": "ChIJQzQMRCn1kGsRtzIyX90VpCI",
    "tech": "FTTC",
    "upgrade": "UNKNOWN"
   }
  },
  {
   "type": "Feature",
   "geometry": {
    "type": "Point",
    "coordinates": [
     153.53430582,
     -28.50933066
    ]
   },
   "properties": {
    "name": "12A ALOOTA CRESCENT OCEAN SHORES 2483",
    "locID": "LOC000189612961",
    "tech": "FTTN",
    "upgrade": "FTTP_SA"
   }
  },
  {
   "type": "Feature",
   "geometry": {
    "type": "Point",
    "coordinates": [
     153.54571341,
     -28.49136636
    ]
   },
   "properties": {
    "name": "12A KALLAROO CIRCUIT OCEAN SHORES 2483",
    "locID": "ChIJyftPhA_1kGsR2qF27L801Qg",
    "tech": "FTTN",
    "upgrade": "UNKNOWN"
   }
  },
  {
   "type": "Feature",
   "geometry": {
    "type": "Point",
    "coordinates": [
     153.53996247,
     -28.52839288
    ]
   },
   "properties": {
    "name": "12A RAJAH ROAD OCEAN SHORES 2483",
    "locID": "LOC000005594914",
    "tech": "FTTN",
    "upgrade": "FTTP_SA"
   }
  },
  {
   "type": "Feature",
   "geometry": {
    "type": "Point",
    "coordinates": [
     153.53683426,
     -28.51933123
    ]
   },
   "properties": {
    "name": "12A TINDARA AVENUE OCEAN SHORES 2483",
    "locID": "ChIJaUUJ0Sv1kGsRom5FvEcJF6E",
    "tech": "FTTN",
    "upgrade": "UNKNOWN"
   }
  },
  {
   "type": "Feature",
   "geometry": {
    "type": "Point",
    "coordinates": [
     153.54022551,
     -28.52840937
    ]
   },
   "properties": {
    "name": "12B RAJAH ROAD OCEAN SHORES 2483",
    "locID": "ChIJcSCKkNOKkGsROa8tzM94umg",
    "tech": "FTTN",
    "upgrade": "UNKNOWN"
   }
  },
  {
   "type": "Feature",
   "geometry": {
    "type": "Point",
    "coordinates": [
     153.53683426,
     -28.51933123
    ]
   },
   "properties": {
    "name": "12B TINDARA AVENUE OCEAN SHORES 2483",
    "locID": "ChIJaUUJ0Sv1kGsR8n0RgEaeQyk",
    "tech": "FTTN",
    "upgrade": "UNKNOWN"
   }
  },
  {
   "type": "Feature",
   "geometry": {
    "type": "Point",
    "coordinates": [
     153.53362474,
     -28.50940582
    ]
   },
   "properties": {
    "name": "13 ALOOTA CRESCENT OCEAN SHORES 2483",
    "locID": "LOC000054789508",
    "tech": "FTTN",
    "upgrade": "FTTP_SA"
   }
  },
  {
   "type": "Feature",
   "geometry": {
    "type": "Point",
    "coordinates": [
     153.53088071,
     -28.51326159
    ]
   },
   "properties": {
    "name": "13 BALEMO DRIVE OCEAN SHORES 2483",
    "locID": "LOC000096701921",
    "tech": "FTTN",
    "upgrade": "FTTP_SA"
   }
  },
  {
   "type": "Feature",
   "geometry": {
    "type": "Point",
    "coordinates": [
     153.53793307,
     -28.49604968
    ]
   },
   "properties": {
    "name": "13 BANOOL CIRCUIT OCEAN SHORES 2483",
    "locID": "LOC000082431505",
    "tech": "FTTC",
    "upgrade": "FTTP_SA"
   }
  },
  {
   "type": "Feature",
   "geometry": {
    "type": "Point",
    "coordinates": [
     153.54551096,
     -28.49172715
    ]
   },
   "properties": {
    "name": "13 BARKALA COURT OCEAN SHORES 2483",
    "locID": "LOC000052717299",
    "tech": "FTTN",
    "upgrade": "FTTP_SA"
   }
  },
  {
   "type": "Feature",
   "geometry": {
    "type": "Point",
    "coordinates": [
     153.5463664,
     -28.49325595
    ]
   },
   "properties": {
    "name": "13 BERRIMBILLAH COURT OCEAN SHORES 2483",
    "locID": "LOC000071622201",
    "tech": "FTTN",
    "upgrade": "FTTP_SA"
   }
  },
  {
   "type": "Feature",
   "geometry": {
    "type": "Point",
    "coordinates": [
     153.53189812,
     -28.52079355
    ]
   },
   "properties": {
    "name": "13 BINYA PLACE OCEAN SHORES 2483",
    "locID": "LOC000071430378",
    "tech": "FTTN",
    "upgrade": "FTTP_SA"
   }
  },
  {
   "type": "Feature",
   "geometry": {
    "type": "Point",
    "coordinates": [
     153.54497116,
     -28.52889661
    ]
   },
   "properties": {
    "name": "13 BOONDOON CRESCENT OCEAN SHORES 2483",
    "locID": "LOC000121149520",
    "tech": "FTTN",
    "upgrade": "FTTP_SA"
   }
  },
  {
   "type": "Feature",
   "geometry": {
    "type": "Point",
    "coordinates": [
     153.54122744,
     -28.52004402
    ]
   },
   "properties": {
    "name": "13 BULGOON CRESCENT OCEAN SHORES 2483",
    "locID": "LOC000103046671",
    "tech": "FTTC",
    "upgrade": "FTTP_SA"
   }
  },
  {
   "type": "Feature",
   "geometry": {
    "type": "Point",
    "coordinates": [
     153.53749377,
     -28.52182987
    ]
   },
   "properties": {
    "name": "13 COOMBURRA CRESCENT OCEAN SHORES 2483",
    "locID": "LOC000030477387",
    "tech": "FTTN",
    "upgrade": "FTTP_SA"
   }
  },
  {
   "type": "Feature",
   "geometry": {
    "type": "Point",
    "coordinates": [
     153.54391082,
     -28.49375089
    ]
   },
   "properties": {
    "name": "13 ELOURA COURT OCEAN SHORES 2483",
    "locID": "LOC000046587693",
    "tech": "FTTC",
    "upgrade": "FTTP_SA"
   }
  },
  {
   "type": "Feature",
   "geometry": {
    "type": "Point",
    "coordinates": [
     153.53151742,
     -28.50491485
    ]
   },
   "properties": {
    "name": "13 GILBA AVENUE OCEAN SHORES 2483",
    "locID": "LOC000041971648",
    "tech": "FTTC",
    "upgrade": "FTTP_SA"
   }
  },
  {
   "type": "Feature",
   "geometry": {
    "type": "Point",
    "coordinates": [
     153.53183005,
     -28.51878108
    ]
   },
   "properties": {
    "name": "13 GIN GIN CRESCENT OCEAN SHORES 2483",
    "locID": "ChIJpYEYwtX0kGsRFt0IOvFKm9o",
    "tech": "FTTN",
    "upgrade": "UNKNOWN"
   }
  },
  {
   "type": "Feature",
   "geometry": {
    "type": "Point",
    "coordinates": [
     153.54030355,
     -28.52665646
    ]
   },
   "properties": {
    "name": "13 GOOLARA COURT OCEAN SHORES 2483",
    "locID": "LOC000055570847",
    "tech": "FTTN",
    "upgrade": "FTTP_SA"
   }
  },
  {
   "type": "Feature",
   "geometry": {
    "type": "Point",
    "coordinates": [
     153.54206251,
     -28.52275508
    ]
   },
   "properties": {
    "name": "13 GOONDOOLOO DRIVE OCEAN SHORES 2483",
    "locID": "LOC000092111848",
    "tech": "FTTN",
    "upgrade": "FTTP_SA"
   }
  },
  {
   "type": "Feature",
   "geometry": {
    "type": "Point",
    "coordinates": [
     153.54266389,
     -28.52656064
    ]
   },
   "properties": {
    "name": "13 INDERWONG AVENUE OCEAN SHORES 2483",
    "locID": "LOC000181202329",
    "tech": "FTTN",
    "upgrade": "FTTP_SA"
   }
  },
  {
   "type": "Feature",
   "geometry": {
    "type": "Point",
    "coordinates": [
     153.53352985,
     -28.50435477
    ]
   },
   "properties": {
    "name": "13 JARDINE COURT OCEAN SHORES 2483",
    "locID": "LOC000063916053",
    "tech": "FTTC",
    "upgrade": "NULL_NA"
   }
  },
  {
   "type": "Feature",
   "geometry": {
    "type": "Point",
    "coordinates": [
     153.54324117,
     -28.5253197
    ]
   },
   "properties": {
    "name": "13 JARRAH CRESCENT OCEAN SHORES 2483",
    "locID": "LOC000034847502",
    "tech": "FTTC",
    "upgrade": "FTTP_SA"
   }
  },
  {
   "type": "Feature",
   "geometry": {
    "type": "Point",
    "coordinates": [
     153.54627261,
     -28.49070454
    ]
   },
   "properties": {
    "name": "13 KALLAROO CIRCUIT OCEAN SHORES 2483",
    "locID": "LOC000003103499",
    "tech": "FTTN",
    "upgrade": "FTTP_SA"
   }
  },
  {
   "type": "Feature",
   "geometry": {
    "type": "Point",
    "coordinates": [
     153.53472707,
     -28.51723346
    ]
   },
   "properties": {
    "name": "13 KIAH CLOSE OCEAN SHORES 2483",
    "locID": "LOC000056091630",
    "tech": "FTTN",
    "upgrade": "FTTP_SA"
   }
  },
  {
   "type": "Feature",
   "geometry": {
    "type": "Point",
    "coordinates": [
     153.536356,
     -28.52279223
    ]
   },
   "properties": {
    "name": "13 KIYUNG COURT OCEAN SHORES 2483",
    "locID": "LOC000008839437",
    "tech": "FTTN",
    "upgrade": "FTTP_SA"
   }
  },
  {
   "type": "Feature",
   "geometry": {
    "type": "Point",
    "coordinates": [
     153.54139713,
     -28.49925995
    ]
   },
   "properties": {
    "name": "13 KOLORA WAY OCEAN SHORES 2483",
    "locID": "LOC000169136246",
    "tech": "FTTN",
    "upgrade": "FTTP_SA"
   }
  },
  {
   "type": "Feature",
   "geometry": {
    "type": "Point",
    "coordinates": [
     153.54358213,
     -28.49184154
    ]
   },
   "properties": {
    "name": "13 KONDA COURT OCEAN SHORES 2483",
    "locID": "ChIJ74LXPwX1kGsRRJ50Blqxsp4",
    "tech": "FTTC",
    "upgrade": "UNKNOWN"
   }
  },
  {
   "type": "Feature",
   "geometry": {
    "type": "Point",
    "coordinates": [
     153.54630172,
     -28.51719522
    ]
   },
   "properties": {
    "name": "13 LANGI PLACE OCEAN SHORES 2483",
    "locID": "LOC000032971364",
    "tech": "FTTC",
    "upgrade": "NULL_NA"
   }
  },
  {
   "type": "Feature",
   "geometry": {
    "type": "Point",
    "coordinates": [
     153.54115681,
     -28.50099898
    ]
   },
   "properties": {
    "name": "13 LARELAR COURT OCEAN SHORES 2483",
    "locID": "LOC000074961563",
    "tech": "FTTN",
    "upgrade": "FTTP_SA"
   }
  },
  {
   "type": "Feature",
   "geometry": {
    "type": "Point",
    "coordinates": [
     153.53313851,
     -28.50468809
    ]
   },
   "properties": {
    "name": "13 MATONG DRIVE OCEAN SHORES 2483",
    "locID": "LOC000109145843",
    "tech": "FTTC",
    "upgrade": "FTTP_SA"
   }
  },
  {
   "type": "Feature",
   "geometry": {
    "type": "Point",
    "coordinates": [
     153.54776737,
     -28.49045533
    ]
   },
   "properties": {
    "name": "13 MIA COURT OCEAN SHORES 2483",
    "locID": "LOC000066600350",
    "tech": "FTTN",
    "upgrade": "FTTP_SA"
   }
  },
  {
   "type": "Feature",
   "geometry": {
    "type": "Point",
    "coordinates": [
     153.54503357,
     -28.52797571
    ]
   },
   "properties": {
    "name": "13 MIRAM PLACE OCEAN SHORES 2483",
    "locID": "ChIJt-IrndKKkGsRgm8Rp0lbJuQ",
    "tech": "FTTN",
    "upgrade": "UNKNOWN"
   }
  },
  {
   "type": "Feature",
   "geometry": {
    "type": "Point",
    "coordinates": [
     153.5254793,
     -28.51737374
    ]
   },
   "properties": {
    "name": "13 MOUNTAIN VIEW ROAD OCEAN SHORES 2483",
    "locID": "LOC000017296671",
    "tech": "WIRELESS",
    "upgrade": "NULL_NA"
   }
  },
  {
   "type": "Feature",
   "geometry": {
    "type": "Point",
    "coordinates": [
     153.54944607,
     -28.49160428
    ]
   },
   "properties": {
    "name": "13 MULI MULI AVENUE OCEAN SHORES 2483",
    "locID": "LOC000006531688",
    "tech": "FTTN",
    "upgrade": "FTTP_SA"
   }
  },
  {
   "type": "Feature",
   "geometry": {
    "type": "Point",
    "coordinates": [
     153.53518351,
     -28.50771832
    ]
   },
   "properties": {
    "name": "13 MUNDURRA AVENUE OCEAN SHORES 2483",
    "locID": "LOC000091659561",
    "tech": "FTTN",
    "upgrade": "FTTP_SA"
   }
  },
  {
   "type": "Feature",
   "geometry": {
    "type": "Point",
    "coordinates": [
     153.53507304,
     -28.52284276
    ]
   },
   "properties": {
    "name": "13 MURUMBA CLOSE OCEAN SHORES 2483",
    "locID": "LOC000013296798",
    "tech": "FTTN",
    "upgrade": "FTTP_SA"
   }
  },
  {
   "type": "Feature",
   "geometry": {
    "type": "Point",
    "coordinates": [
     153.53239169,
     -28.52135088
    ]
   },
   "properties": {
    "name": "13 NAMOI GLEN OCEAN SHORES 2483",
    "locID": "LOC000034528389",
    "tech": "FTTN",
    "upgrade": "FTTP_SA"
   }
  },
  {
   "type": "Feature",
   "geometry": {
    "type": "Point",
    "coordinates": [
     153.53486521,
     -28.5069221
    ]
   },
   "properties": {
    "name": "13 NANDROYA AVENUE OCEAN SHORES 2483",
    "locID": "LOC000030124150",
    "tech": "FTTN",
    "upgrade": "FTTP_SA"
   }
  },
  {
   "type": "Feature",
   "geometry": {
    "type": "Point",
    "coordinates": [
     153.53251696,
     -28.51158267
    ]
   },
   "properties": {
    "name": "13 NARGOON COURT OCEAN SHORES 2483",
    "locID": "LOC000033064548",
    "tech": "FTTN",
    "upgrade": "FTTP_SA"
   }
  },
  {
   "type": "Feature",
   "geometry": {
    "type": "Point",
    "coordinates": [
     153.54227351,
     -28.51919777
    ]
   },
   "properties": {
    "name": "13 NAROOMA DRIVE OCEAN SHORES 2483",
    "locID": "LOC000024805649",
    "tech": "FTTC",
    "upgrade": "FTTP_SA"
   }
  },
  {
   "type": "Feature",
   "geometry": {
    "type": "Point",
    "coordinates": [
     153.54447613,
     -28.49766085
    ]
   },
   "properties": {
    "name": "13 NATAN COURT OCEAN SHORES 2483",
    "locID": "LOC000099177235",
    "tech": "FTTN",
    "upgrade": "FTTP_SA"
   }
  },
  {
   "type": "Feature",
   "geometry": {
    "type": "Point",
    "coordinates": [
     153.53156821,
     -28.51473369
    ]
   },
   "properties": {
    "name": "13 ORANA ROAD OCEAN SHORES 2483",
    "locID": "LOC000007394491",
    "tech": "FTTN",
    "upgrade": "FTTP_SA"
   }
  },
  {
   "type": "Feature",
   "geometry": {
    "type": "Point",
    "coordinates": [
     153.54018331,
     -28.4944504
    ]
   },
   "properties": {
    "name": "13 PALMER AVENUE OCEAN SHORES 2483",
    "locID": "LOC000191038547",
    "tech": "FTTP",
    "upgrade": "NULL_NA"
   }
  },
  {
   "type": "Feature",
   "geometry": {
    "type": "Point",
    "coordinates": [
     153.53742338,
     -28.52604676
    ]
   },
   "properties": {
    "name": "13 PUTTA PLACE OCEAN SHORES 2483",
    "locID": "LOC000013700983",
    "tech": "FTTN",
    "upgrade": "FTTP_SA"
   }
  },
  {
   "type": "Feature",
   "geometry": {
    "type": "Point",
    "coordinates": [
     153.54069558,
     -28.52798723
    ]
   },
   "properties": {
    "name": "13 RAJAH ROAD OCEAN SHORES 2483",
    "locID": "LOC000019787315",
    "tech": "FTTN",
    "upgrade": "FTTP_SA"
   }
  },
  {
   "type": "Feature",
   "geometry": {
    "type": "Point",
    "coordinates": [
     153.54819251,
     -28.49271216
    ]
   },
   "properties": {
    "name": "13 RANGAL ROAD OCEAN SHORES 2483",
    "locID": "LOC000016323051",
    "tech": "FTTN",
    "upgrade": "FTTP_SA"
   }
  },
  {
   "type": "Feature",
   "geometry": {
    "type": "Point",
    "coordinates": [
     153.54371455,
     -28.51850943
    ]
   },
   "properties": {
    "name": "13 ROUNDHOUSE PLACE OCEAN SHORES 2483",
    "locID": "LOC000189978158",
    "tech": "FTTP",
    "upgrade": "NULL_NA"
   }
  },
  {
   "type": "Feature",
   "geometry": {
    "type": "Point",
    "coordinates": [
     153.53885714,
     -28.49760431
    ]
   },
   "properties": {
    "name": "13 SHARA BOULEVARD OCEAN SHORES 2483",
    "locID": "LOC000121147551",
    "tech": "FTTC",
    "upgrade": "FTTP_SA"
   }
  },
  {
   "type": "Feature",
   "geometry": {
    "type": "Point",
    "coordinates": [
     153.53678954,
     -28.51123393
    ]
   },
   "properties": {
    "name": "13 TERRARA COURT OCEAN SHORES 2483",
    "locID": "LOC000014733685",
    "tech": "FTTN",
    "upgrade": "FTTP_SA"
   }
  },
  {
   "type": "Feature",
   "geometry": {
    "type": "Point",
    "coordinates": [
     153.53576257,
     -28.52009741
    ]
   },
   "properties": {
    "name": "13 TINDARA AVENUE OCEAN SHORES 2483",
    "locID": "LOC000039985314",
    "tech": "FTTN",
    "upgrade": "FTTP_SA"
   }
  },
  {
   "type": "Feature",
   "geometry": {
    "type": "Point",
    "coordinates": [
     153.53527024,
     -28.52428422
    ]
   },
   "properties": {
    "name": "13 TONGARRA DRIVE OCEAN SHORES 2483",
    "locID": "ChIJU8ZWMdWKkGsR_7d3Sr68NcE",
    "tech": "FTTN",
    "upgrade": "UNKNOWN"
   }
  },
  {
   "type": "Feature",
   "geometry": {
    "type": "Point",
    "coordinates": [
     153.53392178,
     -28.52284971
    ]
   },
   "properties": {
    "name": "13 WALGOOAN WAY OCEAN SHORES 2483",
    "locID": "LOC000169138232",
    "tech": "FTTN",
    "upgrade": "FTTP_SA"
   }
  },
  {
   "type": "Feature",
   "geometry": {
    "type": "Point",
    "coordinates": [
     153.53926196,
     -28.52724769
    ]
   },
   "properties": {
    "name": "13 WARRAMBOOL ROAD OCEAN SHORES 2483",
    "locID": "LOC000055582287",
    "tech": "FTTN",
    "upgrade": "FTTP_SA"
   }
  },
  {
   "type": "Feature",
   "geometry": {
    "type": "Point",
    "coordinates": [
     153.53645384,
     -28.52595784
    ]
   },
   "properties": {
    "name": "13 WEERONGA WAY OCEAN SHORES 2483",
    "locID": "ChIJo1o_6dSKkGsR7jQH-xqQz-w",
    "tech": "FTTN",
    "upgrade": "UNKNOWN"
   }
  },
  {
   "type": "Feature",
   "geometry": {
    "type": "Point",
    "coordinates": [
     153.54568712,
     -28.51515823
    ]
   },
   "properties": {
    "name": "13 WIRREE DRIVE OCEAN SHORES 2483",
    "locID": "LOC000022135976",
    "tech": "FTTC",
    "upgrade": "FTTP_SA"
   }
  },
  {
   "type": "Feature",
   "geometry": {
    "type": "Point",
    "coordinates": [
     153.54261111,
     -28.52351
    ]
   },
   "properties": {
    "name": "13 WIRRUNA AVENUE OCEAN SHORES 2483",
    "locID": "LOC000083109330",
    "tech": "FTTC",
    "upgrade": "FTTP_SA"
   }
  },
  {
   "type": "Feature",
   "geometry": {
    "type": "Point",
    "coordinates": [
     153.53482754,
     -28.50808265
    ]
   },
   "properties": {
    "name": "13 WOGGOON TERRACE OCEAN SHORES 2483",
    "locID": "LOC000076803796",
    "tech": "FTTN",
    "upgrade": "FTTP_SA"
   }
  },
  {
   "type": "Feature",
   "geometry": {
    "type": "Point",
    "coordinates": [
     153.54428275,
     -28.52419075
    ]
   },
   "properties": {
    "name": "13 YALLA KOOL DRIVE OCEAN SHORES 2483",
    "locID": "LOC000121147483",
    "tech": "FTTC",
    "upgrade": "FTTP_SA"
   }
  },
  {
   "type": "Feature",
   "geometry": {
    "type": "Point",
    "coordinates": [
     153.53228364,
     -28.51819912
    ]
   },
   "properties": {
    "name": "13 YAMBLE DRIVE OCEAN SHORES 2483",
    "locID": "LOC000019288059",
    "tech": "FTTN",
    "upgrade": "FTTP_SA"
   }
  },
  {
   "type": "Feature",
   "geometry": {
    "type": "Point",
    "coordinates": [
     153.54478707,
     -28.52043448
    ]
   },
   "properties": {
    "name": "13 YENGARIE WAY OCEAN SHORES 2483",
    "locID": "LOC000102066072",
    "tech": "FTTC",
    "upgrade": "FTTP_SA"
   }
  },
  {
   "type": "Feature",
   "geometry": {
    "type": "Point",
    "coordinates": [
     153.53780579,
     -28.52279393
    ]
   },
   "properties": {
    "name": "13 YUNGARUP PLACE OCEAN SHORES 2483",
    "locID": "LOC000058431839",
    "tech": "FTTN",
    "upgrade": "FTTP_SA"
   }
  },
  {
   "type": "Feature",
   "geometry": {
    "type": "Point",
    "coordinates": [
     153.53455195,
     -28.5048516
    ]
   },
   "properties": {
    "name": "130 BALEMO DRIVE OCEAN SHORES 2483",
    "locID": "LOC000092454403",
    "tech": "FTTP",
    "upgrade": "UNKNOWN"
   }
  },
  {
   "type": "Feature",
   "geometry": {
    "type": "Point",
    "coordinates": [
     153.5443054,
     -28.51989764
    ]
   },
   "properties": {
    "name": "130 ORANA ROAD OCEAN SHORES 2483",
    "locID": "ChIJO6FSDy71kGsRkx3j7vC_vPc",
    "tech": "FTTC",
    "upgrade": "UNKNOWN"
   }
  },
  {
   "type": "Feature",
   "geometry": {
    "type": "Point",
    "coordinates": [
     153.54139701,
     -28.49475668
    ]
   },
   "properties": {
    "name": "130 SHARA BOULEVARD OCEAN SHORES 2483",
    "locID": "LOC000121147496",
    "tech": "FTTC",
    "upgrade": "FTTP_SA"
   }
  },
  {
   "type": "Feature",
   "geometry": {
    "type": "Point",
    "coordinates": [
     153.54674122,
     -28.5167968
    ]
   },
   "properties": {
    "name": "131 ORANA ROAD OCEAN SHORES 2483",
    "locID": "LOC000011251248",
    "tech": "FTTC",
    "upgrade": "FTTP_SA"
   }
  },
  {
   "type": "Feature",
   "geometry": {
    "type": "Point",
    "coordinates": [
     153.54218909,
     -28.49494678
    ]
   },
   "properties": {
    "name": "131 SHARA BOULEVARD OCEAN SHORES 2483",
    "locID": "LOC000121147505",
    "tech": "FTTN",
    "upgrade": "FTTP_SA"
   }
  },
  {
   "type": "Feature",
   "geometry": {
    "type": "Point",
    "coordinates": [
     153.53451503,
     -28.50462267
    ]
   },
   "properties": {
    "name": "132 BALEMO DRIVE OCEAN SHORES 2483",
    "locID": "LOC000110163236",
    "tech": "FTTN",
    "upgrade": "FTTP_SA"
   }
  },
  {
   "type": "Feature",
   "geometry": {
    "type": "Point",
    "coordinates": [
     153.54449366,
     -28.5198059
    ]
   },
   "properties": {
    "name": "132 ORANA ROAD OCEAN SHORES 2483",
    "locID": "LOC000021456256",
    "tech": "FTTC",
    "upgrade": "FTTP_SA"
   }
  },
  {
   "type": "Feature",
   "geometry": {
    "type": "Point",
    "coordinates": [
     153.54148833,
     -28.49459428
    ]
   },
   "properties": {
    "name": "132 SHARA BOULEVARD OCEAN SHORES 2483",
    "locID": "LOC000185878550",
    "tech": "FTTC",
    "upgrade": "NULL_NA"
   }
  },
  {
   "type": "Feature",
   "geometry": {
    "type": "Point",
    "coordinates": [
     153.54674243,
     -28.51657049
    ]
   },
   "properties": {
    "name": "133 ORANA ROAD OCEAN SHORES 2483",
    "locID": "LOC000033115687",
    "tech": "FTTC",
    "upgrade": "FTTP_SA"
   }
  },
  {
   "type": "Feature",
   "geometry": {
    "type": "Point",
    "coordinates": [
     153.54226106,
     -28.49478429
    ]
   },
   "properties": {
    "name": "133 SHARA BOULEVARD OCEAN SHORES 2483",
    "locID": "LOC000121147522",
    "tech": "FTTN",
    "upgrade": "FTTP_SA"
   }
  },
  {
   "type": "Feature",
   "geometry": {
    "type": "Point",
    "coordinates": [
     153.54674243,
     -28.51657049
    ]
   },
   "properties": {
    "name": "133A ORANA ROAD OCEAN SHORES 2483",
    "locID": "LOC000033077441",
    "tech": "FTTC",
    "upgrade": "FTTP_SA"
   }
  },
  {
   "type": "Feature",
   "geometry": {
    "type": "Point",
    "coordinates": [
     153.54674243,
     -28.51657049
    ]
   },
   "properties": {
    "name": "133B ORANA ROAD OCEAN SHORES 2483",
    "locID": "LOC000033115687",
    "tech": "FTTC",
    "upgrade": "FTTP_SA"
   }
  },
  {
   "type": "Feature",
   "geometry": {
    "type": "Point",
    "coordinates": [
     153.53446851,
     -28.50438168
    ]
   },
   "properties": {
    "name": "134 BALEMO DRIVE OCEAN SHORES 2483",
    "locID": "LOC000062701451",
    "tech": "FTTN",
    "upgrade": "FTTP_SA"
   }
  },
  {
   "type": "Feature",
   "geometry": {
    "type": "Point",
    "coordinates": [
     153.5416098,
     -28.49446016
    ]
   },
   "properties": {
    "name": "134 SHARA BOULEVARD OCEAN SHORES 2483",
    "locID": "LOC000121147533",
    "tech": "FTTC",
    "upgrade": "FTTP_SA"
   }
  },
  {
   "type": "Feature",
   "geometry": {
    "type": "Point",
    "coordinates": [
     153.54670644,
     -28.51636095
    ]
   },
   "properties": {
    "name": "135 ORANA ROAD OCEAN SHORES 2483",
    "locID": "LOC000051921691",
    "tech": "FTTC",
    "upgrade": "FTTP_SA"
   }
  },
  {
   "type": "Feature",
   "geometry": {
    "type": "Point",
    "coordinates": [
     153.542345,
     -28.49463151
    ]
   },
   "properties": {
    "name": "135 SHARA BOULEVARD OCEAN SHORES 2483",
    "locID": "LOC000121147546",
    "tech": "FTTN",
    "upgrade": "FTTP_SA"
   }
  },
  {
   "type": "Feature",
   "geometry": {
    "type": "Point",
    "coordinates": [
     153.53442021,
     -28.50412245
    ]
   },
   "properties": {
    "name": "136 BALEMO DRIVE OCEAN SHORES 2483",
    "locID": "LOC000045840873",
    "tech": "FTTN",
    "upgrade": "FTTP_SA"
   }
  },
  {
   "type": "Feature",
   "geometry": {
    "type": "Point",
    "coordinates": [
     153.54536331,
     -28.51951974
    ]
   },
   "properties": {
    "name": "136 ORANA ROAD OCEAN SHORES 2483",
    "locID": "LOC000088253797",
    "tech": "FTTC",
    "upgrade": "FTTP_SA"
   }
  },
  {
   "type": "Feature",
   "geometry": {
    "type": "Point",
    "coordinates": [
     153.54170512,
     -28.49430192
    ]
   },
   "properties": {
    "name": "136 SHARA BOULEVARD OCEAN SHORES 2483",
    "locID": "LOC000121147551",
    "tech": "FTTC",
    "upgrade": "FTTP_SA"
   }
  },
  {
   "type": "Feature",
   "geometry": {
    "type": "Point",
    "coordinates": [
     153.542425,
     -28.49446813
    ]
   },
   "properties": {
    "name": "137 SHARA BOULEVARD OCEAN SHORES 2483",
    "locID": "LOC000121147567",
    "tech": "FTTN",
    "upgrade": "FTTP_SA"
   }
  },
  {
   "type": "Feature",
   "geometry": {
    "type": "Point",
    "coordinates": [
     153.53447744,
     -28.5038901
    ]
   },
   "properties": {
    "name": "138 BALEMO DRIVE OCEAN SHORES 2483",
    "locID": "LOC000018792464",
    "tech": "FTTN",
    "upgrade": "FTTP_SA"
   }
  },
  {
   "type": "Feature",
   "geometry": {
    "type": "Point",
    "coordinates": [
     153.54558359,
     -28.51944312
    ]
   },
   "properties": {
    "name": "138 ORANA ROAD OCEAN SHORES 2483",
    "locID": "LOC000015092023",
    "tech": "FTTC",
    "upgrade": "FTTP_SA"
   }
  },
  {
   "type": "Feature",
   "geometry": {
    "type": "Point",
    "coordinates": [
     153.54179323,
     -28.49414494
    ]
   },
   "properties": {
    "name": "138 SHARA BOULEVARD OCEAN SHORES 2483",
    "locID": "LOC000121147579",
    "tech": "FTTC",
    "upgrade": "FTTP_SA"
   }
  },
  {
   "type": "Feature",
   "geometry": {
    "type": "Point",
    "coordinates": [
     153.54249777,
     -28.49430087
    ]
   },
   "properties": {
    "name": "139 SHARA BOULEVARD OCEAN SHORES 2483",
    "locID": "LOC000121147598",
    "tech": "FTTN",
    "upgrade": "FTTP_SA"
   }
  },
  {
   "type": "Feature",
   "geometry": {
    "type": "Point",
    "coordinates": [
     153.54497116,
     -28.52889661
    ]
   },
   "properties": {
    "name": "13A BOONDOON CRESCENT OCEAN SHORES 2483",
    "locID": "LOC000121149520",
    "tech": "FTTN",
    "upgrade": "FTTP_SA"
   }
  },
  {
   "type": "Feature",
   "geometry": {
    "type": "Point",
    "coordinates": [
     153.54206251,
     -28.52275508
    ]
   },
   "properties": {
    "name": "13A GOONDOOLOO DRIVE OCEAN SHORES 2483",
    "locID": "LOC000092480004",
    "tech": "FTTN",
    "upgrade": "FTTP_SA"
   }
  },
  {
   "type": "Feature",
   "geometry": {
    "type": "Point",
    "coordinates": [
     153.53633826,
     -28.52278338
    ]
   },
   "properties": {
    "name": "13A KIYUNG COURT OCEAN SHORES 2483",
    "locID": "ChIJU6MB4Cr1kGsRMZ_uQ5OQMck",
    "tech": "FTTN",
    "upgrade": "UNKNOWN"
   }
  },
  {
   "type": "Feature",
   "geometry": {
    "type": "Point",
    "coordinates": [
     153.54069558,
     -28.52798723
    ]
   },
   "properties": {
    "name": "13A RAJAH ROAD OCEAN SHORES 2483",
    "locID": "LOC000019894931",
    "tech": "FTTN",
    "upgrade": "FTTP_SA"
   }
  },
  {
   "type": "Feature",
   "geometry": {
    "type": "Point",
    "coordinates": [
     153.54371455,
     -28.51850943
    ]
   },
   "properties": {
    "name": "13A ROUNDHOUSE PLACE OCEAN SHORES 2483",
    "locID": "LOC000189978158",
    "tech": "FTTP",
    "upgrade": "NULL_NA"
   }
  },
  {
   "type": "Feature",
   "geometry": {
    "type": "Point",
    "coordinates": [
     153.53392178,
     -28.52284971
    ]
   },
   "properties": {
    "name": "13A WALGOOAN WAY OCEAN SHORES 2483",
    "locID": "LOC000169138250",
    "tech": "FTTN",
    "upgrade": "FTTP_SA"
   }
  },
  {
   "type": "Feature",
   "geometry": {
    "type": "Point",
    "coordinates": [
     153.54261111,
     -28.52351
    ]
   },
   "properties": {
    "name": "13A WIRRUNA AVENUE OCEAN SHORES 2483",
    "locID": "ChIJr16eHC31kGsRf0oRK4m-0wg",
    "tech": "FTTC",
    "upgrade": "UNKNOWN"
   }
  },
  {
   "type": "Feature",
   "geometry": {
    "type": "Point",
    "coordinates": [
     153.54497116,
     -28.52889661
    ]
   },
   "properties": {
    "name": "13B BOONDOON CRESCENT OCEAN SHORES 2483",
    "locID": "LOC000121149531",
    "tech": "FTTN",
    "upgrade": "FTTP_SA"
   }
  },
  {
   "type": "Feature",
   "geometry": {
    "type": "Point",
    "coordinates": [
     153.54139713,
     -28.49925995
    ]
   },
   "properties": {
    "name": "13B KOLORA WAY OCEAN SHORES 2483",
    "locID": "ChIJgV6VbRn1kGsR3O8ASv-RUg0",
    "tech": "FTTN",
    "upgrade": "UNKNOWN"
   }
  },
  {
   "type": "Feature",
   "geometry": {
    "type": "Point",
    "coordinates": [
     153.53392178,
     -28.52284971
    ]
   },
   "properties": {
    "name": "13B WALGOOAN WAY OCEAN SHORES 2483",
    "locID": "LOC000169138232",
    "tech": "FTTN",
    "upgrade": "FTTP_SA"
   }
  },
  {
   "type": "Feature",
   "geometry": {
    "type": "Point",
    "coordinates": [
     153.53458376,
     -28.50940575
    ]
   },
   "properties": {
    "name": "14 ALOOTA CRESCENT OCEAN SHORES 2483",
    "locID": "LOC000048342147",
    "tech": "FTTN",
    "upgrade": "FTTP_SA"
   }
  },
  {
   "type": "Feature",
   "geometry": {
    "type": "Point",
    "coordinates": [
     153.5380302,
     -28.49667924
    ]
   },
   "properties": {
    "name": "14 BANOOL CIRCUIT OCEAN SHORES 2483",
    "locID": "LOC000064088607",
    "tech": "FTTC",
    "upgrade": "FTTP_SA"
   }
  },
  {
   "type": "Feature",
   "geometry": {
    "type": "Point",
    "coordinates": [
     153.54554072,
     -28.49221592
    ]
   },
   "properties": {
    "name": "14 BARKALA COURT OCEAN SHORES 2483",
    "locID": "LOC000080421273",
    "tech": "FTTN",
    "upgrade": "FTTP_SA"
   }
  },
  {
   "type": "Feature",
   "geometry": {
    "type": "Point",
    "coordinates": [
     153.5466417,
     -28.49369555
    ]
   },
   "properties": {
    "name": "14 BERRIMBILLAH COURT OCEAN SHORES 2483",
    "locID": "LOC000081375645",
    "tech": "FTTN",
    "upgrade": "FTTP_SA"
   }
  },
  {
   "type": "Feature",
   "geometry": {
    "type": "Point",
    "coordinates": [
     153.53165502,
     -28.52044068
    ]
   },
   "properties": {
    "name": "14 BINYA PLACE OCEAN SHORES 2483",
    "locID": "LOC000022290931",
    "tech": "FTTN",
    "upgrade": "FTTP_SA"
   }
  },
  {
   "type": "Feature",
   "geometry": {
    "type": "Point",
    "coordinates": [
     153.54395427,
     -28.52920749
    ]
   },
   "properties": {
    "name": "14 BOONDOON CRESCENT OCEAN SHORES 2483",
    "locID": "LOC000078070890",
    "tech": "FTTN",
    "upgrade": "FTTP_SA"
   }
  },
  {
   "type": "Feature",
   "geometry": {
    "type": "Point",
    "coordinates": [
     153.54197299,
     -28.51920175
    ]
   },
   "properties": {
    "name": "14 BULGOON CRESCENT OCEAN SHORES 2483",
    "locID": "LOC000022287668",
    "tech": "FTTC",
    "upgrade": "FTTP_SA"
   }
  },
  {
   "type": "Feature",
   "geometry": {
    "type": "Point",
    "coordinates": [
     153.53845169,
     -28.52219048
    ]
   },
   "properties": {
    "name": "14 COOMBURRA CRESCENT OCEAN SHORES 2483",
    "locID": "LOC000089619193",
    "tech": "FTTN",
    "upgrade": "FTTP_SA"
   }
  },
  {
   "type": "Feature",
   "geometry": {
    "type": "Point",
    "coordinates": [
     153.53855292,
     -28.52061022
    ]
   },
   "properties": {
    "name": "14 DANDALOO WAY OCEAN SHORES 2483",
    "locID": "LOC000034606055",
    "tech": "FTTN",
    "upgrade": "FTTP_SA"
   }
  },
  {
   "type": "Feature",
   "geometry": {
    "type": "Point",
    "coordinates": [
     153.54385859,
     -28.49323584
    ]
   },
   "properties": {
    "name": "14 ELOURA COURT OCEAN SHORES 2483",
    "locID": "LOC000006376346",
    "tech": "FTTC",
    "upgrade": "FTTP_SA"
   }
  },
  {
   "type": "Feature",
   "geometry": {
    "type": "Point",
    "coordinates": [
     153.53656723,
     -28.49417323
    ]
   },
   "properties": {
    "name": "14 FLINDERS WAY OCEAN SHORES 2483",
    "locID": "LOC000068394671",
    "tech": "FTTC",
    "upgrade": "FTTP_SA"
   }
  },
  {
   "type": "Feature",
   "geometry": {
    "type": "Point",
    "coordinates": [
     153.53179522,
     -28.50411076
    ]
   },
   "properties": {
    "name": "14 GILBA AVENUE OCEAN SHORES 2483",
    "locID": "LOC000043920457",
    "tech": "FTTC",
    "upgrade": "FTTP_SA"
   }
  },
  {
   "type": "Feature",
   "geometry": {
    "type": "Point",
    "coordinates": [
     153.53569003,
     -28.52085564
    ]
   },
   "properties": {
    "name": "14 GLENDALE CRESCENT OCEAN SHORES 2483",
    "locID": "LOC000083927618",
    "tech": "FTTN",
    "upgrade": "FTTP_SA"
   }
  },