{
 "type": "FeatureCollection",
 "generated": "2023-06-03T09:06:12.879163",
 "features": [
  {
   "type": "Feature",
   "geometry": {
    "type": "Point",
    "coordinates": [
     150.9176245,
     -33.6809526
    ]
   },
   "properties": {
    "name": "1 ABERDOUR AVENUE ROUSE HILL 2155",
    "locID": "LOC000169290426",
    "tech": "FTTP",
    "upgrade": "NULL_NA",
    "gnaf_pid": "GANSW710094276"
   }
  },
  {
   "type": "Feature",
   "geometry": {
    "type": "Point",
    "coordinates": [
     150.91815071,
     -33.68314005
    ]
   },
   "properties": {
    "name": "1 ADELPHI STREET ROUSE HILL 2155",
    "locID": "LOC000046990528",
    "tech": "FTTN",
    "upgrade": "FTTP_SA",
    "gnaf_pid": "GANSW705844526"
   }
  },
  {
   "type": "Feature",
   "geometry": {
    "type": "Point",
    "coordinates": [
     150.91768241,
     -33.68614628
    ]
   },
   "properties": {
    "name": "1 ADONIS AVENUE ROUSE HILL 2155",
    "locID": "LOC000182316934",
    "tech": "FTTP",
    "upgrade": "NULL_NA",
    "gnaf_pid": "GANSW720273085"
   }
  },
  {
   "type": "Feature",
   "geometry": {
    "type": "Point",
    "coordinates": [
     150.91932255,
     -33.6847507
    ]
   },
   "properties": {
    "name": "1 ADVENTURE PLACE ROUSE HILL 2155",
    "locID": "LOC000061063975",
    "tech": "FTTN",
    "upgrade": "FTTP_SA",
    "gnaf_pid": "GANSW716912622"
   }
  },
  {
   "type": "Feature",
   "geometry": {
    "type": "Point",
    "coordinates": [
     150.92390508,
     -33.68334213
    ]
   },
   "properties": {
    "name": "1 AUGUSTA COURT ROUSE HILL 2155",
    "locID": "LOC000056161931",
    "tech": "FTTP",
    "upgrade": "NULL_NA",
    "gnaf_pid": "GANSW705826817"
   }
  },
  {
   "type": "Feature",
   "geometry": {
    "type": "Point",
    "coordinates": [
     150.91296907,
     -33.68829972
    ]
   },
   "properties": {
    "name": "1 BARBOLA STREET ROUSE HILL 2155",
    "locID": "LOC000176680933",
    "tech": "FTTP",
    "upgrade": "NULL_NA",
    "gnaf_pid": "GANSW720009314"
   }
  },
  {
   "type": "Feature",
   "geometry": {
    "type": "Point",
    "coordinates": [
     150.91521693,
     -33.67670097
    ]
   },
   "properties": {
    "name": "1 BARDSLEY CIRCUIT ROUSE HILL 2155",
    "locID": "LOC000051441493",
    "tech": "FTTN",
    "upgrade": "FTTP_SA",
    "gnaf_pid": "GANSW711156356"
   }
  },
  {
   "type": "Feature",
   "geometry": {
    "type": "Point",
    "coordinates": [
     150.9178679,
     -33.67884807
    ]
   },
   "properties": {
    "name": "1 BARNES PLACE ROUSE HILL 2155",
    "locID": "LOC000051874241",
    "tech": "FTTN",
    "upgrade": "FTTP_SA",
    "gnaf_pid": "GANSW705847290"
   }
  },
  {
   "type": "Feature",
   "geometry": {
    "type": "Point",
    "coordinates": [
     150.92869765,
     -33.69219946
    ]
   },
   "properties": {
    "name": "1 BASCULE STREET ROUSE HILL 2155",
    "locID": "ChIJrfPFsqGfEmsRkciSauj9weU",
    "tech": "NULL",
    "upgrade": "UNKNOWN",
    "gnaf_pid": "GANSW718918147"
   }
  },
  {
   "type": "Feature",
   "geometry": {
    "type": "Point",
    "coordinates": [
     150.92875316,
     -33.69652064
    ]
   },
   "properties": {
    "name": "1 BELLCAST ROAD ROUSE HILL 2155",
    "locID": "LOC000075843877",
    "tech": "NULL",
    "upgrade": "NULL_NA",
    "gnaf_pid": "GANSW717650065"
   }
  },
  {
   "type": "Feature",
   "geometry": {
    "type": "Point",
    "coordinates": [
     150.92557117,
     -33.67540244
    ]
   },
   "properties": {
    "name": "1 BILYANA PLACE ROUSE HILL 2155",
    "locID": "LOC000035573704",
    "tech": "FTTN",
    "upgrade": "FTTP_SA",
    "gnaf_pid": "GANSW705857577"
   }
  },
  {
   "type": "Feature",
   "geometry": {
    "type": "Point",
    "coordinates": [
     150.92561013,
     -33.67951027
    ]
   },
   "properties": {
    "name": "1 BRUSHWOOD DRIVE ROUSE HILL 2155",
    "locID": "LOC000055430972",
    "tech": "FTTN",
    "upgrade": "FTTP_SA",
    "gnaf_pid": "GANSW705847339"
   }
  },
  {
   "type": "Feature",
   "geometry": {
    "type": "Point",
    "coordinates": [
     150.9278084,
     -33.69285487
    ]
   },
   "properties": {
    "name": "1 BUNDA STREET ROUSE HILL 2155",
    "locID": "ChIJ8b2DWKCfEmsRCN_1PRkp4K0",
    "tech": "NULL",
    "upgrade": "UNKNOWN",
    "gnaf_pid": "GANSW719020090"
   }
  },
  {
   "type": "Feature",
   "geometry": {
    "type": "Point",
    "coordinates": [
     150.91287934,
     -33.67361055
    ]
   },
   "properties": {
    "name": "1 CAPITAL PLACE ROUSE HILL 2155",
    "locID": "LOC000184706097",
    "tech": "FTTP",
    "upgrade": "NULL_NA",
    "gnaf_pid": "GANSW720085413"
   }
  },
  {
   "type": "Feature",
   "geometry": {
    "type": "Point",
    "coordinates": [
     150.92197743,
     -33.68411791
    ]
   },
   "properties": {
    "name": "1 CARNOUSTIE STREET ROUSE HILL 2155",
    "locID": "LOC000102207016",
    "tech": "FTTN",
    "upgrade": "FTTP_SA",
    "gnaf_pid": "GANSW711172773"
   }
  },
  {
   "type": "Feature",
   "geometry": {
    "type": "Point",
    "coordinates": [
     150.93233745,
     -33.67170235
    ]
   },
   "properties": {
    "name": "1 CHEVRON PLACE ROUSE HILL 2155",
    "locID": "LOC000090000297",
    "tech": "FTTN",
    "upgrade": "FTTP_SA",
    "gnaf_pid": "GANSW705816863"
   }
  },
  {
   "type": "Feature",
   "geometry": {
    "type": "Point",
    "coordinates": [
     150.92833515,
     -33.69401482
    ]
   },
   "properties": {
    "name": "1 CIVIC WAY ROUSE HILL 2155",
    "locID": "LOC000184820097",
    "tech": "FTTB",
    "upgrade": "NULL_NA",
    "gnaf_pid": "GANSW718920501"
   }
  },
  {
   "type": "Feature",
   "geometry": {
    "type": "Point",
    "coordinates": [
     150.88366642,
     -33.67656127
    ]
   },
   "properties": {
    "name": "1 CLARKE STREET ROUSE HILL 2155",
    "locID": "LOC000091609465",
    "tech": "FTTP",
    "upgrade": "NULL_NA",
    "gnaf_pid": "GANSW720625527"
   }
  },
  {
   "type": "Feature",
   "geometry": {
    "type": "Point",
    "coordinates": [
     150.91608356,
     -33.67978431
    ]
   },
   "properties": {
    "name": "1 CLAXTON CIRCUIT ROUSE HILL 2155",
    "locID": "LOC000090598677",
    "tech": "FTTN",
    "upgrade": "FTTP_SA",
    "gnaf_pid": "GANSW705827139"
   }
  },
  {
   "type": "Feature",
   "geometry": {
    "type": "Point",
    "coordinates": [
     150.92925459,
     -33.67426528
    ]
   },
   "properties": {
    "name": "1 CLEVELAND CLOSE ROUSE HILL 2155",
    "locID": "LOC000064324171",
    "tech": "FTTN",
    "upgrade": "FTTP_SA",
    "gnaf_pid": "GANSW705840612"
   }
  },
  {
   "type": "Feature",
   "geometry": {
    "type": "Point",
    "coordinates": [
     150.92115624,
     -33.68139974
    ]
   },
   "properties": {
    "name": "1 CLOWER AVENUE ROUSE HILL 2155",
    "locID": "LOC000008153379",
    "tech": "FTTN",
    "upgrade": "FTTP_SA",
    "gnaf_pid": "GANSW705850894"
   }
  },
  {
   "type": "Feature",
   "geometry": {
    "type": "Point",
    "coordinates": [
     150.92513969,
     -33.67831921
    ]
   },
   "properties": {
    "name": "1 CONNOR PLACE ROUSE HILL 2155",
    "locID": "LOC000107106412",
    "tech": "FTTN",
    "upgrade": "FTTP_SA",
    "gnaf_pid": "GANSW705820384"
   }
  },
  {
   "type": "Feature",
   "geometry": {
    "type": "Point",
    "coordinates": [
     150.93094923,
     -33.66774779
    ]
   },
   "properties": {
    "name": "1 CORNELL CLOSE ROUSE HILL 2155",
    "locID": "LOC000022235121",
    "tech": "FTTN",
    "upgrade": "FTTP_SA",
    "gnaf_pid": "GANSW705820400"
   }
  },
  {
   "type": "Feature",
   "geometry": {
    "type": "Point",
    "coordinates": [
     150.92809595,
     -33.67258881
    ]
   },
   "properties": {
    "name": "1 DALTON CLOSE ROUSE HILL 2155",
    "locID": "LOC000110147493",
    "tech": "FTTN",
    "upgrade": "FTTP_SA",
    "gnaf_pid": "GANSW705830706"
   }
  },
  {
   "type": "Feature",
   "geometry": {
    "type": "Point",
    "coordinates": [
     150.91549787,
     -33.68662525
    ]
   },
   "properties": {
    "name": "1 DEMETER STREET ROUSE HILL 2155",
    "locID": "LOC000177722612",
    "tech": "FTTP",
    "upgrade": "NULL_NA",
    "gnaf_pid": "GANSW720271855"
   }
  },
  {
   "type": "Feature",
   "geometry": {
    "type": "Point",
    "coordinates": [
     150.91288003,
     -33.68700261
    ]
   },
   "properties": {
    "name": "1 DORIAN STREET ROUSE HILL 2155",
    "locID": "LOC000184294781",
    "tech": "FTTP",
    "upgrade": "NULL_NA",
    "gnaf_pid": "GANSW720625914"
   }
  },
  {
   "type": "Feature",
   "geometry": {
    "type": "Point",
    "coordinates": [
     150.92827294,
     -33.67329338
    ]
   },
   "properties": {
    "name": "1 DUXTON COURT ROUSE HILL 2155",
    "locID": "LOC000032214866",
    "tech": "FTTN",
    "upgrade": "FTTP_SA",
    "gnaf_pid": "GANSW705854464"
   }
  },
  {
   "type": "Feature",
   "geometry": {
    "type": "Point",
    "coordinates": [
     150.93080044,
     -33.66916678
    ]
   },
   "properties": {
    "name": "1 EMPRESS AVENUE ROUSE HILL 2155",
    "locID": "LOC000014728572",
    "tech": "FTTN",
    "upgrade": "FTTP_SA",
    "gnaf_pid": "GANSW705844208"
   }
  },
  {
   "type": "Feature",
   "geometry": {
    "type": "Point",
    "coordinates": [
     150.91790891,
     -33.67509954
    ]
   },
   "properties": {
    "name": "1 FINGLETON CLOSE ROUSE HILL 2155",
    "locID": "LOC000009159077",
    "tech": "FTTN",
    "upgrade": "FTTP_SA",
    "gnaf_pid": "GANSW705854506"
   }
  },
  {
   "type": "Feature",
   "geometry": {
    "type": "Point",
    "coordinates": [
     150.92878079,
     -33.69519317
    ]
   },
   "properties": {
    "name": "1 FRESHWATER ROAD ROUSE HILL 2155",
    "locID": "LOC000003825875",
    "tech": "NULL",
    "upgrade": "NULL_NA",
    "gnaf_pid": "GANSW717651012"
   }
  },
  {
   "type": "Feature",
   "geometry": {
    "type": "Point",
    "coordinates": [
     150.93134277,
     -33.69225065
    ]
   },
   "properties": {
    "name": "1 GALARA STREET ROUSE HILL 2155",
    "locID": "LOC000152965605",
    "tech": "NULL",
    "upgrade": "NULL_NA",
    "gnaf_pid": "GANSW718504922"
   }
  },
  {
   "type": "Feature",
   "geometry": {
    "type": "Point",
    "coordinates": [
     150.92083137,
     -33.68340004
    ]
   },
   "properties": {
    "name": "1 GLEN ABBEY STREET ROUSE HILL 2155",
    "locID": "LOC000067830395",
    "tech": "FTTN",
    "upgrade": "FTTP_SA",
    "gnaf_pid": "GANSW715613660"
   }
  },
  {
   "type": "Feature",
   "geometry": {
    "type": "Point",
    "coordinates": [
     150.9303072,
     -33.6965067
    ]
   },
   "properties": {
    "name": "1 GRANDIFLORA STREET ROUSE HILL 2155",
    "locID": "LOC000080001224",
    "tech": "NULL",
    "upgrade": "NULL_NA",
    "gnaf_pid": "GANSW717671572"
   }
  },
  {
   "type": "Feature",
   "geometry": {
    "type": "Point",
    "coordinates": [
     150.90509122,
     -33.6873608
    ]
   },
   "properties": {
    "name": "1 GRASSLAND STREET ROUSE HILL 2155",
    "locID": "LOC000179565036",
    "tech": "FTTP",
    "upgrade": "NULL_NA",
    "gnaf_pid": "GANSW719879507"
   }
  },
  {
   "type": "Feature",
   "geometry": {
    "type": "Point",
    "coordinates": [
     150.92318224,
     -33.68418023
    ]
   },
   "properties": {
    "name": "1 GREENSBOROUGH AVENUE ROUSE HILL 2155",
    "locID": "LOC000077744687",
    "tech": "FTTP",
    "upgrade": "NULL_NA",
    "gnaf_pid": "GANSW716631818"
   }
  },
  {
   "type": "Feature",
   "geometry": {
    "type": "Point",
    "coordinates": [
     150.91710275,
     -33.67445353
    ]
   },
   "properties": {
    "name": "1 GROUT PLACE ROUSE HILL 2155",
    "locID": "LOC000002339470",
    "tech": "FTTN",
    "upgrade": "FTTP_SA",
    "gnaf_pid": "GANSW705834372"
   }
  },
  {
   "type": "Feature",
   "geometry": {
    "type": "Point",
    "coordinates": [
     150.91308443,
     -33.68759426
    ]
   },
   "properties": {
    "name": "1 GWEN STREET ROUSE HILL 2155",
    "locID": "LOC000174680752",
    "tech": "FTTP",
    "upgrade": "NULL_NA",
    "gnaf_pid": "GANSW719158726"
   }
  },
  {
   "type": "Feature",
   "geometry": {
    "type": "Point",
    "coordinates": [
     150.9239077,
     -33.66147939
    ]
   },
   "properties": {
    "name": "1 GYMEA CIRCUIT ROUSE HILL 2155",
    "locID": "LOC000188430603",
    "tech": "FTTP",
    "upgrade": "NULL_NA",
    "gnaf_pid": "GANSW720906083"
   }
  },
  {
   "type": "Feature",
   "geometry": {
    "type": "Point",
    "coordinates": [
     150.91576383,
     -33.68464019
    ]
   },
   "properties": {
    "name": "1 HERLINA CRESCENT ROUSE HILL 2155",
    "locID": "LOC000184057879",
    "tech": "FTTP",
    "upgrade": "NULL_NA",
    "gnaf_pid": "GANSW720601374"
   }
  },
  {
   "type": "Feature",
   "geometry": {
    "type": "Point",
    "coordinates": [
     150.93098286,
     -33.69639847
    ]
   },
   "properties": {
    "name": "1 HOLLY STREET ROUSE HILL 2155",
    "locID": "LOC000072687463",
    "tech": "NULL",
    "upgrade": "NULL_NA",
    "gnaf_pid": "GANSW717874654"
   }
  },
  {
   "type": "Feature",
   "geometry": {
    "type": "Point",
    "coordinates": [
     150.92880267,
     -33.67239572
    ]
   },
   "properties": {
    "name": "1 HOPKINS COURT ROUSE HILL 2155",
    "locID": "LOC000023734805",
    "tech": "FTTN",
    "upgrade": "FTTP_SA",
    "gnaf_pid": "GANSW705847320"
   }
  },
  {
   "type": "Feature",
   "geometry": {
    "type": "Point",
    "coordinates": [
     150.93128983,
     -33.67221857
    ]
   },
   "properties": {
    "name": "1 HYATT CLOSE ROUSE HILL 2155",
    "locID": "LOC000060187166",
    "tech": "FTTN",
    "upgrade": "FTTP_SA",
    "gnaf_pid": "GANSW715681210"
   }
  },
  {
   "type": "Feature",
   "geometry": {
    "type": "Point",
    "coordinates": [
     150.89441544,
     -33.68404381
    ]
   },
   "properties": {
    "name": "1 INDIA PARADE ROUSE HILL 2155",
    "locID": "LOC000187838693",
    "tech": "FTTP",
    "upgrade": "NULL_NA",
    "gnaf_pid": "GANSW720808039"
   }
  },
  {
   "type": "Feature",
   "geometry": {
    "type": "Point",
    "coordinates": [
     150.93252783,
     -33.68789676
    ]
   },
   "properties": {
    "name": "1 IRONBARK RIDGE ROAD ROUSE HILL 2155",
    "locID": "LOC000172288249",
    "tech": "FTTN",
    "upgrade": "NULL_NA",
    "gnaf_pid": "GANSW719363584"
   }
  },
  {
   "type": "Feature",
   "geometry": {
    "type": "Point",
    "coordinates": [
     150.92781121,
     -33.67582575
    ]
   },
   "properties": {
    "name": "1 KINDILEN CLOSE ROUSE HILL 2155",
    "locID": "LOC000089205994",
    "tech": "FTTN",
    "upgrade": "FTTP_SA",
    "gnaf_pid": "GANSW705826870"
   }
  },
  {
   "type": "Feature",
   "geometry": {
    "type": "Point",
    "coordinates": [
     150.91642141,
     -33.67539669
    ]
   },
   "properties": {
    "name": "1 MACKAY WAY ROUSE HILL 2155",
    "locID": "LOC000034846773",
    "tech": "FTTN",
    "upgrade": "FTTP_SA",
    "gnaf_pid": "GANSW711200505"
   }
  },
  {
   "type": "Feature",
   "geometry": {
    "type": "Point",
    "coordinates": [
     150.90000372,
     -33.68609325
    ]
   },
   "properties": {
    "name": "1 MACQUARIE ROAD ROUSE HILL 2155",
    "locID": "LOC100075733229",
    "tech": "NULL",
    "upgrade": "NULL_NA",
    "gnaf_pid": "GANSW717303678"
   }
  },
  {
   "type": "Feature",
   "geometry": {
    "type": "Point",
    "coordinates": [
     150.91737227,
     -33.67895594
    ]
   },
   "properties": {
    "name": "1 MCCABE PLACE ROUSE HILL 2155",
    "locID": "LOC000070455922",
    "tech": "FTTN",
    "upgrade": "FTTP_SA",
    "gnaf_pid": "GANSW705816849"
   }
  },
  {
   "type": "Feature",
   "geometry": {
    "type": "Point",
    "coordinates": [
     150.9263786,
     -33.67940718
    ]
   },
   "properties": {
    "name": "1 MILFORD DRIVE ROUSE HILL 2155",
    "locID": "LOC000076415069",
    "tech": "FTTN",
    "upgrade": "FTTP_SA",
    "gnaf_pid": "GANSW705816896"
   }
  },
  {
   "type": "Feature",
   "geometry": {
    "type": "Point",
    "coordinates": [
     150.92742277,
     -33.67843698
    ]
   },
   "properties": {
    "name": "1 MINDARIBBA AVENUE ROUSE HILL 2155",
    "locID": "LOC000029221359",
    "tech": "FTTN",
    "upgrade": "FTTP_SA",
    "gnaf_pid": "GANSW705820398"
   }
  },
  {
   "type": "Feature",
   "geometry": {
    "type": "Point",
    "coordinates": [
     150.92590094,
     -33.67743133
    ]
   },
   "properties": {
    "name": "1 MINSTREL PLACE ROUSE HILL 2155",
    "locID": "LOC000003955166",
    "tech": "FTTN",
    "upgrade": "FTTP_SA",
    "gnaf_pid": "GANSW705810155"
   }
  },
  {
   "type": "Feature",
   "geometry": {
    "type": "Point",
    "coordinates": [
     150.93124664,
     -33.67372215
    ]
   },
   "properties": {
    "name": "1 MONARCH CLOSE ROUSE HILL 2155",
    "locID": "LOC000092340499",
    "tech": "FTTN",
    "upgrade": "FTTP_SA",
    "gnaf_pid": "GANSW705830701"
   }
  },
  {
   "type": "Feature",
   "geometry": {
    "type": "Point",
    "coordinates": [
     150.92690087,
     -33.67113748
    ]
   },
   "properties": {
    "name": "1 MONEY CLOSE ROUSE HILL 2155",
    "locID": "LOC000190367219",
    "tech": "FTTP",
    "upgrade": "NULL_NA",
    "gnaf_pid": "GANSW718157269"
   }
  },
  {
   "type": "Feature",
   "geometry": {
    "type": "Point",
    "coordinates": [
     150.9325993,
     -33.66947947
    ]
   },
   "properties": {
    "name": "1 MORRISEY WAY ROUSE HILL 2155",
    "locID": "LOC000069384311",
    "tech": "FTTN",
    "upgrade": "FTTP_SA",
    "gnaf_pid": "GANSW705810194"
   }
  },
  {
   "type": "Feature",
   "geometry": {
    "type": "Point",
    "coordinates": [
     150.90416143,
     -33.68612587
    ]
   },
   "properties": {
    "name": "1 MULYAN STREET ROUSE HILL 2155",
    "locID": "ChIJKzJFjRGfEmsRK0rsyXFsLTw",
    "tech": "NULL",
    "upgrade": "UNKNOWN",
    "gnaf_pid": "GANSW720882144"
   }
  },
  {
   "type": "Feature",
   "geometry": {
    "type": "Point",
    "coordinates": [
     150.92112529,
     -33.67809463
    ]
   },
   "properties": {
    "name": "1 NEEDLEWOOD CLOSE ROUSE HILL 2155",
    "locID": "LOC000067389911",
    "tech": "FTTN",
    "upgrade": "FTTP_SA",
    "gnaf_pid": "GANSW711169685"
   }
  },
  {
   "type": "Feature",
   "geometry": {
    "type": "Point",
    "coordinates": [
     150.92739073,
     -33.67688203
    ]
   },
   "properties": {
    "name": "1 NUNKERE CRESCENT ROUSE HILL 2155",
    "locID": "LOC000086707042",
    "tech": "FTTN",
    "upgrade": "FTTP_SA",
    "gnaf_pid": "GANSW705854511"
   }
  },
  {
   "type": "Feature",
   "geometry": {
    "type": "Point",
    "coordinates": [
     150.91488143,
     -33.68034994
    ]
   },
   "properties": {
    "name": "1 O'REILLY WAY ROUSE HILL 2155",
    "locID": "LOC000023231788",
    "tech": "FTTN",
    "upgrade": "FTTP_SA",
    "gnaf_pid": "GANSW716930896"
   }
  },
  {
   "type": "Feature",
   "geometry": {
    "type": "Point",
    "coordinates": [
     150.92436571,
     -33.68339044
    ]
   },
   "properties": {
    "name": "1 OAKMONT WAY ROUSE HILL 2155",
    "locID": "LOC000043359028",
    "tech": "FTTP",
    "upgrade": "NULL_NA",
    "gnaf_pid": "GANSW705844268"
   }
  },
  {
   "type": "Feature",
   "geometry": {
    "type": "Point",
    "coordinates": [
     150.8955324,
     -33.68499415
    ]
   },
   "properties": {
    "name": "1 OPTIMA STREET ROUSE HILL 2155",
    "locID": "LOC000185566538",
    "tech": "FTTP",
    "upgrade": "NULL_NA",
    "gnaf_pid": "GANSW720688949"
   }
  },
  {
   "type": "Feature",
   "geometry": {
    "type": "Point",
    "coordinates": [
     150.92040065,
     -33.68099068
    ]
   },
   "properties": {
    "name": "1 PANMURE STREET ROUSE HILL 2155",
    "locID": "LOC000102497054",
    "tech": "FTTN",
    "upgrade": "FTTP_SA",
    "gnaf_pid": "GANSW705844273"
   }
  },
  {
   "type": "Feature",
   "geometry": {
    "type": "Point",
    "coordinates": [
     150.92726928,
     -33.68002257
    ]
   },
   "properties": {
    "name": "1 PATRIOT PLACE ROUSE HILL 2155",
    "locID": "LOC000120158065",
    "tech": "FTTN",
    "upgrade": "FTTP_SA",
    "gnaf_pid": "GANSW711164529"
   }
  },
  {
   "type": "Feature",
   "geometry": {
    "type": "Point",
    "coordinates": [
     150.92820596,
     -33.6956619
    ]
   },
   "properties": {
    "name": "1 PICKET PLACE ROUSE HILL 2155",
    "locID": "LOC000112231636",
    "tech": "NULL",
    "upgrade": "NULL_NA",
    "gnaf_pid": "GANSW719230778"
   }
  },
  {
   "type": "Feature",
   "geometry": {
    "type": "Point",
    "coordinates": [
     150.92319378,
     -33.68365166
    ]
   },
   "properties": {
    "name": "1 PINEHURST AVENUE ROUSE HILL 2155",
    "locID": "LOC000084279562",
    "tech": "FTTP",
    "upgrade": "NULL_NA",
    "gnaf_pid": "GANSW705807591"
   }
  },
  {
   "type": "Feature",
   "geometry": {
    "type": "Point",
    "coordinates": [
     150.9171349,
     -33.67471438
    ]
   },
   "properties": {
    "name": "1 PONSFORD AVENUE ROUSE HILL 2155",
    "locID": "LOC000080321962",
    "tech": "FTTN",
    "upgrade": "FTTP_SA",
    "gnaf_pid": "GANSW705824088"
   }
  },
  {
   "type": "Feature",
   "geometry": {
    "type": "Point",
    "coordinates": [
     150.92950696,
     -33.67038358
    ]
   },
   "properties": {
    "name": "1 REGIS GROVE ROUSE HILL 2155",
    "locID": "LOC000041111769",
    "tech": "FTTN",
    "upgrade": "FTTP_SA",
    "gnaf_pid": "GANSW705824166"
   }
  },
  {
   "type": "Feature",
   "geometry": {
    "type": "Point",
    "coordinates": [
     150.91802271,
     -33.68401983
    ]
   },
   "properties": {
    "name": "1 RESOLUTION PLACE ROUSE HILL 2155",
    "locID": "LOC000158007678",
    "tech": "FTTN",
    "upgrade": "NULL_NA",
    "gnaf_pid": "GANSW716933374"
   }
  },
  {
   "type": "Feature",
   "geometry": {
    "type": "Point",
    "coordinates": [
     150.89418644,
     -33.68572988
    ]
   },
   "properties": {
    "name": "1 REVIVER STREET ROUSE HILL 2155",
    "locID": "LOC000185566749",
    "tech": "FTTP",
    "upgrade": "NULL_NA",
    "gnaf_pid": "GANSW720782102"
   }
  },
  {
   "type": "Feature",
   "geometry": {
    "type": "Point",
    "coordinates": [
     150.91526469,
     -33.6847214
    ]
   },
   "properties": {
    "name": "1 ROUSE ROAD ROUSE HILL 2155",
    "locID": "LOC000184057247",
    "tech": "FTTP",
    "upgrade": "NULL_NA",
    "gnaf_pid": "GANSW716762544"
   }
  },
  {
   "type": "Feature",
   "geometry": {
    "type": "Point",
    "coordinates": [
     150.91849224,
     -33.68241066
    ]
   },
   "properties": {
    "name": "1 RYDER COURT ROUSE HILL 2155",
    "locID": "ChIJGXQb-6-fEmsRLLQuJMKOkik",
    "tech": "FTTN",
    "upgrade": "UNKNOWN",
    "gnaf_pid": "GANSW716901041"
   }
  },
  {
   "type": "Feature",
   "geometry": {
    "type": "Point",
    "coordinates": [
     150.92436556,
     -33.67882952
    ]
   },
   "properties": {
    "name": "1 SANDLEWOOD CLOSE ROUSE HILL 2155",
    "locID": "LOC000029544009",
    "tech": "FTTN",
    "upgrade": "FTTP_SA",
    "gnaf_pid": "GANSW705816610"
   }
  },
  {
   "type": "Feature",
   "geometry": {
    "type": "Point",
    "coordinates": [
     150.91936213,
     -33.6770305
    ]
   },
   "properties": {
    "name": "1 SCRIBBLYGUM CIRCUIT ROUSE HILL 2155",
    "locID": "LOC000060340165",
    "tech": "FTTN",
    "upgrade": "FTTP_SA",
    "gnaf_pid": "GANSW705826904"
   }
  },
  {
   "type": "Feature",
   "geometry": {
    "type": "Point",
    "coordinates": [
     150.92895629,
     -33.6710974
    ]
   },
   "properties": {
    "name": "1 SETON PLACE ROUSE HILL 2155",
    "locID": "LOC000089681197",
    "tech": "FTTN",
    "upgrade": "FTTP_SA",
    "gnaf_pid": "GANSW705847369"
   }
  },
  {
   "type": "Feature",
   "geometry": {
    "type": "Point",
    "coordinates": [
     150.91582487,
     -33.67704374
    ]
   },
   "properties": {
    "name": "1 SPOFFORTH AVENUE ROUSE HILL 2155",
    "locID": "ChIJpYmgJrGfEmsRHEkpMEQDkrE",
    "tech": "FTTN",
    "upgrade": "UNKNOWN",
    "gnaf_pid": "GANSW711174108"
   }
  },
  {
   "type": "Feature",
   "geometry": {
    "type": "Point",
    "coordinates": [
     150.91817203,
     -33.6736665
    ]
   },
   "properties": {
    "name": "1 SPOTTEDGUM PLACE ROUSE HILL 2155",
    "locID": "LOC000036125745",
    "tech": "FTTN",
    "upgrade": "FTTP_SA",
    "gnaf_pid": "GANSW711177965"
   }
  },
  {
   "type": "Feature",
   "geometry": {
    "type": "Point",
    "coordinates": [
     150.93044176,
     -33.67355285
    ]
   },
   "properties": {
    "name": "1 STANFORD CIRCUIT ROUSE HILL 2155",
    "locID": "LOC000090038591",
    "tech": "FTTN",
    "upgrade": "FTTP_SA",
    "gnaf_pid": "GANSW705850609"
   }
  },
  {
   "type": "Feature",
   "geometry": {
    "type": "Point",
    "coordinates": [
     150.89303191,
     -33.68291994
    ]
   },
   "properties": {
    "name": "1 STENLAND STREET ROUSE HILL 2155",
    "locID": "LOC000185366040",
    "tech": "FTTP",
    "upgrade": "NULL_NA",
    "gnaf_pid": "GANSW720809206"
   }
  },
  {
   "type": "Feature",
   "geometry": {
    "type": "Point",
    "coordinates": [
     150.88447992,
     -33.67684477
    ]
   },
   "properties": {
    "name": "1 STONEMAN STREET ROUSE HILL 2155",
    "locID": "LOC000190372998",
    "tech": "FTTP",
    "upgrade": "NULL_NA",
    "gnaf_pid": "GANSW721238358"
   }
  },
  {
   "type": "Feature",
   "geometry": {
    "type": "Point",
    "coordinates": [
     150.92069864,
     -33.68257064
    ]
   },
   "properties": {
    "name": "1 SUNNINGDALE PLACE ROUSE HILL 2155",
    "locID": "LOC000153279628",
    "tech": "FTTN",
    "upgrade": "FTTP_SA",
    "gnaf_pid": "GANSW710032553"
   }
  },
  {
   "type": "Feature",
   "geometry": {
    "type": "Point",
    "coordinates": [
     150.89442686,
     -33.68590003
    ]
   },
   "properties": {
    "name": "1 SYNTAX CRESCENT ROUSE HILL 2155",
    "locID": "LOC000185566909",
    "tech": "FTTP",
    "upgrade": "NULL_NA",
    "gnaf_pid": "GANSW720686626"
   }
  },
  {
   "type": "Feature",
   "geometry": {
    "type": "Point",
    "coordinates": [
     150.9241931,
     -33.69185661
    ]
   },
   "properties": {
    "name": "1 TEMPUS STREET ROUSE HILL 2155",
    "locID": "EilUZW1wdXMgU3QsIFJvdXNlIEhpbGwgTlNXIDIxNTUsIEF1c3RyYWxpYSIuKiwKFAoSCWnh3TGnnxJrEdB9QVI7agGDEhQKEgm5UKb6Wp4SaxGAyTIWaH0BBQ",
    "tech": "FTTN",
    "upgrade": "UNKNOWN",
    "gnaf_pid": "GANSW720431743"
   }
  },
  {
   "type": "Feature",
   "geometry": {
    "type": "Point",
    "coordinates": [
     150.91844126,
     -33.68068283
    ]
   },
   "properties": {
    "name": "1 THOMAS FRANCIS WAY ROUSE HILL 2155",
    "locID": "LOC000097972235",
    "tech": "FTTN",
    "upgrade": "FTTP_SA",
    "gnaf_pid": "GANSW705830410"
   }
  },
  {
   "type": "Feature",
   "geometry": {
    "type": "Point",
    "coordinates": [
     150.91864066,
     -33.68025783
    ]
   },
   "properties": {
    "name": "1 TRUMBLE PLACE ROUSE HILL 2155",
    "locID": "LOC000016698810",
    "tech": "FTTN",
    "upgrade": "FTTP_SA",
    "gnaf_pid": "GANSW705840694"
   }
  },
  {
   "type": "Feature",
   "geometry": {
    "type": "Point",
    "coordinates": [
     150.924491,
     -33.68201292
    ]
   },
   "properties": {
    "name": "1 TURNBERRY WAY ROUSE HILL 2155",
    "locID": "LOC000015596089",
    "tech": "FTTP",
    "upgrade": "NULL_NA",
    "gnaf_pid": "GANSW705840710"
   }
  },
  {
   "type": "Feature",
   "geometry": {
    "type": "Point",
    "coordinates": [
     150.89418081,
     -33.68722329
    ]
   },
   "properties": {
    "name": "1 UMA STREET ROUSE HILL 2155",
    "locID": "LOC000178603228",
    "tech": "FTTP",
    "upgrade": "NULL_NA",
    "gnaf_pid": "GANSW720079860"
   }
  },
  {
   "type": "Feature",
   "geometry": {
    "type": "Point",
    "coordinates": [
     150.92528907,
     -33.67966916
    ]
   },
   "properties": {
    "name": "1 WATERGUM CLOSE ROUSE HILL 2155",
    "locID": "LOC000089162707",
    "tech": "FTTN",
    "upgrade": "FTTP_SA",
    "gnaf_pid": "GANSW705810123"
   }
  },
  {
   "type": "Feature",
   "geometry": {
    "type": "Point",
    "coordinates": [
     150.9281455,
     -33.67419629
    ]
   },
   "properties": {
    "name": "1 WEEROONA PLACE ROUSE HILL 2155",
    "locID": "LOC000033157130",
    "tech": "FTTN",
    "upgrade": "FTTP_SA",
    "gnaf_pid": "GANSW705850998"
   }
  },
  {
   "type": "Feature",
   "geometry": {
    "type": "Point",
    "coordinates": [
     150.92432707,
     -33.6759888
    ]
   },
   "properties": {
    "name": "1 WICKLOW PLACE ROUSE HILL 2155",
    "locID": "LOC000033348669",
    "tech": "FTTN",
    "upgrade": "FTTP_SA",
    "gnaf_pid": "GANSW705854214"
   }
  },
  {
   "type": "Feature",
   "geometry": {
    "type": "Point",
    "coordinates": [
     150.89549631,
     -33.68331537
    ]
   },
   "properties": {
    "name": "10 ALLOWRIE STREET ROUSE HILL 2155",
    "locID": "LOC000183179617",
    "tech": "FTTP",
    "upgrade": "NULL_NA",
    "gnaf_pid": "GANSW720429862"
   }
  },
  {
   "type": "Feature",
   "geometry": {
    "type": "Point",
    "coordinates": [
     150.89594683,
     -33.68395259
    ]
   },
   "properties": {
    "name": "10 ANGOVE STREET ROUSE HILL 2155",
    "locID": "LOC000180286039",
    "tech": "FTTP",
    "upgrade": "NULL_NA",
    "gnaf_pid": "GANSW720321900"
   }
  },
  {
   "type": "Feature",
   "geometry": {
    "type": "Point",
    "coordinates": [
     150.92320405,
     -33.68291693
    ]
   },
   "properties": {
    "name": "10 AUGUSTA COURT ROUSE HILL 2155",
    "locID": "LOC000066366253",
    "tech": "FTTP",
    "upgrade": "NULL_NA",
    "gnaf_pid": "GANSW705826818"
   }
  },
  {
   "type": "Feature",
   "geometry": {
    "type": "Point",
    "coordinates": [
     150.93185648,
     -33.69351136
    ]
   },
   "properties": {
    "name": "10 BADU STREET ROUSE HILL 2155",
    "locID": "LOC000113987049",
    "tech": "NULL",
    "upgrade": "NULL_NA",
    "gnaf_pid": "GANSW718146258"
   }
  },
  {
   "type": "Feature",
   "geometry": {
    "type": "Point",
    "coordinates": [
     150.93094522,
     -33.6916783
    ]
   },
   "properties": {
    "name": "10 BARA WAY ROUSE HILL 2155",
    "locID": "LOC000152952063",
    "tech": "NULL",
    "upgrade": "NULL_NA",
    "gnaf_pid": "GANSW718502834"
   }
  },
  {
   "type": "Feature",
   "geometry": {
    "type": "Point",
    "coordinates": [
     150.91247323,
     -33.68800226
    ]
   },
   "properties": {
    "name": "10 BARBOLA STREET ROUSE HILL 2155",
    "locID": "LOC000174681058",
    "tech": "FTTP",
    "upgrade": "NULL_NA",
    "gnaf_pid": "GANSW719161054"
   }
  },
  {
   "type": "Feature",
   "geometry": {
    "type": "Point",
    "coordinates": [
     150.91458563,
     -33.67761639
    ]
   },
   "properties": {
    "name": "10 BARDSLEY CIRCUIT ROUSE HILL 2155",
    "locID": "LOC000108553570",
    "tech": "FTTN",
    "upgrade": "FTTP_SA",
    "gnaf_pid": "GANSW711156364"
   }
  },
  {
   "type": "Feature",
   "geometry": {
    "type": "Point",
    "coordinates": [
     150.9189513,
     -33.67882665
    ]
   },
   "properties": {
    "name": "10 BARNES PLACE ROUSE HILL 2155",
    "locID": "LOC000043660254",
    "tech": "FTTN",
    "upgrade": "FTTP_SA",
    "gnaf_pid": "GANSW705847291"
   }
  },
  {
   "type": "Feature",
   "geometry": {
    "type": "Point",
    "coordinates": [
     150.92818266,
     -33.69169328
    ]
   },
   "properties": {
    "name": "10 BASCULE STREET ROUSE HILL 2155",
    "locID": "ChIJJd43qaGfEmsRr-AEAciBGWI",
    "tech": "NULL",
    "upgrade": "UNKNOWN",
    "gnaf_pid": "GANSW718918137"
   }
  },
  {
   "type": "Feature",
   "geometry": {
    "type": "Point",
    "coordinates": [
     150.93046763,
     -33.6664754
    ]
   },
   "properties": {
    "name": "10 BERKELEY GROVE ROUSE HILL 2155",
    "locID": "LOC000045865986",
    "tech": "FTTN",
    "upgrade": "FTTP_SA",
    "gnaf_pid": "GANSW715672573"
   }
  },
  {
   "type": "Feature",
   "geometry": {
    "type": "Point",
    "coordinates": [
     150.9298712,
     -33.67927756
    ]
   },
   "properties": {
    "name": "10 BILLABONG PLACE ROUSE HILL 2155",
    "locID": "LOC000082375329",
    "tech": "FTTN",
    "upgrade": "FTTP_SA",
    "gnaf_pid": "GANSW705837042"
   }
  },
  {
   "type": "Feature",
   "geometry": {
    "type": "Point",
    "coordinates": [
     150.92580951,
     -33.67485315
    ]
   },
   "properties": {
    "name": "10 BILYANA PLACE ROUSE HILL 2155",
    "locID": "LOC000037111020",
    "tech": "FTTN",
    "upgrade": "FTTP_SA",
    "gnaf_pid": "GANSW705857578"
   }
  },
  {
   "type": "Feature",
   "geometry": {
    "type": "Point",
    "coordinates": [
     150.91236727,
     -33.68870226
    ]
   },
   "properties": {
    "name": "10 BOOLAVOGUE STREET ROUSE HILL 2155",
    "locID": "LOC000176681162",
    "tech": "FTTP",
    "upgrade": "NULL_NA",
    "gnaf_pid": "GANSW720003968"
   }
  },
  {
   "type": "Feature",
   "geometry": {
    "type": "Point",
    "coordinates": [
     150.92490879,
     -33.67937078
    ]
   },
   "properties": {
    "name": "10 BRUSHWOOD DRIVE ROUSE HILL 2155",
    "locID": "LOC000058168995",
    "tech": "FTTN",
    "upgrade": "FTTP_SA",
    "gnaf_pid": "GANSW705847340"
   }
  },
  {
   "type": "Feature",
   "geometry": {
    "type": "Point",
    "coordinates": [
     150.9313549,
     -33.69591415
    ]
   },
   "properties": {
    "name": "10 CADDIES BOULEVARD ROUSE HILL 2155",
    "locID": "LOC000023063870",
    "tech": "NULL",
    "upgrade": "NULL_NA",
    "gnaf_pid": "GANSW717945731"
   }
  },
  {
   "type": "Feature",
   "geometry": {
    "type": "Point",
    "coordinates": [
     150.92574553,
     -33.67804604
    ]
   },
   "properties": {
    "name": "10 CARMELITA CIRCUIT ROUSE HILL 2155",
    "locID": "LOC000076927657",
    "tech": "FTTN",
    "upgrade": "FTTP_SA",
    "gnaf_pid": "GANSW705806530"
   }
  },
  {
   "type": "Feature",
   "geometry": {
    "type": "Point",
    "coordinates": [
     150.921254,
     -33.68477491
    ]
   },
   "properties": {
    "name": "10 CARNOUSTIE STREET ROUSE HILL 2155",
    "locID": "LOC000111097648",
    "tech": "FTTN",
    "upgrade": "FTTP_SA",
    "gnaf_pid": "GANSW718096402"
   }
  },
  {
   "type": "Feature",
   "geometry": {
    "type": "Point",
    "coordinates": [
     150.88350384,
     -33.67464483
    ]
   },
   "properties": {
    "name": "10 CLARKE STREET ROUSE HILL 2155",
    "locID": "LOC000051558719",
    "tech": "FTTP",
    "upgrade": "NULL_NA",
    "gnaf_pid": "GANSW720613330"
   }
  },
  {
   "type": "Feature",
   "geometry": {
    "type": "Point",
    "coordinates": [
     150.91694183,
     -33.68031917
    ]
   },
   "properties": {
    "name": "10 CLAXTON CIRCUIT ROUSE HILL 2155",
    "locID": "LOC000097946174",
    "tech": "FTTN",
    "upgrade": "FTTP_SA",
    "gnaf_pid": "GANSW705827140"
   }
  },
  {
   "type": "Feature",
   "geometry": {
    "type": "Point",
    "coordinates": [
     150.93020513,
     -33.67443012
    ]
   },
   "properties": {
    "name": "10 CLEVELAND CLOSE ROUSE HILL 2155",
    "locID": "LOC000015546720",
    "tech": "FTTN",
    "upgrade": "FTTP_SA",
    "gnaf_pid": "GANSW705840613"
   }
  },
  {
   "type": "Feature",
   "geometry": {
    "type": "Point",
    "coordinates": [
     150.92022892,
     -33.68086495
    ]
   },
   "properties": {
    "name": "10 CLOWER AVENUE ROUSE HILL 2155",
    "locID": "LOC000065307602",
    "tech": "FTTN",
    "upgrade": "FTTP_SA",
    "gnaf_pid": "GANSW705850895"
   }
  },
  {
   "type": "Feature",
   "geometry": {
    "type": "Point",
    "coordinates": [
     150.92384109,
     -33.67900978
    ]
   },
   "properties": {
    "name": "10 COACHWOOD CLOSE ROUSE HILL 2155",
    "locID": "LOC000084853913",
    "tech": "FTTN",
    "upgrade": "FTTP_SA",
    "gnaf_pid": "GANSW705820354"
   }
  },
  {
   "type": "Feature",
   "geometry": {
    "type": "Point",
    "coordinates": [
     150.91793751,
     -33.68172624
    ]
   },
   "properties": {
    "name": "10 COLLINS COURT ROUSE HILL 2155",
    "locID": "LOC000051903401",
    "tech": "FTTN",
    "upgrade": "FTTP_SA",
    "gnaf_pid": "GANSW716872443"
   }
  },
  {
   "type": "Feature",
   "geometry": {
    "type": "Point",
    "coordinates": [
     150.92626457,
     -33.67797619
    ]
   },
   "properties": {
    "name": "10 CONNOR PLACE ROUSE HILL 2155",
    "locID": "LOC000020408520",
    "tech": "FTTN",
    "upgrade": "FTTP_SA",
    "gnaf_pid": "GANSW705820385"
   }
  },
  {
   "type": "Feature",
   "geometry": {
    "type": "Point",
    "coordinates": [
     150.93027974,
     -33.66861723
    ]
   },
   "properties": {
    "name": "10 CORNELL CLOSE ROUSE HILL 2155",
    "locID": "LOC000026376502",
    "tech": "FTTN",
    "upgrade": "FTTP_SA",
    "gnaf_pid": "GANSW705820401"
   }
  },
  {
   "type": "Feature",
   "geometry": {
    "type": "Point",
    "coordinates": [
     150.92812418,
     -33.69535679
    ]
   },
   "properties": {
    "name": "10 CRAB APPLE LANE ROUSE HILL 2155",
    "locID": "ChIJQwyHB3SfEmsRYVymQSvTw3w",
    "tech": "NULL",
    "upgrade": "UNKNOWN",
    "gnaf_pid": "GANSW719239659"
   }
  },
  {
   "type": "Feature",
   "geometry": {
    "type": "Point",
    "coordinates": [
     150.92734427,
     -33.67312147
    ]
   },
   "properties": {
    "name": "10 DALTON CLOSE ROUSE HILL 2155",
    "locID": "LOC000075315212",
    "tech": "FTTN",
    "upgrade": "FTTP_SA",
    "gnaf_pid": "GANSW705830707"
   }
  },
  {
   "type": "Feature",
   "geometry": {
    "type": "Point",
    "coordinates": [
     150.88447992,
     -33.67684477
    ]
   },
   "properties": {
    "name": "10 DARKE STREET ROUSE HILL 2155",
    "locID": "LOC000078860329",
    "tech": "FTTP",
    "upgrade": "NULL_NA",
    "gnaf_pid": "GANSW721237981"
   }
  },
  {
   "type": "Feature",
   "geometry": {
    "type": "Point",
    "coordinates": [
     150.93303404,
     -33.69426575
    ]
   },
   "properties": {
    "name": "10 DARRABARRA WAY ROUSE HILL 2155",
    "locID": "LOC000111202209",
    "tech": "NULL",
    "upgrade": "NULL_NA",
    "gnaf_pid": "GANSW718150831"
   }
  },
  {
   "type": "Feature",
   "geometry": {
    "type": "Point",
    "coordinates": [
     150.92857431,
     -33.67480205
    ]
   },
   "properties": {
    "name": "10 DENNISON CLOSE ROUSE HILL 2155",
    "locID": "LOC000024635969",
    "tech": "FTTN",
    "upgrade": "FTTP_SA",
    "gnaf_pid": "GANSW705820454"
   }
  },
  {
   "type": "Feature",
   "geometry": {
    "type": "Point",
    "coordinates": [
     150.89371696,
     -33.68474933
    ]
   },
   "properties": {
    "name": "10 DONIZETTI STREET ROUSE HILL 2155",
    "locID": "LOC000187838849",
    "tech": "FTTP",
    "upgrade": "NULL_NA",
    "gnaf_pid": "GANSW720807923"
   }
  },
  {
   "type": "Feature",
   "geometry": {
    "type": "Point",
    "coordinates": [
     150.91212116,
     -33.68688745
    ]
   },
   "properties": {
    "name": "10 DORIAN STREET ROUSE HILL 2155",
    "locID": "LOC000184294982",
    "tech": "FTTP",
    "upgrade": "NULL_NA",
    "gnaf_pid": "GANSW720622498"
   }
  },
  {
   "type": "Feature",
   "geometry": {
    "type": "Point",
    "coordinates": [
     150.92799661,
     -33.67364832
    ]
   },
   "properties": {
    "name": "10 DUXTON COURT ROUSE HILL 2155",
    "locID": "LOC000010588030",
    "tech": "FTTN",
    "upgrade": "FTTP_SA",
    "gnaf_pid": "GANSW705854465"
   }
  },
  {
   "type": "Feature",
   "geometry": {
    "type": "Point",
    "coordinates": [
     150.93204929,
     -33.66914549
    ]
   },
   "properties": {
    "name": "10 EMPRESS AVENUE ROUSE HILL 2155",
    "locID": "LOC000087773238",
    "tech": "FTTN",
    "upgrade": "FTTP_SA",
    "gnaf_pid": "GANSW705844209"
   }
  },
  {
   "type": "Feature",
   "geometry": {
    "type": "Point",
    "coordinates": [
     150.89554841,
     -33.68812423
    ]
   },
   "properties": {
    "name": "10 FERNYHOUGH STREET ROUSE HILL 2155",
    "locID": "LOC000184132611",
    "tech": "FTTP",
    "upgrade": "NULL_NA",
    "gnaf_pid": "GANSW720678960"
   }
  },
  {
   "type": "Feature",
   "geometry": {
    "type": "Point",
    "coordinates": [
     150.91883025,
     -33.67559578
    ]
   },
   "properties": {
    "name": "10 FINGLETON CLOSE ROUSE HILL 2155",
    "locID": "LOC000077121343",
    "tech": "FTTN",
    "upgrade": "FTTP_SA",
    "gnaf_pid": "GANSW705854507"
   }
  },
  {
   "type": "Feature",
   "geometry": {
    "type": "Point",
    "coordinates": [
     150.92949936,
     -33.69468304
    ]
   },
   "properties": {
    "name": "10 FRESHWATER ROAD ROUSE HILL 2155",
    "locID": "LOC000075331826",
    "tech": "NULL",
    "upgrade": "NULL_NA",
    "gnaf_pid": "GANSW717731393"
   }
  },
  {
   "type": "Feature",
   "geometry": {
    "type": "Point",
    "coordinates": [
     150.92061891,
     -33.68348191
    ]
   },
   "properties": {
    "name": "10 GLEN ABBEY STREET ROUSE HILL 2155",
    "locID": "LOC000067830395",
    "tech": "FTTN",
    "upgrade": "FTTP_SA",
    "gnaf_pid": "GANSW705844256"
   }
  },
  {
   "type": "Feature",
   "geometry": {
    "type": "Point",
    "coordinates": [
     150.9298222,
     -33.6959908
    ]
   },
   "properties": {
    "name": "10 GRANDIFLORA STREET ROUSE HILL 2155",
    "locID": "LOC000052038502",
    "tech": "NULL",
    "upgrade": "NULL_NA",
    "gnaf_pid": "GANSW717651096"
   }
  },
  {
   "type": "Feature",
   "geometry": {
    "type": "Point",
    "coordinates": [
     150.90684245,
     -33.68771086
    ]
   },
   "properties": {
    "name": "10 GRASSLAND STREET ROUSE HILL 2155",
    "locID": "LOC000181874070",
    "tech": "FTTP",
    "upgrade": "NULL_NA",
    "gnaf_pid": "GANSW720150621"
   }
  },
  {
   "type": "Feature",
   "geometry": {
    "type": "Point",
    "coordinates": [
     150.93026308,
     -33.69186802
    ]
   },
   "properties": {
    "name": "10 GRAZIER ROAD ROUSE HILL 2155",
    "locID": "LOC000152964388",
    "tech": "NULL",
    "upgrade": "NULL_NA",
    "gnaf_pid": "GANSW718505216"
   }
  },
  {
   "type": "Feature",
   "geometry": {
    "type": "Point",
    "coordinates": [
     150.9218015,
     -33.68241368
    ]
   },
   "properties": {
    "name": "10 GREEN HILLS DRIVE ROUSE HILL 2155",
    "locID": "LOC000092076351",
    "tech": "FTTP",
    "upgrade": "NULL_NA",
    "gnaf_pid": "GANSW716318335"
   }
  },
  {
   "type": "Feature",
   "geometry": {
    "type": "Point",
    "coordinates": [
     150.92403131,
     -33.68413382
    ]
   },
   "properties": {
    "name": "10 GREENSBOROUGH AVENUE ROUSE HILL 2155",
    "locID": "LOC000098634309",
    "tech": "FTTP",
    "upgrade": "NULL_NA",
    "gnaf_pid": "GANSW705817843"
   }
  },
  {
   "type": "Feature",
   "geometry": {
    "type": "Point",
    "coordinates": [
     150.91908283,
     -33.67723762
    ]
   },
   "properties": {
    "name": "10 GREYGUM AVENUE ROUSE HILL 2155",
    "locID": "LOC000057809595",
    "tech": "FTTN",
    "upgrade": "FTTP_SA",
    "gnaf_pid": "GANSW705834291"
   }
  },
  {
   "type": "Feature",
   "geometry": {
    "type": "Point",
    "coordinates": [
     150.9177435,
     -33.67824738
    ]
   },
   "properties": {
    "name": "10 GRIMMETT AVENUE ROUSE HILL 2155",
    "locID": "LOC000009158586",
    "tech": "FTTN",
    "upgrade": "FTTP_SA",
    "gnaf_pid": "GANSW705824059"
   }
  },
  {
   "type": "Feature",
   "geometry": {
    "type": "Point",
    "coordinates": [
     150.91237299,
     -33.68739561
    ]
   },
   "properties": {
    "name": "10 GWEN STREET ROUSE HILL 2155",
    "locID": "LOC000184294850",
    "tech": "FTTP",
    "upgrade": "NULL_NA",
    "gnaf_pid": "GANSW720623671"
   }
  },
  {
   "type": "Feature",
   "geometry": {
    "type": "Point",
    "coordinates": [
     150.93109586,
     -33.67103793
    ]
   },
   "properties": {
    "name": "10 HARVARD CIRCUIT ROUSE HILL 2155",
    "locID": "LOC000050494541",
    "tech": "FTTN",
    "upgrade": "FTTP_SA",
    "gnaf_pid": "GANSW705834396"
   }
  },
  {
   "type": "Feature",
   "geometry": {
    "type": "Point",
    "coordinates": [
     150.91522778,
     -33.68134601
    ]
   },
   "properties": {
    "name": "10 HASSETT PLACE ROUSE HILL 2155",
    "locID": "LOC000102135066",
    "tech": "FTTN",
    "upgrade": "FTTP_SA",
    "gnaf_pid": "GANSW705816559"
   }
  },
  {
   "type": "Feature",
   "geometry": {
    "type": "Point",
    "coordinates": [
     150.92952452,
     -33.69578664
    ]
   },
   "properties": {
    "name": "10 HEDGE STREET ROUSE HILL 2155",
    "locID": "LOC000014687019",
    "tech": "NULL",
    "upgrade": "NULL_NA",
    "gnaf_pid": "GANSW717651227"
   }
  },
  {
   "type": "Feature",
   "geometry": {
    "type": "Point",
    "coordinates": [
     150.93013587,
     -33.66906275
    ]
   },
   "properties": {
    "name": "10 HIGHLANDS WAY ROUSE HILL 2155",
    "locID": "LOC000065318953",
    "tech": "FTTN",
    "upgrade": "FTTP_SA",
    "gnaf_pid": "GANSW715619370"
   }
  },
  {
   "type": "Feature",
   "geometry": {
    "type": "Point",
    "coordinates": [
     150.93060036,
     -33.69599046
    ]
   },
   "properties": {
    "name": "10 HOLLY STREET ROUSE HILL 2155",
    "locID": "LOC000026580566",
    "tech": "NULL",
    "upgrade": "NULL_NA",
    "gnaf_pid": "GANSW717672367"
   }
  },
  {
   "type": "Feature",
   "geometry": {
    "type": "Point",
    "coordinates": [
     150.92925917,
     -33.67281729
    ]
   },
   "properties": {
    "name": "10 HOPKINS COURT ROUSE HILL 2155",
    "locID": "LOC000017217826",
    "tech": "FTTN",
    "upgrade": "FTTP_SA",
    "gnaf_pid": "GANSW705847321"
   }
  },
  {
   "type": "Feature",
   "geometry": {
    "type": "Point",
    "coordinates": [
     150.93097736,
     -33.67253932
    ]
   },
   "properties": {
    "name": "10 HYATT CLOSE ROUSE HILL 2155",
    "locID": "LOC000107339209",
    "tech": "FTTN",
    "upgrade": "FTTP_SA",
    "gnaf_pid": "GANSW705837072"
   }
  },
  {
   "type": "Feature",
   "geometry": {
    "type": "Point",
    "coordinates": [
     150.8945844,
     -33.68205146
    ]
   },
   "properties": {
    "name": "10 INVERELL STREET ROUSE HILL 2155",
    "locID": "LOC000185320477",
    "tech": "FTTP",
    "upgrade": "NULL_NA",
    "gnaf_pid": "GANSW720685526"
   }
  },
  {
   "type": "Feature",
   "geometry": {
    "type": "Point",
    "coordinates": [
     150.92894195,
     -33.69305933
    ]
   },
   "properties": {
    "name": "10 JUMBUCK LANE ROUSE HILL 2155",
    "locID": "ChIJ_yB6RqCfEmsRfO9jQ7E4ZJ8",
    "tech": "NULL",
    "upgrade": "UNKNOWN",
    "gnaf_pid": "GANSW718924733"
   }
  },
  {
   "type": "Feature",
   "geometry": {
    "type": "Point",
    "coordinates": [
     150.92752735,
     -33.6754624
    ]
   },
   "properties": {
    "name": "10 KINDILEN CLOSE ROUSE HILL 2155",
    "locID": "LOC000002329620",
    "tech": "FTTN",
    "upgrade": "FTTP_SA",
    "gnaf_pid": "GANSW705826871"
   }
  },
  {
   "type": "Feature",
   "geometry": {
    "type": "Point",
    "coordinates": [
     150.92381567,
     -33.67669864
    ]
   },
   "properties": {
    "name": "10 WICKLOW PLACE ROUSE HILL 2155",
    "locID": "LOC000050776166",
    "tech": "FTTN",
    "upgrade": "FTTP_SA",
    "gnaf_pid": "GANSW705854215"
   }
  },
  {
   "type": "Feature",
   "geometry": {
    "type": "Point",
    "coordinates": [
     150.9124127,
     -33.68475766
    ]
   },
   "properties": {
    "name": "110 TERRY ROAD ROUSE HILL 2155",
    "locID": "LOC000063819811",
    "tech": "FTTN",
    "upgrade": "NULL_NA",
    "gnaf_pid": "GANSW711173890"
   }
  },
  {
   "type": "Feature",
   "geometry": {
    "type": "Point",
    "coordinates": [
     150.8946693,
     -33.67131505
    ]
   },
   "properties": {
    "name": "1106 WINDSOR ROAD ROUSE HILL 2155",
    "locID": "LOC000070700042",
    "tech": "FTTP",
    "upgrade": "NULL_NA",
    "gnaf_pid": "GANSW720614006"
   }
  },
  {
   "type": "Feature",
   "geometry": {
    "type": "Point",
    "coordinates": [
     150.91958551,
     -33.676082
    ]
   },
   "properties": {
    "name": "111 ADELPHI STREET ROUSE HILL 2155",
    "locID": "LOC000075052394",
    "tech": "FTTN",
    "upgrade": "FTTP_SA",
    "gnaf_pid": "GANSW705834266"
   }
  },
  {
   "type": "Feature",
   "geometry": {
    "type": "Point",
    "coordinates": [
     150.88822036,
     -33.67880388
    ]
   },
   "properties": {
    "name": "111 MCKENNA CRESCENT ROUSE HILL 2155",
    "locID": "LOC000191701438",
    "tech": "FTTP",
    "upgrade": "NULL_NA",
    "gnaf_pid": "GANSW721245708"
   }
  },
  {
   "type": "Feature",
   "geometry": {
    "type": "Point",
    "coordinates": [
     150.92913489,
     -33.66985072
    ]
   },
   "properties": {
    "name": "111 MILE END ROAD ROUSE HILL 2155",
    "locID": "LOC000062888255",
    "tech": "FTTN",
    "upgrade": "FTTP_SA",
    "gnaf_pid": "GANSW715635391"
   }
  },
  {
   "type": "Feature",
   "geometry": {
    "type": "Point",
    "coordinates": [
     150.93249511,
     -33.6704216
    ]
   },
   "properties": {
    "name": "111 MILFORD DRIVE ROUSE HILL 2155",
    "locID": "LOC000090861561",
    "tech": "FTTN",
    "upgrade": "FTTP_SA",
    "gnaf_pid": "GANSW705830367"
   }
  },
  {
   "type": "Feature",
   "geometry": {
    "type": "Point",
    "coordinates": [
     150.90636086,
     -33.68669685
    ]
   },
   "properties": {
    "name": "111 ROUSE ROAD ROUSE HILL 2155",
    "locID": "LOC000172764865",
    "tech": "FTTP",
    "upgrade": "NULL_NA",
    "gnaf_pid": "GANSW719869381"
   }
  },
  {
   "type": "Feature",
   "geometry": {
    "type": "Point",
    "coordinates": [
     150.89666742,
     -33.68667393
    ]
   },
   "properties": {
    "name": "111 TALLAWONG ROAD ROUSE HILL 2155",
    "locID": "LOC000178603271",
    "tech": "FTTP",
    "upgrade": "NULL_NA",
    "gnaf_pid": "GANSW705806610"
   }
  },
  {
   "type": "Feature",
   "geometry": {
    "type": "Point",
    "coordinates": [
     150.91995034,
     -33.6757409
    ]
   },
   "properties": {
    "name": "112 ADELPHI STREET ROUSE HILL 2155",
    "locID": "LOC000088107205",
    "tech": "FTTN",
    "upgrade": "FTTP_SA",
    "gnaf_pid": "GANSW705834267"
   }
  },
  {
   "type": "Feature",
   "geometry": {
    "type": "Point",
    "coordinates": [
     150.92536124,
     -33.68779737
    ]
   },
   "properties": {
    "name": "112 CADDIES BOULEVARD ROUSE HILL 2155",
    "locID": "ChIJl1bFWLefEmsRncy5ftqIbFA",
    "tech": "FTTN",
    "upgrade": "UNKNOWN",
    "gnaf_pid": "GANSW720327906"
   }
  },
  {
   "type": "Feature",
   "geometry": {
    "type": "Point",
    "coordinates": [
     150.9046952,
     -33.68393103
    ]
   },
   "properties": {
    "name": "112 CUDGEGONG ROAD ROUSE HILL 2155",
    "locID": "LOC000192349596",
    "tech": "NULL",
    "upgrade": "NULL_NA",
    "gnaf_pid": "GANSW711156211"
   }
  },
  {
   "type": "Feature",
   "geometry": {
    "type": "Point",
    "coordinates": [
     150.93172617,
     -33.67070917
    ]
   },
   "properties": {
    "name": "112 MILFORD DRIVE ROUSE HILL 2155",
    "locID": "LOC000043686703",
    "tech": "FTTN",
    "upgrade": "FTTP_SA",
    "gnaf_pid": "GANSW705830368"
   }
  },
  {
   "type": "Feature",
   "geometry": {
    "type": "Point",
    "coordinates": [
     150.89686636,
     -33.6861301
    ]
   },
   "properties": {
    "name": "112 TALLAWONG ROAD ROUSE HILL 2155",
    "locID": "LOC000180693701",
    "tech": "FTTP",
    "upgrade": "NULL_NA",
    "gnaf_pid": "GANSW720384620"
   }
  },
  {
   "type": "Feature",
   "geometry": {
    "type": "Point",
    "coordinates": [
     150.91968837,
     -33.67622667
    ]
   },
   "properties": {
    "name": "113 ADELPHI STREET ROUSE HILL 2155",
    "locID": "LOC000019703033",
    "tech": "FTTN",
    "upgrade": "FTTP_SA",
    "gnaf_pid": "GANSW705834268"
   }
  },
  {
   "type": "Feature",
   "geometry": {
    "type": "Point",
    "coordinates": [
     150.90203378,
     -33.68520495
    ]
   },
   "properties": {
    "name": "113 CUDGEGONG ROAD ROUSE HILL 2155",
    "locID": "LOC000038155473",
    "tech": "FTTP",
    "upgrade": "NULL_NA",
    "gnaf_pid": "GANSW711163702"
   }
  },
  {
   "type": "Feature",
   "geometry": {
    "type": "Point",
    "coordinates": [
     150.88830514,
     -33.67875909
    ]
   },
   "properties": {
    "name": "113 MCKENNA CRESCENT ROUSE HILL 2155",
    "locID": "LOC000191701455",
    "tech": "FTTP",
    "upgrade": "NULL_NA",
    "gnaf_pid": "GANSW721236055"
   }
  },
  {
   "type": "Feature",
   "geometry": {
    "type": "Point",
    "coordinates": [
     150.92927627,
     -33.6696611
    ]
   },
   "properties": {
    "name": "113 MILE END ROAD ROUSE HILL 2155",
    "locID": "LOC000030942426",
    "tech": "FTTN",
    "upgrade": "FTTP_SA",
    "gnaf_pid": "GANSW715635392"
   }
  },
  {
   "type": "Feature",
   "geometry": {
    "type": "Point",
    "coordinates": [
     150.93235409,
     -33.67026441
    ]
   },
   "properties": {
    "name": "113 MILFORD DRIVE ROUSE HILL 2155",
    "locID": "LOC000004030357",
    "tech": "FTTN",
    "upgrade": "FTTP_SA",
    "gnaf_pid": "GANSW705830369"
   }
  },
  {
   "type": "Feature",
   "geometry": {
    "type": "Point",
    "coordinates": [
     150.90629518,
     -33.68671328
    ]
   },
   "properties": {
    "name": "113 ROUSE ROAD ROUSE HILL 2155",
    "locID": "LOC000172764877",
    "tech": "FTTP",
    "upgrade": "NULL_NA",
    "gnaf_pid": "GANSW719869753"
   }
  },
  {
   "type": "Feature",
   "geometry": {
    "type": "Point",
    "coordinates": [
     150.8966036,
     -33.68658504
    ]
   },
   "properties": {
    "name": "113 TALLAWONG ROAD ROUSE HILL 2155",
    "locID": "LOC000178603263",
    "tech": "FTTP",
    "upgrade": "NULL_NA",
    "gnaf_pid": "GANSW720326344"
   }
  },
  {
   "type": "Feature",
   "geometry": {
    "type": "Point",
    "coordinates": [
     150.92006064,
     -33.67589067
    ]
   },
   "properties": {
    "name": "114 ADELPHI STREET ROUSE HILL 2155",
    "locID": "LOC000003168395",
    "tech": "FTTN",
    "upgrade": "FTTP_SA",
    "gnaf_pid": "GANSW705834269"
   }
  },
  {
   "type": "Feature",
   "geometry": {
    "type": "Point",
    "coordinates": [
     150.90460432,
     -33.68380715
    ]
   },
   "properties": {
    "name": "114 CUDGEGONG ROAD ROUSE HILL 2155",
    "locID": "LOC000029774138",
    "tech": "FTTP",
    "upgrade": "NULL_NA",
    "gnaf_pid": "GANSW711163699"
   }
  },
  {
   "type": "Feature",
   "geometry": {
    "type": "Point",
    "coordinates": [
     150.93187309,
     -33.67049922
    ]
   },
   "properties": {
    "name": "114 MILFORD DRIVE ROUSE HILL 2155",
    "locID": "LOC000061755183",
    "tech": "FTTN",
    "upgrade": "FTTP_SA",
    "gnaf_pid": "GANSW705830370"
   }
  },
  {
   "type": "Feature",
   "geometry": {
    "type": "Point",
    "coordinates": [
     150.89679494,
     -33.68602407
    ]
   },
   "properties": {
    "name": "114 TALLAWONG ROAD ROUSE HILL 2155",
    "locID": "LOC000180693717",
    "tech": "FTTP",
    "upgrade": "NULL_NA",
    "gnaf_pid": "GANSW705806611"
   }
  },
  {
   "type": "Feature",
   "geometry": {
    "type": "Point",
    "coordinates": [
     150.9124127,
     -33.68475766
    ]
   },
   "properties": {
    "name": "114 TERRY ROAD ROUSE HILL 2155",
    "locID": "LOC000063851314",
    "tech": "FTTN",
    "upgrade": "NULL_NA",
    "gnaf_pid": "GANSW711173884"
   }
  },
  {
   "type": "Feature",
   "geometry": {
    "type": "Point",
    "coordinates": [
     150.91977783,
     -33.67638294
    ]
   },
   "properties": {
    "name": "115 ADELPHI STREET ROUSE HILL 2155",
    "locID": "LOC000081682617",
    "tech": "FTTN",
    "upgrade": "FTTP_SA",
    "gnaf_pid": "GANSW705834270"
   }
  },
  {
   "type": "Feature",
   "geometry": {
    "type": "Point",
    "coordinates": [
     150.88839858,
     -33.67870972
    ]
   },
   "properties": {
    "name": "115 MCKENNA CRESCENT ROUSE HILL 2155",
    "locID": "LOC000191701472",
    "tech": "FTTP",
    "upgrade": "NULL_NA",
    "gnaf_pid": "GANSW721241008"
   }
  },
  {
   "type": "Feature",
   "geometry": {
    "type": "Point",
    "coordinates": [
     150.92949708,
     -33.66927304
    ]
   },
   "properties": {
    "name": "115 MILE END ROAD ROUSE HILL 2155",
    "locID": "LOC000053303687",
    "tech": "FTTN",
    "upgrade": "FTTP_SA",
    "gnaf_pid": "GANSW715635393"
   }
  },
  {
   "type": "Feature",
   "geometry": {
    "type": "Point",
    "coordinates": [
     150.93221511,
     -33.67011998
    ]
   },
   "properties": {
    "name": "115 MILFORD DRIVE ROUSE HILL 2155",
    "locID": "LOC000007402510",
    "tech": "FTTN",
    "upgrade": "FTTP_SA",
    "gnaf_pid": "GANSW705830371"
   }
  },
  {
   "type": "Feature",
   "geometry": {
    "type": "Point",
    "coordinates": [
     150.90622517,
     -33.68672993
    ]
   },
   "properties": {
    "name": "115 ROUSE ROAD ROUSE HILL 2155",
    "locID": "LOC000172764883",
    "tech": "FTTP",
    "upgrade": "NULL_NA",
    "gnaf_pid": "GANSW719887466"
   }
  },
  {
   "type": "Feature",
   "geometry": {
    "type": "Point",
    "coordinates": [
     150.89654118,
     -33.68649809
    ]
   },
   "properties": {
    "name": "115 TALLAWONG ROAD ROUSE HILL 2155",
    "locID": "LOC000178601680",
    "tech": "FTTP",
    "upgrade": "NULL_NA",
    "gnaf_pid": "GANSW705806612"
   }
  },
  {
   "type": "Feature",
   "geometry": {
    "type": "Point",
    "coordinates": [
     150.9124127,
     -33.68475766
    ]
   },
   "properties": {
    "name": "115 TERRY ROAD ROUSE HILL 2155",
    "locID": "LOC000064019011",
    "tech": "FTTN",
    "upgrade": "NULL_NA",
    "gnaf_pid": "GANSW711173895"
   }
  },
  {
   "type": "Feature",
   "geometry": {
    "type": "Point",
    "coordinates": [
     150.92015771,
     -33.67603975
    ]
   },
   "properties": {
    "name": "116 ADELPHI STREET ROUSE HILL 2155",
    "locID": "LOC000046888807",
    "tech": "FTTN",
    "upgrade": "FTTP_SA",
    "gnaf_pid": "GANSW705834271"
   }
  },
  {
   "type": "Feature",
   "geometry": {
    "type": "Point",
    "coordinates": [
     150.9042074,
     -33.68394546
    ]
   },
   "properties": {
    "name": "116 CUDGEGONG ROAD ROUSE HILL 2155",
    "locID": "LOC000192349633",
    "tech": "NULL",
    "upgrade": "NULL_NA",
    "gnaf_pid": "GANSW705810142"
   }
  },
  {
   "type": "Feature",
   "geometry": {
    "type": "Point",
    "coordinates": [
     150.89552783,
     -33.67773964
    ]
   },
   "properties": {
    "name": "116 GUNTAWONG ROAD ROUSE HILL 2155",
    "locID": "LOC000049621569",
    "tech": "FTTP",
    "upgrade": "NULL_NA",
    "gnaf_pid": "GANSW720613596"
   }
  },
  {
   "type": "Feature",
   "geometry": {
    "type": "Point",
    "coordinates": [
     150.93173011,
     -33.67037472
    ]
   },
   "properties": {
    "name": "116 MILFORD DRIVE ROUSE HILL 2155",
    "locID": "LOC000103348166",
    "tech": "FTTN",
    "upgrade": "FTTP_SA",
    "gnaf_pid": "GANSW705830372"
   }
  },
  {
   "type": "Feature",
   "geometry": {
    "type": "Point",
    "coordinates": [
     150.89663154,
     -33.68577621
    ]
   },
   "properties": {
    "name": "116 TALLAWONG ROAD ROUSE HILL 2155",
    "locID": "LOC000180287262",
    "tech": "FTTP",
    "upgrade": "NULL_NA",
    "gnaf_pid": "GANSW720431746"
   }
  },
  {
   "type": "Feature",
   "geometry": {
    "type": "Point",
    "coordinates": [
     150.9124127,
     -33.68475766
    ]
   },
   "properties": {
    "name": "116 TERRY ROAD ROUSE HILL 2155",
    "locID": "LOC000063956826",
    "tech": "FTTN",
    "upgrade": "NULL_NA",
    "gnaf_pid": "GANSW711173899"
   }
  },
  {
   "type": "Feature",
   "geometry": {
    "type": "Point",
    "coordinates": [
     150.91999376,
     -33.67664556
    ]
   },
   "properties": {
    "name": "117 ADELPHI STREET ROUSE HILL 2155",
    "locID": "LOC000090299589",
    "tech": "FTTN",
    "upgrade": "FTTP_SA",
    "gnaf_pid": "GANSW705834272"
   }
  },
  {
   "type": "Feature",
   "geometry": {
    "type": "Point",
    "coordinates": [
     150.89628082,
     -33.67996757
    ]
   },
   "properties": {
    "name": "117 GUNTAWONG ROAD ROUSE HILL 2155",
    "locID": "LOC000052136765",
    "tech": "FTTP",
    "upgrade": "NULL_NA",
    "gnaf_pid": "GANSW705847845"
   }
  },
  {
   "type": "Feature",
   "geometry": {
    "type": "Point",
    "coordinates": [
     150.88850069,
     -33.67865579
    ]
   },
   "properties": {
    "name": "117 MCKENNA CRESCENT ROUSE HILL 2155",
    "locID": "LOC000191701493",
    "tech": "FTTP",
    "upgrade": "NULL_NA",
    "gnaf_pid": "GANSW721239667"
   }
  },
  {
   "type": "Feature",
   "geometry": {
    "type": "Point",
    "coordinates": [
     150.92965385,
     -33.66934573
    ]
   },
   "properties": {
    "name": "117 MILE END ROAD ROUSE HILL 2155",
    "locID": "LOC000054611449",
    "tech": "FTTN",
    "upgrade": "FTTP_SA",
    "gnaf_pid": "GANSW715635394"
   }
  },
  {
   "type": "Feature",
   "geometry": {
    "type": "Point",
    "coordinates": [
     150.93206592,
     -33.66999564
    ]
   },
   "properties": {
    "name": "117 MILFORD DRIVE ROUSE HILL 2155",
    "locID": "LOC000108298763",
    "tech": "FTTN",
    "upgrade": "FTTP_SA",
    "gnaf_pid": "GANSW705830373"
   }
  },
  {
   "type": "Feature",
   "geometry": {
    "type": "Point",
    "coordinates": [
     150.90615536,
     -33.68674696
    ]
   },
   "properties": {
    "name": "117 ROUSE ROAD ROUSE HILL 2155",
    "locID": "LOC000172764896",
    "tech": "FTTP",
    "upgrade": "NULL_NA",
    "gnaf_pid": "GANSW719875239"
   }
  },
  {
   "type": "Feature",
   "geometry": {
    "type": "Point",
    "coordinates": [
     150.89648017,
     -33.6864131
    ]
   },
   "properties": {
    "name": "117 TALLAWONG ROAD ROUSE HILL 2155",
    "locID": "LOC000178601679",
    "tech": "FTTP",
    "upgrade": "NULL_NA",
    "gnaf_pid": "GANSW720325782"
   }
  },
  {
   "type": "Feature",
   "geometry": {
    "type": "Point",
    "coordinates": [
     150.92025324,
     -33.67617398
    ]
   },
   "properties": {
    "name": "118 ADELPHI STREET ROUSE HILL 2155",
    "locID": "LOC000091791855",
    "tech": "FTTN",
    "upgrade": "FTTP_SA",
    "gnaf_pid": "GANSW705834273"
   }
  },
  {
   "type": "Feature",
   "geometry": {
    "type": "Point",
    "coordinates": [
     150.93153381,
     -33.67033576
    ]
   },
   "properties": {
    "name": "118 MILFORD DRIVE ROUSE HILL 2155",
    "locID": "LOC000052566062",
    "tech": "FTTN",
    "upgrade": "FTTP_SA",
    "gnaf_pid": "GANSW705830374"
   }
  },
  {
   "type": "Feature",
   "geometry": {
    "type": "Point",
    "coordinates": [
     150.89655419,
     -33.68567506
    ]
   },
   "properties": {
    "name": "118 TALLAWONG ROAD ROUSE HILL 2155",
    "locID": "LOC000180287258",
    "tech": "FTTP",
    "upgrade": "NULL_NA",
    "gnaf_pid": "GANSW720418297"
   }
  },
  {
   "type": "Feature",
   "geometry": {
    "type": "Point",
    "coordinates": [
     150.92009489,
     -33.67679874
    ]
   },
   "properties": {
    "name": "119 ADELPHI STREET ROUSE HILL 2155",
    "locID": "LOC000094874087",
    "tech": "FTTN",
    "upgrade": "FTTP_SA",
    "gnaf_pid": "GANSW705824013"
   }
  },
  {
   "type": "Feature",
   "geometry": {
    "type": "Point",
    "coordinates": [
     150.90155191,
     -33.68465733
    ]
   },
   "properties": {
    "name": "119 CUDGEGONG ROAD ROUSE HILL 2155",
    "locID": "LOC000191627357",
    "tech": "NULL",
    "upgrade": "NULL_NA",
    "gnaf_pid": "GANSW711156212"
   }
  },
  {
   "type": "Feature",
   "geometry": {
    "type": "Point",
    "coordinates": [
     150.88859413,
     -33.6786064
    ]
   },
   "properties": {
    "name": "119 MCKENNA CRESCENT ROUSE HILL 2155",
    "locID": "LOC000191701515",
    "tech": "FTTP",
    "upgrade": "NULL_NA",
    "gnaf_pid": "GANSW721247583"
   }
  },
  {
   "type": "Feature",
   "geometry": {
    "type": "Point",
    "coordinates": [
     150.92952472,
     -33.66906916
    ]
   },
   "properties": {
    "name": "119 MILE END ROAD ROUSE HILL 2155",
    "locID": "LOC000107505442",
    "tech": "FTTN",
    "upgrade": "FTTP_SA",
    "gnaf_pid": "GANSW715635395"
   }
  },
  {
   "type": "Feature",
   "geometry": {
    "type": "Point",
    "coordinates": [
     150.93188476,
     -33.66992378
    ]
   },
   "properties": {
    "name": "119 MILFORD DRIVE ROUSE HILL 2155",
    "locID": "LOC000082105502",
    "tech": "FTTN",
    "upgrade": "FTTP_SA",
    "gnaf_pid": "GANSW705830375"
   }
  },
  {
   "type": "Feature",
   "geometry": {
    "type": "Point",
    "coordinates": [
     150.90608398,
     -33.68676443
    ]
   },
   "properties": {
    "name": "119 ROUSE ROAD ROUSE HILL 2155",
    "locID": "LOC000172764906",
    "tech": "FTTP",
    "upgrade": "NULL_NA",
    "gnaf_pid": "GANSW719875861"
   }
  },
  {
   "type": "Feature",
   "geometry": {
    "type": "Point",
    "coordinates": [
     150.89641916,
     -33.68632811
    ]
   },
   "properties": {
    "name": "119 TALLAWONG ROAD ROUSE HILL 2155",
    "locID": "LOC000178601667",
    "tech": "FTTP",
    "upgrade": "NULL_NA",
    "gnaf_pid": "GANSW720327077"
   }
  },
  {
   "type": "Feature",
   "geometry": {
    "type": "Point",
    "coordinates": [
     150.9124127,
     -33.68475766
    ]
   },
   "properties": {
    "name": "119 TERRY ROAD ROUSE HILL 2155",
    "locID": "LOC000064239102",
    "tech": "FTTN",
    "upgrade": "NULL_NA",
    "gnaf_pid": "GANSW711177912"
   }
  },
  {
   "type": "Feature",
   "geometry": {
    "type": "Point",
    "coordinates": [
     150.89558877,
     -33.68326897
    ]
   },
   "properties": {
    "name": "12 ALLOWRIE STREET ROUSE HILL 2155",
    "locID": "LOC000183179601",
    "tech": "FTTP",
    "upgrade": "NULL_NA",
    "gnaf_pid": "GANSW720422198"
   }
  },
  {
   "type": "Feature",
   "geometry": {
    "type": "Point",
    "coordinates": [
     150.89603927,
     -33.68390621
    ]
   },
   "properties": {
    "name": "12 ANGOVE STREET ROUSE HILL 2155",
    "locID": "LOC000180286041",
    "tech": "FTTP",
    "upgrade": "NULL_NA",
    "gnaf_pid": "GANSW720342215"
   }
  },
  {
   "type": "Feature",
   "geometry": {
    "type": "Point",
    "coordinates": [
     150.92312646,
     -33.68273904
    ]
   },
   "properties": {
    "name": "12 AUGUSTA COURT ROUSE HILL 2155",
    "locID": "LOC000022418929",
    "tech": "FTTP",
    "upgrade": "NULL_NA",
    "gnaf_pid": "GANSW705826820"
   }
  },
  {
   "type": "Feature",
   "geometry": {
    "type": "Point",
    "coordinates": [
     150.93197786,
     -33.69345276
    ]
   },
   "properties": {
    "name": "12 BADU STREET ROUSE HILL 2155",
    "locID": "LOC000111719313",
    "tech": "NULL",
    "upgrade": "NULL_NA",
    "gnaf_pid": "GANSW718146259"
   }
  },
  {
   "type": "Feature",
   "geometry": {
    "type": "Point",
    "coordinates": [
     150.93086267,
     -33.69156343
    ]
   },
   "properties": {
    "name": "12 BARA WAY ROUSE HILL 2155",
    "locID": "LOC000152952071",
    "tech": "NULL",
    "upgrade": "NULL_NA",
    "gnaf_pid": "GANSW718502835"
   }
  },
  {
   "type": "Feature",
   "geometry": {
    "type": "Point",
    "coordinates": [
     150.91233865,
     -33.68803462
    ]
   },
   "properties": {
    "name": "12 BARBOLA STREET ROUSE HILL 2155",
    "locID": "LOC000174681043",
    "tech": "FTTP",
    "upgrade": "NULL_NA",
    "gnaf_pid": "GANSW719156484"
   }
  },
  {
   "type": "Feature",
   "geometry": {
    "type": "Point",
    "coordinates": [
     150.91491322,
     -33.67677844
    ]
   },
   "properties": {
    "name": "12 BARDSLEY CIRCUIT ROUSE HILL 2155",
    "locID": "ChIJZTngOLGfEmsRMFvoBVzNl34",
    "tech": "FTTN",
    "upgrade": "UNKNOWN",
    "gnaf_pid": "GANSW710059879"
   }
  },
  {
   "type": "Feature",
   "geometry": {
    "type": "Point",
    "coordinates": [
     150.91891618,
     -33.67903708
    ]
   },
   "properties": {
    "name": "12 BARNES PLACE ROUSE HILL 2155",
    "locID": "LOC000046092764",
    "tech": "FTTN",
    "upgrade": "FTTP_SA",
    "gnaf_pid": "GANSW705847292"
   }
  },
  {
   "type": "Feature",
   "geometry": {
    "type": "Point",
    "coordinates": [
     150.92809654,
     -33.69180095
    ]
   },
   "properties": {
    "name": "12 BASCULE STREET ROUSE HILL 2155",
    "locID": "ChIJT1nbq6GfEmsRLa-EpyIMVIU",
    "tech": "NULL",
    "upgrade": "UNKNOWN",
    "gnaf_pid": "GANSW718918139"
   }
  },
  {
   "type": "Feature",
   "geometry": {
    "type": "Point",
    "coordinates": [
     150.93054474,
     -33.66612653
    ]
   },
   "properties": {
    "name": "12 BERKELEY GROVE ROUSE HILL 2155",
    "locID": "LOC000009606373",
    "tech": "FTTN",
    "upgrade": "FTTP_SA",
    "gnaf_pid": "GANSW715672574"
   }
  },
  {
   "type": "Feature",
   "geometry": {
    "type": "Point",
    "coordinates": [
     150.92968243,
     -33.67938829
    ]
   },
   "properties": {
    "name": "12 BILLABONG PLACE ROUSE HILL 2155",
    "locID": "LOC000028055386",
    "tech": "FTTN",
    "upgrade": "FTTP_SA",
    "gnaf_pid": "GANSW705837044"
   }
  },
  {
   "type": "Feature",
   "geometry": {
    "type": "Point",
    "coordinates": [
     150.92612635,
     -33.67466465
    ]
   },
   "properties": {
    "name": "12 BILYANA PLACE ROUSE HILL 2155",
    "locID": "LOC000059532294",
    "tech": "FTTN",
    "upgrade": "FTTP_SA",
    "gnaf_pid": "GANSW705857580"
   }
  },
  {
   "type": "Feature",
   "geometry": {
    "type": "Point",
    "coordinates": [
     150.9122119,
     -33.68873991
    ]
   },
   "properties": {
    "name": "12 BOOLAVOGUE STREET ROUSE HILL 2155",
    "locID": "LOC000176681158",
    "tech": "FTTP",
    "upgrade": "NULL_NA",
    "gnaf_pid": "GANSW720009015"
   }
  },
  {
   "type": "Feature",
   "geometry": {
    "type": "Point",
    "coordinates": [
     150.92480239,
     -33.67924343
    ]
   },
   "properties": {
    "name": "12 BRUSHWOOD DRIVE ROUSE HILL 2155",
    "locID": "LOC000045340805",
    "tech": "FTTN",
    "upgrade": "FTTP_SA",
    "gnaf_pid": "GANSW705847342"
   }
  },
  {
   "type": "Feature",
   "geometry": {
    "type": "Point",
    "coordinates": [
     150.93135435,
     -33.69581142
    ]
   },
   "properties": {
    "name": "12 CADDIES BOULEVARD ROUSE HILL 2155",
    "locID": "LOC000031255542",
    "tech": "NULL",
    "upgrade": "NULL_NA",
    "gnaf_pid": "GANSW717945732"
   }
  },
  {
   "type": "Feature",
   "geometry": {
    "type": "Point",
    "coordinates": [
     150.92557504,
     -33.67817636
    ]
   },
   "properties": {
    "name": "12 CARMELITA CIRCUIT ROUSE HILL 2155",
    "locID": "LOC000039773428",
    "tech": "FTTN",
    "upgrade": "FTTP_SA",
    "gnaf_pid": "GANSW705806532"
   }
  },
  {
   "type": "Feature",
   "geometry": {
    "type": "Point",
    "coordinates": [
     150.92106128,
     -33.68482605
    ]
   },
   "properties": {
    "name": "12 CARNOUSTIE STREET ROUSE HILL 2155",
    "locID": "LOC000112675584",
    "tech": "FTTN",
    "upgrade": "FTTP_SA",
    "gnaf_pid": "GANSW718096403"
   }
  },
  {
   "type": "Feature",
   "geometry": {
    "type": "Point",
    "coordinates": [
     150.88415194,
     -33.67553128
    ]
   },
   "properties": {
    "name": "12 CLARKE STREET ROUSE HILL 2155",
    "locID": "LOC000051961954",
    "tech": "FTTP",
    "upgrade": "NULL_NA",
    "gnaf_pid": "GANSW720616100"
   }
  },
  {
   "type": "Feature",
   "geometry": {
    "type": "Point",
    "coordinates": [
     150.91709951,
     -33.68018787
    ]
   },
   "properties": {
    "name": "12 CLAXTON CIRCUIT ROUSE HILL 2155",
    "locID": "LOC000003823758",
    "tech": "FTTN",
    "upgrade": "FTTP_SA",
    "gnaf_pid": "GANSW705840592"
   }
  },
  {
   "type": "Feature",
   "geometry": {
    "type": "Point",
    "coordinates": [
     150.93037425,
     -33.67434142
    ]
   },
   "properties": {
    "name": "12 CLEVELAND CLOSE ROUSE HILL 2155",
    "locID": "LOC000087953200",
    "tech": "FTTN",
    "upgrade": "FTTP_SA",
    "gnaf_pid": "GANSW705830354"
   }
  },
  {
   "type": "Feature",
   "geometry": {
    "type": "Point",
    "coordinates": [
     150.92014601,
     -33.68074882
    ]
   },
   "properties": {
    "name": "12 CLOWER AVENUE ROUSE HILL 2155",
    "locID": "LOC000074871905",
    "tech": "FTTN",
    "upgrade": "FTTP_SA",
    "gnaf_pid": "GANSW705850897"
   }
  },
  {
   "type": "Feature",
   "geometry": {
    "type": "Point",
    "coordinates": [
     150.92383671,
     -33.67916607
    ]
   },
   "properties": {
    "name": "12 COACHWOOD CLOSE ROUSE HILL 2155",
    "locID": "LOC000047776101",
    "tech": "FTTN",
    "upgrade": "FTTP_SA",
    "gnaf_pid": "GANSW705820356"
   }
  },
  {
   "type": "Feature",
   "geometry": {
    "type": "Point",
    "coordinates": [
     150.91805091,
     -33.68186488
    ]
   },
   "properties": {
    "name": "12 COLLINS COURT ROUSE HILL 2155",
    "locID": "LOC000102275826",
    "tech": "FTTN",
    "upgrade": "FTTP_SA",
    "gnaf_pid": "GANSW716872445"
   }
  },
  {
   "type": "Feature",
   "geometry": {
    "type": "Point",
    "coordinates": [
     150.92655269,
     -33.67798364
    ]
   },
   "properties": {
    "name": "12 CONNOR PLACE ROUSE HILL 2155",
    "locID": "LOC000013212138",
    "tech": "FTTN",
    "upgrade": "FTTP_SA",
    "gnaf_pid": "GANSW705820387"
   }
  },
  {
   "type": "Feature",
   "geometry": {
    "type": "Point",
    "coordinates": [
     150.9081705,
     -33.6924053
    ]
   },
   "properties": {
    "name": "12 CUDGEGONG ROAD ROUSE HILL 2155",
    "locID": "LOC000192348594",
    "tech": "NULL",
    "upgrade": "NULL_NA",
    "gnaf_pid": "GANSW718582862"
   }
  },
  {
   "type": "Feature",
   "geometry": {
    "type": "Point",
    "coordinates": [
     150.92696049,
     -33.67307797
    ]
   },
   "properties": {
    "name": "12 DALTON CLOSE ROUSE HILL 2155",
    "locID": "LOC000035110566",
    "tech": "FTTN",
    "upgrade": "FTTP_SA",
    "gnaf_pid": "GANSW705830709"
   }
  },
  {
   "type": "Feature",
   "geometry": {
    "type": "Point",
    "coordinates": [
     150.88447992,
     -33.67684477
    ]
   },
   "properties": {
    "name": "12 DARKE STREET ROUSE HILL 2155",
    "locID": "ChIJGSTSel2eEmsRqUnHq-Oeqrc",
    "tech": "FTTP",
    "upgrade": "UNKNOWN",
    "gnaf_pid": "GANSW721240035"
   }
  },
  {
   "type": "Feature",
   "geometry": {
    "type": "Point",
    "coordinates": [
     150.93287311,
     -33.69395324
    ]
   },
   "properties": {
    "name": "12 DARRABARRA WAY ROUSE HILL 2155",
    "locID": "LOC000111857531",
    "tech": "NULL",
    "upgrade": "NULL_NA",
    "gnaf_pid": "GANSW718150832"
   }
  },
  {
   "type": "Feature",
   "geometry": {
    "type": "Point",
    "coordinates": [
     150.92970728,
     -33.67586275
    ]
   },
   "properties": {
    "name": "12 DENNISON CLOSE ROUSE HILL 2155",
    "locID": "LOC000001409219",
    "tech": "FTTN",
    "upgrade": "FTTP_SA",
    "gnaf_pid": "GANSW715366872"
   }
  },
  {
   "type": "Feature",
   "geometry": {
    "type": "Point",
    "coordinates": [
     150.89361016,
     -33.68480291
    ]
   },
   "properties": {
    "name": "12 DONIZETTI STREET ROUSE HILL 2155",
    "locID": "LOC000187838854",
    "tech": "FTTP",
    "upgrade": "NULL_NA",
    "gnaf_pid": "GANSW720808684"
   }
  },
  {
   "type": "Feature",
   "geometry": {
    "type": "Point",
    "coordinates": [
     150.92789128,
     -33.67354617
    ]
   },
   "properties": {
    "name": "12 DUXTON COURT ROUSE HILL 2155",
    "locID": "LOC000092409692",
    "tech": "FTTN",
    "upgrade": "FTTP_SA",
    "gnaf_pid": "GANSW705854466"
   }
  },
  {
   "type": "Feature",
   "geometry": {
    "type": "Point",
    "coordinates": [
     150.92171315,
     -33.65964348
    ]
   },
   "properties": {
    "name": "12 EDWARDS ROAD ROUSE HILL 2155",
    "locID": "LOC000033816662",
    "tech": "WIRELESS",
    "upgrade": "NULL_NA",
    "gnaf_pid": "GANSW711166605"
   }
  },
  {
   "type": "Feature",
   "geometry": {
    "type": "Point",
    "coordinates": [
     150.93224861,
     -33.66919917
    ]
   },
   "properties": {
    "name": "12 EMPRESS AVENUE ROUSE HILL 2155",
    "locID": "LOC000013963445",
    "tech": "FTTN",
    "upgrade": "FTTP_SA",
    "gnaf_pid": "GANSW705844211"
   }
  },
  {
   "type": "Feature",
   "geometry": {
    "type": "Point",
    "coordinates": [
     150.8955779,
     -33.68816285
    ]
   },
   "properties": {
    "name": "12 FERNYHOUGH STREET ROUSE HILL 2155",
    "locID": "LOC000184132607",
    "tech": "FTTP",
    "upgrade": "NULL_NA",
    "gnaf_pid": "GANSW720680212"
   }
  },
  {
   "type": "Feature",
   "geometry": {
    "type": "Point",
    "coordinates": [
     150.91894072,
     -33.67575065
    ]
   },
   "properties": {
    "name": "12 FINGLETON CLOSE ROUSE HILL 2155",
    "locID": "LOC000093617327",
    "tech": "FTTN",
    "upgrade": "FTTP_SA",
    "gnaf_pid": "GANSW705843724"
   }
  },
  {
   "type": "Feature",
   "geometry": {
    "type": "Point",
    "coordinates": [
     150.92958765,
     -33.6946399
    ]
   },
   "properties": {
    "name": "12 FRESHWATER ROAD ROUSE HILL 2155",
    "locID": "LOC000090602182",
    "tech": "NULL",
    "upgrade": "NULL_NA",
    "gnaf_pid": "GANSW717731394"
   }
  },
  {
   "type": "Feature",
   "geometry": {
    "type": "Point",
    "coordinates": [
     150.92054474,
     -33.68331258
    ]
   },
   "properties": {
    "name": "12 GLEN ABBEY STREET ROUSE HILL 2155",
    "locID": "LOC000043231559",
    "tech": "FTTN",
    "upgrade": "FTTP_SA",
    "gnaf_pid": "GANSW705844258"
   }
  },
  {
   "type": "Feature",
   "geometry": {
    "type": "Point",
    "coordinates": [
     150.92982165,
     -33.69590515
    ]
   },
   "properties": {
    "name": "12 GRANDIFLORA STREET ROUSE HILL 2155",
    "locID": "LOC000043575055",
    "tech": "NULL",
    "upgrade": "NULL_NA",
    "gnaf_pid": "GANSW717651098"
   }
  },
  {
   "type": "Feature",
   "geometry": {
    "type": "Point",
    "coordinates": [
     150.93015233,
     -33.69193996
    ]
   },
   "properties": {
    "name": "12 GRAZIER ROAD ROUSE HILL 2155",
    "locID": "LOC000152964374",
    "tech": "NULL",
    "upgrade": "NULL_NA",
    "gnaf_pid": "GANSW718505218"
   }
  },
  {
   "type": "Feature",
   "geometry": {
    "type": "Point",
    "coordinates": [
     150.92186105,
     -33.6825499
    ]
   },
   "properties": {
    "name": "12 GREEN HILLS DRIVE ROUSE HILL 2155",
    "locID": "LOC000010477822",
    "tech": "FTTP",
    "upgrade": "NULL_NA",
    "gnaf_pid": "GANSW716318337"
   }
  },
  {
   "type": "Feature",
   "geometry": {
    "type": "Point",
    "coordinates": [
     150.92418497,
     -33.68403411
    ]
   },
   "properties": {
    "name": "12 GREENSBOROUGH AVENUE ROUSE HILL 2155",
    "locID": "LOC000032369057",
    "tech": "FTTP",
    "upgrade": "NULL_NA",
    "gnaf_pid": "GANSW711180518"
   }
  },
  {
   "type": "Feature",
   "geometry": {
    "type": "Point",
    "coordinates": [
     150.91918451,
     -33.6773757
    ]
   },
   "properties": {
    "name": "12 GREYGUM AVENUE ROUSE HILL 2155",
    "locID": "LOC000021289204",
    "tech": "FTTN",
    "upgrade": "FTTP_SA",
    "gnaf_pid": "GANSW705834293"
   }
  },
  {
   "type": "Feature",
   "geometry": {
    "type": "Point",
    "coordinates": [
     150.91224351,
     -33.687427
    ]
   },
   "properties": {
    "name": "12 GWEN STREET ROUSE HILL 2155",
    "locID": "LOC000184294866",
    "tech": "FTTP",
    "upgrade": "NULL_NA",
    "gnaf_pid": "GANSW720622769"
   }
  },
  {
   "type": "Feature",
   "geometry": {
    "type": "Point",
    "coordinates": [
     150.93089498,
     -33.67108345
    ]
   },
   "properties": {
    "name": "12 HARVARD CIRCUIT ROUSE HILL 2155",
    "locID": "LOC000002315364",
    "tech": "FTTN",
    "upgrade": "FTTP_SA",
    "gnaf_pid": "GANSW705834397"
   }
  },
  {
   "type": "Feature",
   "geometry": {
    "type": "Point",
    "coordinates": [
     150.9295252,
     -33.69589483
    ]
   },
   "properties": {
    "name": "12 HEDGE STREET ROUSE HILL 2155",
    "locID": "LOC000091871885",
    "tech": "NULL",
    "upgrade": "NULL_NA",
    "gnaf_pid": "GANSW717651229"
   }
  },
  {
   "type": "Feature",
   "geometry": {
    "type": "Point",
    "coordinates": [
     150.91610777,
     -33.68647766
    ]
   },
   "properties": {
    "name": "12 HERMES AVENUE ROUSE HILL 2155",
    "locID": "LOC000177723162",
    "tech": "FTTP",
    "upgrade": "NULL_NA",
    "gnaf_pid": "GANSW720273087"
   }
  },
  {
   "type": "Feature",
   "geometry": {
    "type": "Point",
    "coordinates": [
     150.93027152,
     -33.66899563
    ]
   },
   "properties": {
    "name": "12 HIGHLANDS WAY ROUSE HILL 2155",
    "locID": "LOC000107361259",
    "tech": "FTTN",
    "upgrade": "FTTP_SA",
    "gnaf_pid": "GANSW715619372"
   }
  },
  {
   "type": "Feature",
   "geometry": {
    "type": "Point",
    "coordinates": [
     150.93059961,
     -33.69586874
    ]
   },
   "properties": {
    "name": "12 HOLLY STREET ROUSE HILL 2155",
    "locID": "LOC000015864984",
    "tech": "NULL",
    "upgrade": "NULL_NA",
    "gnaf_pid": "GANSW717672368"
   }
  },
  {
   "type": "Feature",
   "geometry": {
    "type": "Point",
    "coordinates": [
     150.93107231,
     -33.67267247
    ]
   },
   "properties": {
    "name": "12 HYATT CLOSE ROUSE HILL 2155",
    "locID": "LOC000099713289",
    "tech": "FTTN",
    "upgrade": "FTTP_SA",
    "gnaf_pid": "GANSW705826853"
   }
  },
  {
   "type": "Feature",
   "geometry": {
    "type": "Point",
    "coordinates": [
     150.89519273,
     -33.68590461
    ]
   },
   "properties": {
    "name": "12 INDIA PARADE ROUSE HILL 2155",
    "locID": "LOC000184453958",
    "tech": "FTTP",
    "upgrade": "NULL_NA",
    "gnaf_pid": "GANSW720528038"
   }
  },
  {
   "type": "Feature",
   "geometry": {
    "type": "Point",
    "coordinates": [
     150.89467685,
     -33.68200508
    ]
   },
   "properties": {
    "name": "12 INVERELL STREET ROUSE HILL 2155",
    "locID": "LOC000185320465",
    "tech": "FTTP",
    "upgrade": "NULL_NA",
    "gnaf_pid": "GANSW720689483"
   }
  },
  {
   "type": "Feature",
   "geometry": {
    "type": "Point",
    "coordinates": [
     150.92767058,
     -33.67535967
    ]
   },
   "properties": {
    "name": "12 KINDILEN CLOSE ROUSE HILL 2155",
    "locID": "LOC000091639539",
    "tech": "FTTN",
    "upgrade": "FTTP_SA",
    "gnaf_pid": "GANSW705837052"
   }
  },
  {
   "type": "Feature",
   "geometry": {
    "type": "Point",
    "coordinates": [
     150.89613274,
     -33.68515278
    ]
   },
   "properties": {
    "name": "126 TALLAWONG ROAD ROUSE HILL 2155",
    "locID": "LOC000183703151",
    "tech": "FTTP",
    "upgrade": "NULL_NA",
    "gnaf_pid": "GANSW720422187"
   }
  },
  {
   "type": "Feature",
   "geometry": {
    "type": "Point",
    "coordinates": [
     150.9204713,
     -33.67732866
    ]
   },
   "properties": {
    "name": "127 ADELPHI STREET ROUSE HILL 2155",
    "locID": "LOC000041882397",
    "tech": "FTTN",
    "upgrade": "FTTP_SA",
    "gnaf_pid": "GANSW705824021"
   }
  },
  {
   "type": "Feature",
   "geometry": {
    "type": "Point",
    "coordinates": [
     150.92981457,
     -33.66867557
    ]
   },
   "properties": {
    "name": "127 MILE END ROAD ROUSE HILL 2155",
    "locID": "LOC000113849190",
    "tech": "FTTN",
    "upgrade": "FTTP_SA",
    "gnaf_pid": "GANSW716757731"
   }
  },
  {
   "type": "Feature",
   "geometry": {
    "type": "Point",
    "coordinates": [
     150.93105694,
     -33.66969181
    ]
   },
   "properties": {
    "name": "127 MILFORD DRIVE ROUSE HILL 2155",
    "locID": "LOC000018131968",
    "tech": "FTTN",
    "upgrade": "FTTP_SA",
    "gnaf_pid": "GANSW705850903"
   }
  },
  {
   "type": "Feature",
   "geometry": {
    "type": "Point",
    "coordinates": [
     150.90579173,
     -33.68683511
    ]
   },
   "properties": {
    "name": "127 ROUSE ROAD ROUSE HILL 2155",
    "locID": "LOC000172764947",
    "tech": "FTTP",
    "upgrade": "NULL_NA",
    "gnaf_pid": "GANSW711165790"
   }
  },
  {
   "type": "Feature",
   "geometry": {
    "type": "Point",
    "coordinates": [
     150.89586884,
     -33.68556164
    ]
   },
   "properties": {
    "name": "127 TALLAWONG ROAD ROUSE HILL 2155",
    "locID": "LOC000184453841",
    "tech": "FTTP",
    "upgrade": "NULL_NA",
    "gnaf_pid": "GANSW720535595"
   }
  },
  {
   "type": "Feature",
   "geometry": {
    "type": "Point",
    "coordinates": [
     150.90591825,
     -33.68697717
    ]
   },
   "properties": {
    "name": "127A STEPPE GLADE ROUSE HILL 2155",
    "locID": "ChIJ9fBHGFWeEmsR3OrC5ET_iOc",
    "tech": "FTTP",
    "upgrade": "UNKNOWN",
    "gnaf_pid": "GANSW721006307"
   }
  },
  {
   "type": "Feature",
   "geometry": {
    "type": "Point",
    "coordinates": [
     150.89581203,
     -33.68548253
    ]
   },
   "properties": {
    "name": "127A TALLAWONG ROAD ROUSE HILL 2155",
    "locID": "LOC000184453839",
    "tech": "FTTP",
    "upgrade": "NULL_NA",
    "gnaf_pid": "GANSW720532910"
   }
  },
  {
   "type": "Feature",
   "geometry": {
    "type": "Point",
    "coordinates": [
     150.89432666,
     -33.67834925
    ]
   },
   "properties": {
    "name": "128 GUNTAWONG ROAD ROUSE HILL 2155",
    "locID": "LOC000008051807",
    "tech": "FTTP",
    "upgrade": "NULL_NA",
    "gnaf_pid": "GANSW720606810"
   }
  },
  {
   "type": "Feature",
   "geometry": {
    "type": "Point",
    "coordinates": [
     150.93043518,
     -33.66999435
    ]
   },
   "properties": {
    "name": "128 MILFORD DRIVE ROUSE HILL 2155",
    "locID": "LOC000048141183",
    "tech": "FTTN",
    "upgrade": "FTTP_SA",
    "gnaf_pid": "GANSW705850904"
   }
  },
  {
   "type": "Feature",
   "geometry": {
    "type": "Point",
    "coordinates": [
     150.91045816,
     -33.6854441
    ]
   },
   "properties": {
    "name": "128 ROUSE ROAD ROUSE HILL 2155",
    "locID": "LOC000070939639",
    "tech": "FTTN",
    "upgrade": "NULL_NA",
    "gnaf_pid": "GANSW711165786"
   }
  },
  {
   "type": "Feature",
   "geometry": {
    "type": "Point",
    "coordinates": [
     150.89603965,
     -33.68502867
    ]
   },
   "properties": {
    "name": "128 TALLAWONG ROAD ROUSE HILL 2155",
    "locID": "LOC000183703146",
    "tech": "FTTP",
    "upgrade": "NULL_NA",
    "gnaf_pid": "GANSW720424014"
   }
  },
  {
   "type": "Feature",
   "geometry": {
    "type": "Point",
    "coordinates": [
     150.92056307,
     -33.67745787
    ]
   },
   "properties": {
    "name": "129 ADELPHI STREET ROUSE HILL 2155",
    "locID": "LOC000086762259",
    "tech": "FTTN",
    "upgrade": "FTTP_SA",
    "gnaf_pid": "GANSW705834327"
   }
  },
  {
   "type": "Feature",
   "geometry": {
    "type": "Point",
    "coordinates": [
     150.90032851,
     -33.68437901
    ]
   },
   "properties": {
    "name": "129 CUDGEGONG ROAD ROUSE HILL 2155",
    "locID": "LOC000104422621",
    "tech": "FTTP",
    "upgrade": "NULL_NA",
    "gnaf_pid": "GANSW705810144"
   }
  },
  {
   "type": "Feature",
   "geometry": {
    "type": "Point",
    "coordinates": [
     150.92975513,
     -33.66851447
    ]
   },
   "properties": {
    "name": "129 MILE END ROAD ROUSE HILL 2155",
    "locID": "LOC000110705680",
    "tech": "FTTN",
    "upgrade": "FTTP_SA",
    "gnaf_pid": "GANSW716812405"
   }
  },
  {
   "type": "Feature",
   "geometry": {
    "type": "Point",
    "coordinates": [
     150.93085339,
     -33.66963225
    ]
   },
   "properties": {
    "name": "129 MILFORD DRIVE ROUSE HILL 2155",
    "locID": "LOC000106136856",
    "tech": "FTTP",
    "upgrade": "UNKNOWN",
    "gnaf_pid": "GANSW705850905"
   }
  },
  {
   "type": "Feature",
   "geometry": {
    "type": "Point",
    "coordinates": [
     150.90572192,
     -33.68685218
    ]
   },
   "properties": {
    "name": "129 ROUSE ROAD ROUSE HILL 2155",
    "locID": "LOC000172764952",
    "tech": "FTTP",
    "upgrade": "NULL_NA",
    "gnaf_pid": "GANSW719870346"
   }
  },
  {
   "type": "Feature",
   "geometry": {
    "type": "Point",
    "coordinates": [
     150.8957546,
     -33.68540254
    ]
   },
   "properties": {
    "name": "129 TALLAWONG ROAD ROUSE HILL 2155",
    "locID": "LOC000185566572",
    "tech": "FTTP",
    "upgrade": "NULL_NA",
    "gnaf_pid": "GANSW720683265"
   }
  },
  {
   "type": "Feature",
   "geometry": {
    "type": "Point",
    "coordinates": [
     150.9124127,
     -33.68475766
    ]
   },
   "properties": {
    "name": "129 TERRY ROAD ROUSE HILL 2155",
    "locID": "ChIJZWJFEKyfEmsRkuTTYOQx0ik",
    "tech": "FTTN",
    "upgrade": "UNKNOWN",
    "gnaf_pid": "GANSW713141651"
   }
  },
  {
   "type": "Feature",
   "geometry": {
    "type": "Point",
    "coordinates": [
     150.89569649,
     -33.6853216
    ]
   },
   "properties": {
    "name": "129A TALLAWONG ROAD ROUSE HILL 2155",
    "locID": "LOC000185566564",
    "tech": "FTTP",
    "upgrade": "NULL_NA",
    "gnaf_pid": "GANSW720681349"
   }
  },
  {
   "type": "Feature",
   "geometry": {
    "type": "Point",
    "coordinates": [
     150.91721466,
     -33.68139583
    ]
   },
   "properties": {
    "name": "13 ABERDOUR AVENUE ROUSE HILL 2155",
    "locID": "LOC000018843035",
    "tech": "FTTN",
    "upgrade": "FTTP_SA",
    "gnaf_pid": "GANSW705858672"
   }
  },
  {
   "type": "Feature",
   "geometry": {
    "type": "Point",
    "coordinates": [
     150.91739949,
     -33.68231877
    ]
   },
   "properties": {
    "name": "13 ADELPHI STREET ROUSE HILL 2155",
    "locID": "LOC000001387531",
    "tech": "FTTN",
    "upgrade": "FTTP_SA",
    "gnaf_pid": "GANSW705834328"
   }
  },
  {
   "type": "Feature",
   "geometry": {
    "type": "Point",
    "coordinates": [
     150.92014743,
     -33.68483562
    ]
   },
   "properties": {
    "name": "13 ADVENTURE PLACE ROUSE HILL 2155",
    "locID": "LOC000037085554",
    "tech": "FTTN",
    "upgrade": "FTTP_SA",
    "gnaf_pid": "GANSW716912618"
   }
  },
  {
   "type": "Feature",
   "geometry": {
    "type": "Point",
    "coordinates": [
     150.89543928,
     -33.68282819
    ]
   },
   "properties": {
    "name": "13 ALLOWRIE STREET ROUSE HILL 2155",
    "locID": "LOC000183164698",
    "tech": "FTTP",
    "upgrade": "NULL_NA",
    "gnaf_pid": "GANSW720422183"
   }
  },
  {
   "type": "Feature",
   "geometry": {
    "type": "Point",
    "coordinates": [
     150.89587415,
     -33.68347374
    ]
   },
   "properties": {
    "name": "13 ANGOVE STREET ROUSE HILL 2155",
    "locID": "LOC000183179798",
    "tech": "FTTP",
    "upgrade": "NULL_NA",
    "gnaf_pid": "GANSW720418326"
   }
  },
  {
   "type": "Feature",
   "geometry": {
    "type": "Point",
    "coordinates": [
     150.92375743,
     -33.68255852
    ]
   },
   "properties": {
    "name": "13 AUGUSTA COURT ROUSE HILL 2155",
    "locID": "LOC000070719744",
    "tech": "FTTP",
    "upgrade": "NULL_NA",
    "gnaf_pid": "GANSW705826821"
   }
  },
  {
   "type": "Feature",
   "geometry": {
    "type": "Point",
    "coordinates": [
     150.91222024,
     -33.68848401
    ]
   },
   "properties": {
    "name": "13 BARBOLA STREET ROUSE HILL 2155",
    "locID": "LOC000176680998",
    "tech": "FTTP",
    "upgrade": "NULL_NA",
    "gnaf_pid": "GANSW720013386"
   }
  },
  {
   "type": "Feature",
   "geometry": {
    "type": "Point",
    "coordinates": [
     150.91518452,
     -33.67723146
    ]
   },
   "properties": {
    "name": "13 BARDSLEY CIRCUIT ROUSE HILL 2155",
    "locID": "LOC000053881177",
    "tech": "FTTN",
    "upgrade": "FTTP_SA",
    "gnaf_pid": "GANSW705847271"
   }
  },
  {
   "type": "Feature",
   "geometry": {
    "type": "Point",
    "coordinates": [
     150.92851857,
     -33.6915255
    ]
   },
   "properties": {
    "name": "13 BASCULE STREET ROUSE HILL 2155",
    "locID": "ChIJhV9QpaGfEmsRbdkYZjjsnDc",
    "tech": "NULL",
    "upgrade": "UNKNOWN",
    "gnaf_pid": "GANSW718918140"
   }
  },
  {
   "type": "Feature",
   "geometry": {
    "type": "Point",
    "coordinates": [
     150.92874773,
     -33.69567043
    ]
   },
   "properties": {
    "name": "13 BELLCAST ROAD ROUSE HILL 2155",
    "locID": "LOC000011537399",
    "tech": "NULL",
    "upgrade": "NULL_NA",
    "gnaf_pid": "GANSW717650061"
   }
  },
  {
   "type": "Feature",
   "geometry": {
    "type": "Point",
    "coordinates": [
     150.89523636,
     -33.68837516
    ]
   },
   "properties": {
    "name": "13 BEULAH STREET ROUSE HILL 2155",
    "locID": "ChIJ4RCShPeeEmsRkpbMOSZQhIk",
    "tech": "FTTP",
    "upgrade": "UNKNOWN",
    "gnaf_pid": "GANSW721043398"
   }
  },
  {
   "type": "Feature",
   "geometry": {
    "type": "Point",
    "coordinates": [
     150.92938567,
     -33.67942914
    ]
   },
   "properties": {
    "name": "13 BILLABONG PLACE ROUSE HILL 2155",
    "locID": "LOC000036174367",
    "tech": "FTTN",
    "upgrade": "FTTP_SA",
    "gnaf_pid": "GANSW705837045"
   }
  },
  {
   "type": "Feature",
   "geometry": {
    "type": "Point",
    "coordinates": [
     150.92667252,
     -33.67481027
    ]
   },
   "properties": {
    "name": "13 BILYANA PLACE ROUSE HILL 2155",
    "locID": "LOC000057885643",
    "tech": "FTTN",
    "upgrade": "FTTP_SA",
    "gnaf_pid": "GANSW705857581"
   }
  },
  {
   "type": "Feature",
   "geometry": {
    "type": "Point",
    "coordinates": [
     150.8935636,
     -33.68453571
    ]
   },
   "properties": {
    "name": "13 BLARNEYSTONE AVENUE ROUSE HILL 2155",
    "locID": "LOC000187839046",
    "tech": "FTTP",
    "upgrade": "NULL_NA",
    "gnaf_pid": "GANSW720805932"
   }
  },
  {
   "type": "Feature",
   "geometry": {
    "type": "Point",
    "coordinates": [
     150.92494519,
     -33.67884646
    ]
   },
   "properties": {
    "name": "13 BRUSHWOOD DRIVE ROUSE HILL 2155",
    "locID": "LOC000090202188",
    "tech": "FTTN",
    "upgrade": "FTTP_SA",
    "gnaf_pid": "GANSW705847343"
   }
  },
  {
   "type": "Feature",
   "geometry": {
    "type": "Point",
    "coordinates": [
     150.93177308,
     -33.69423542
    ]
   },
   "properties": {
    "name": "13 CADDIES BOULEVARD ROUSE HILL 2155",
    "locID": "LOC000110853921",
    "tech": "NULL",
    "upgrade": "NULL_NA",
    "gnaf_pid": "GANSW718096174"
   }
  },
  {
   "type": "Feature",
   "geometry": {
    "type": "Point",
    "coordinates": [
     150.92484569,
     -33.67745922
    ]
   },
   "properties": {
    "name": "13 CARMELITA CIRCUIT ROUSE HILL 2155",
    "locID": "LOC000057451406",
    "tech": "FTTN",
    "upgrade": "FTTP_SA",
    "gnaf_pid": "GANSW705806533"
   }
  },
  {
   "type": "Feature",
   "geometry": {
    "type": "Point",
    "coordinates": [
     150.92059401,
     -33.68454814
    ]
   },
   "properties": {
    "name": "13 CARNOUSTIE STREET ROUSE HILL 2155",
    "locID": "LOC000098007543",
    "tech": "FTTN",
    "upgrade": "FTTP_SA",
    "gnaf_pid": "GANSW705816856"
   }
  },
  {
   "type": "Feature",
   "geometry": {
    "type": "Point",
    "coordinates": [
     150.92781544,
     -33.69391585
    ]
   },
   "properties": {
    "name": "13 CIVIC WAY ROUSE HILL 2155",
    "locID": "LOC000184820218",
    "tech": "FTTB",
    "upgrade": "NULL_NA",
    "gnaf_pid": "GANSW718920497"
   }
  },
  {
   "type": "Feature",
   "geometry": {
    "type": "Point",
    "coordinates": [
     150.9168126,
     -33.67944182
    ]
   },
   "properties": {
    "name": "13 CLAXTON CIRCUIT ROUSE HILL 2155",
    "locID": "LOC000045340822",
    "tech": "FTTN",
    "upgrade": "FTTP_SA",
    "gnaf_pid": "GANSW705840593"
   }
  },
  {
   "type": "Feature",
   "geometry": {
    "type": "Point",
    "coordinates": [
     150.93027563,
     -33.67511665
    ]
   },
   "properties": {
    "name": "13 CLEVELAND CLOSE ROUSE HILL 2155",
    "locID": "LOC000066798480",
    "tech": "FTTN",
    "upgrade": "FTTP_SA",
    "gnaf_pid": "GANSW705830355"
   }
  },
  {
   "type": "Feature",
   "geometry": {
    "type": "Point",
    "coordinates": [
     150.92093963,
     -33.68105676
    ]
   },
   "properties": {
    "name": "13 CLOWER AVENUE ROUSE HILL 2155",
    "locID": "LOC000075818446",
    "tech": "FTTN",
    "upgrade": "FTTP_SA",
    "gnaf_pid": "GANSW705806846"
   }
  },
  {
   "type": "Feature",
   "geometry": {
    "type": "Point",
    "coordinates": [
     150.92336394,
     -33.6792878
    ]
   },
   "properties": {
    "name": "13 COACHWOOD CLOSE ROUSE HILL 2155",
    "locID": "LOC000020691350",
    "tech": "FTTN",
    "upgrade": "FTTP_SA",
    "gnaf_pid": "GANSW705806896"
   }
  },
  {
   "type": "Feature",
   "geometry": {
    "type": "Point",
    "coordinates": [
     150.91773088,
     -33.68211923
    ]
   },
   "properties": {
    "name": "13 COLLINS COURT ROUSE HILL 2155",
    "locID": "LOC000100885065",
    "tech": "FTTN",
    "upgrade": "FTTP_SA",
    "gnaf_pid": "GANSW716872446"
   }
  },
  {
   "type": "Feature",
   "geometry": {
    "type": "Point",
    "coordinates": [
     150.92604739,
     -33.67878344
    ]
   },
   "properties": {
    "name": "13 CONNOR PLACE ROUSE HILL 2155",
    "locID": "LOC000014142188",
    "tech": "FTTN",
    "upgrade": "FTTP_SA",
    "gnaf_pid": "GANSW705820388"
   }
  },
  {
   "type": "Feature",
   "geometry": {
    "type": "Point",
    "coordinates": [
     150.93190413,
     -33.69319218
    ]
   },
   "properties": {
    "name": "13 DAGARA STREET ROUSE HILL 2155",
    "locID": "LOC000112298182",
    "tech": "NULL",
    "upgrade": "NULL_NA",
    "gnaf_pid": "GANSW718097743"
   }
  },
  {
   "type": "Feature",
   "geometry": {
    "type": "Point",
    "coordinates": [
     150.8970298,
     -33.68513608
    ]
   },
   "properties": {
    "name": "14 LUCY STREET ROUSE HILL 2155",
    "locID": "LOC000180287483",
    "tech": "FTTP",
    "upgrade": "NULL_NA",
    "gnaf_pid": "GANSW720422181"
   }
  },
  {
   "type": "Feature",
   "geometry": {
    "type": "Point",
    "coordinates": [
     150.91719378,
     -33.67313786
    ]
   },
   "properties": {
    "name": "14 MAILEY CIRCUIT ROUSE HILL 2155",
    "locID": "LOC000041036303",
    "tech": "FTTN",
    "upgrade": "FTTP_SA",
    "gnaf_pid": "GANSW705806518"
   }
  },
  {
   "type": "Feature",
   "geometry": {
    "type": "Point",
    "coordinates": [
     150.89525584,
     -33.68257269
    ]
   },
   "properties": {
    "name": "14 MANEROO STREET ROUSE HILL 2155",
    "locID": "LOC000183164740",
    "tech": "FTTP",
    "upgrade": "NULL_NA",
    "gnaf_pid": "GANSW720422163"
   }
  },
  {
   "type": "Feature",
   "geometry": {
    "type": "Point",
    "coordinates": [
     150.89252449,
     -33.68310833
    ]
   },
   "properties": {
    "name": "14 MARCHANT STREET ROUSE HILL 2155",
    "locID": "LOC000185366086",
    "tech": "FTTP",
    "upgrade": "NULL_NA",
    "gnaf_pid": "GANSW720809120"
   }
  },
  {
   "type": "Feature",
   "geometry": {
    "type": "Point",
    "coordinates": [
     150.92395583,
     -33.6852514
    ]
   },
   "properties": {
    "name": "14 MCCOMBE AVENUE ROUSE HILL 2155",
    "locID": "LOC000091495711",
    "tech": "FTTP",
    "upgrade": "NULL_NA",
    "gnaf_pid": "GANSW716928164"
   }
  },
  {
   "type": "Feature",
   "geometry": {
    "type": "Point",
    "coordinates": [
     150.91830535,
     -33.67681626
    ]
   },
   "properties": {
    "name": "14 MCGILVRAY PLACE ROUSE HILL 2155",
    "locID": "LOC000030352702",
    "tech": "FTTN",
    "upgrade": "FTTP_SA",
    "gnaf_pid": "GANSW705806570"
   }
  },
  {
   "type": "Feature",
   "geometry": {
    "type": "Point",
    "coordinates": [
     150.91969943,
     -33.680694
    ]
   },
   "properties": {
    "name": "14 MCGUIRK WAY ROUSE HILL 2155",
    "locID": "LOC000037446599",
    "tech": "FTTN",
    "upgrade": "FTTP_SA",
    "gnaf_pid": "GANSW705816873"
   }
  },
  {
   "type": "Feature",
   "geometry": {
    "type": "Point",
    "coordinates": [
     150.92700242,
     -33.67827902
    ]
   },
   "properties": {
    "name": "14 MILFORD DRIVE ROUSE HILL 2155",
    "locID": "LOC000075770208",
    "tech": "FTTN",
    "upgrade": "FTTP_SA",
    "gnaf_pid": "GANSW705840645"
   }
  },
  {
   "type": "Feature",
   "geometry": {
    "type": "Point",
    "coordinates": [
     150.92901576,
     -33.67758669
    ]
   },
   "properties": {
    "name": "14 MINDARIBBA AVENUE ROUSE HILL 2155",
    "locID": "LOC000100865738",
    "tech": "FTTN",
    "upgrade": "FTTP_SA",
    "gnaf_pid": "GANSW705810133"
   }
  },
  {
   "type": "Feature",
   "geometry": {
    "type": "Point",
    "coordinates": [
     150.92508173,
     -33.67659696
    ]
   },