{
 "type": "FeatureCollection",
 "generated": "2023-07-04T10:50:42.301305",
 "suburb": "WONGO CREEK",
 "features": [
  {
   "type": "Feature",
   "geometry": {
    "type": "Point",
    "coordinates": [
     150.51178457,
     -30.75413385
    ]
   },
   "properties": {
    "name": "1160 CORELLA ROAD WONGO CREEK 2346",
    "locID": "LOC000011766713",
    "tech": "SATELLITE",
    "upgrade": "NULL_NA",
    "gnaf_pid": "GANSW717475261"
   }
  },
  {
   "type": "Feature",
   "geometry": {
    "type": "Point",
    "coordinates": [
     150.51178457,
     -30.75413385
    ]
   },
   "properties": {
    "name": "1326 CORELLA ROAD WONGO CREEK 2346",
    "locID": "ChIJT49BfWqGoGsRK4pCXCHZsyk",
    "tech": "SATELLITE",
    "upgrade": "UNKNOWN",
    "gnaf_pid": "GANSW717475262"
   }
  },
  {
   "type": "Feature",
   "geometry": {
    "type": "Point",
    "coordinates": [
     150.51178457,
     -30.75413385
    ]
   },
   "properties": {
    "name": "1501 CORELLA ROAD WONGO CREEK 2346",
    "locID": "ChIJT49BfWqGoGsRV8kgbQDegjs",
    "tech": "SATELLITE",
    "upgrade": "UNKNOWN",
    "gnaf_pid": "GANSW717475263"
   }
  },
  {
   "type": "Feature",
   "geometry": {
    "type": "Point",
    "coordinates": [
     150.51178457,
     -30.75413385
    ]
   },
   "properties": {
    "name": "1538 CORELLA ROAD WONGO CREEK 2346",
    "locID": "ChIJT49BfWqGoGsR1hpNgHDZC7M",
    "tech": "SATELLITE",
    "upgrade": "UNKNOWN",
    "gnaf_pid": "GANSW717475264"
   }
  },
  {
   "type": "Feature",
   "geometry": {
    "type": "Point",
    "coordinates": [
     150.51178457,
     -30.75413385
    ]
   },
   "properties": {
    "name": "1654 CORELLA ROAD WONGO CREEK 2346",
    "locID": "LOC000175039017",
    "tech": "SATELLITE",
    "upgrade": "NULL_NA",
    "gnaf_pid": "GANSW717475265"
   }
  },
  {
   "type": "Feature",
   "geometry": {
    "type": "Point",
    "coordinates": [
     150.51178457,
     -30.75413385
    ]
   },
   "properties": {
    "name": "1854 CORELLA ROAD WONGO CREEK 2346",
    "locID": "LOC000086917897",
    "tech": "SATELLITE",
    "upgrade": "NULL_NA",
    "gnaf_pid": "GANSW717475266"
   }
  },
  {
   "type": "Feature",
   "geometry": {
    "type": "Point",
    "coordinates": [
     150.53660418,
     -30.74568445
    ]
   },
   "properties": {
    "name": "156 GLENARA PARK ROAD WONGO CREEK 2346",
    "locID": "LOC000055859320",
    "tech": "WIRELESS",
    "upgrade": "NULL_NA",
    "gnaf_pid": "GANSW717476879"
   }
  },
  {
   "type": "Feature",
   "geometry": {
    "type": "Point",
    "coordinates": [
     150.53093049,
     -30.76541187
    ]
   },
   "properties": {
    "name": "100 MILLIWINDI LANE WONGO CREEK 2346",
    "locID": "LOC000002177767",
    "tech": "SATELLITE",
    "upgrade": "NULL_NA",
    "gnaf_pid": "GANSW717480449"
   }
  },
  {
   "type": "Feature",
   "geometry": {
    "type": "Point",
    "coordinates": [
     150.51310219,
     -30.72994265
    ]
   },
   "properties": {
    "name": "1033 PILLERINE LANE WONGO CREEK 2346",
    "locID": "ChIJAcHC8Z-IoGsRrXK75fOxKnM",
    "tech": "SATELLITE",
    "upgrade": "UNKNOWN",
    "gnaf_pid": "GANSW717482497"
   }
  },
  {
   "type": "Feature",
   "geometry": {
    "type": "Point",
    "coordinates": [
     150.51310219,
     -30.72994265
    ]
   },
   "properties": {
    "name": "536 PILLERINE LANE WONGO CREEK 2346",
    "locID": "ChIJAcHC8Z-IoGsRj3xDYd8SzYA",
    "tech": "SATELLITE",
    "upgrade": "UNKNOWN",
    "gnaf_pid": "GANSW717482499"
   }
  },
  {
   "type": "Feature",
   "geometry": {
    "type": "Point",
    "coordinates": [
     150.51723063,
     -30.7073666
    ]
   },
   "properties": {
    "name": "1757 RANGARI ROAD WONGO CREEK 2346",
    "locID": "ChIJQXlCkeuIoGsRmPJjHJZPLd0",
    "tech": "SATELLITE",
    "upgrade": "UNKNOWN",
    "gnaf_pid": "GANSW717483107"
   }
  },
  {
   "type": "Feature",
   "geometry": {
    "type": "Point",
    "coordinates": [
     150.51723063,
     -30.7073666
    ]
   },
   "properties": {
    "name": "1828 RANGARI ROAD WONGO CREEK 2346",
    "locID": "ChIJQXlCkeuIoGsRgWZW7HUUChQ",
    "tech": "SATELLITE",
    "upgrade": "UNKNOWN",
    "gnaf_pid": "GANSW717483108"
   }
  },
  {
   "type": "Feature",
   "geometry": {
    "type": "Point",
    "coordinates": [
     150.51723063,
     -30.7073666
    ]
   },
   "properties": {
    "name": "1 RANGARI ROAD WONGO CREEK 2346",
    "locID": "ChIJQXlCkeuIoGsRnyYwFSHc7Jo",
    "tech": "SATELLITE",
    "upgrade": "UNKNOWN",
    "gnaf_pid": "GANSW718172157"
   }
  }
 ]
}